$GPGGA,103035.0,,,,,0,,,,,,,,*7C
$GPVTG,,T,,M,,N,,K,N*2C
$GPRMC,,V,,,,,,,,,,N*53
$GPGSA,A,1,,,,,,,,,,,,,,,*1E
$GNGSA,A,1,,,,,,,,,,,,,,,*00
$GLGSV,3,1,10,74,45,320,29,71,42,205,39,73,35,033,,70,02,172,*60
$GLGSV,3,2,10,82,04,023,,75,12,272,,65,11,329,,84,18,130,*60
$GLGSV,3,3,10,83,25,074,,72,49,288,*61
$GPGSV,4,1,13,17,34,147,39,19,13,174,34,41,,,40,05,29,243,*42
$GPGSV,4,2,13,07,22,075,,08,,,,09,05,139,,11,03,071,*42
$GPGSV,4,3,13,13,50,319,,15,13,316,,20,16,292,,28,73,016,*77
$GPGSV,4,4,13,30,46,053,*4C
$GPGGA,103035.0,,,,,0,,,,,,,,*7C
$GPVTG,,T,,M,,N,,K,N*2C
$GPRMC,,V,,,,,,,,,,N*53
$GPGSA,A,1,,,,,,,,,,,,,,,*1E
$GNGSA,A,1,,,,,,,,,,,,,,,*00
$GLGSV,3,1,10,74,45,320,29,73,35,033,25,82,04,023,26,75,12,272,32*67
$GLGSV,3,2,10,84,18,130,29,71,42,205,39,70,02,172,,65,11,329,*6E
$GLGSV,3,3,10,83,25,074,,72,49,288,*61
$GPGSV,4,1,13,05,29,243,32,07,22,075,39,13,50,319,33,15,13,316,28*7F
$GPGSV,4,2,13,17,34,147,34,19,13,174,33,20,16,292,26,30,46,053,36*7B
$GPGSV,4,3,13,41,,,37,08,,,,09,05,139,,11,03,071,*77
$GPGSV,4,4,13,28,73,016,*42
$GPGGA,103036.0,3206.200448,N,03512.508644,E,1,08,0.7,677.7,M,19.0,M,,*5E
$GPVTG,281.0,T,278.1,M,1.0,N,1.8,K,A*2C
$GPRMC,103036.0,A,3206.200448,N,03512.508644,E,1.0,281.0,130416,3.0,E,A*09
$GPGSA,A,2,05,07,13,15,17,19,20,30,,,,,1.1,0.7,0.8*37
$GNGSA,A,2,05,07,13,15,17,19,20,30,,,,,1.1,0.7,0.8*29
$GNGSA,A,2,71,73,74,84,,,,,,,,,1.1,0.7,0.8*2F
$GLGSV,3,1,10,74,45,320,35,73,35,033,30,82,04,023,23,75,12,272,29*61
$GLGSV,3,2,10,65,11,329,26,84,18,130,27,83,25,074,39,71,42,205,37*6E
$GLGSV,3,3,10,72,49,288,29,70,02,172,*64
$GPGSV,4,1,13,05,29,243,32,07,22,075,37,13,50,319,32,15,13,316,29*71
$GPGSV,4,2,13,17,34,147,31,19,13,174,32,20,16,292,28,28,73,016,31*78
$GPGSV,4,3,13,30,46,053,36,41,,,36,08,,,,09,05,139,*71
$GPGSV,4,4,13,11,03,071,*4E
$GPGGA,103037.0,3206.202886,N,03512.506030,E,1,09,0.6,676.4,M,19.0,M,,*5A
$GPVTG,0.0,T,357.0,M,0.0,N,0.0,K,A*22
$GPRMC,103037.0,A,3206.202886,N,03512.506030,E,0.0,0.0,130416,3.0,E,A*05
$GPGSA,A,2,05,07,13,15,17,19,20,28,30,,,,1.0,0.6,0.7*32
$GNGSA,A,2,05,07,13,15,17,19,20,28,30,,,,1.0,0.6,0.7*2C
$GNGSA,A,2,65,71,72,73,74,83,84,,,,,,1.0,0.6,0.7*2D
$GLGSV,3,1,10,74,45,320,29,73,35,033,30,70,02,172,19,82,04,023,29*62
$GLGSV,3,2,10,75,12,272,30,65,11,329,25,84,18,130,31,83,25,074,30*65
$GLGSV,3,3,10,71,42,205,40,72,49,288,36*68
$GPGSV,4,1,13,05,29,243,38,07,22,075,31,13,50,319,36,15,13,316,25*75
$GPGSV,4,2,13,17,34,147,42,19,13,174,36,20,16,292,27,28,73,016,33*75
$GPGSV,4,3,13,30,46,053,34,41,,,36,08,,,,09,05,139,*73
$GPGSV,4,4,13,11,03,071,*4E
$GPGGA,103038.0,3206.203813,N,03512.502771,E,1,09,0.6,673.6,M,19.0,M,,*59
$GPVTG,290.7,T,287.7,M,2.0,N,3.7,K,A*23
$GPRMC,103038.0,A,3206.203813,N,03512.502771,E,2.0,290.7,130416,3.0,E,A*0F
$GPGSA,A,2,05,07,13,15,17,19,20,28,30,,,,1.0,0.6,0.7*32
$GNGSA,A,2,05,07,13,15,17,19,20,28,30,,,,1.0,0.6,0.7*2C
$GNGSA,A,2,65,71,72,73,74,83,84,,,,,,1.0,0.6,0.7*2D
$GLGSV,3,1,10,74,45,320,31,73,35,033,27,70,02,172,18,82,04,023,28*6D
$GLGSV,3,2,10,75,12,272,32,65,11,329,29,84,18,130,31,83,25,074,34*6F
$GLGSV,3,3,10,71,42,205,40,72,49,288,37*69
$GPGSV,4,1,13,05,29,243,41,07,22,075,33,13,50,319,37,15,13,316,29*74
$GPGSV,4,2,13,17,34,147,38,19,13,174,38,20,16,292,29,28,73,016,37*7C
$GPGSV,4,3,13,30,46,053,38,41,,,36,08,,,,09,05,139,*7F
$GPGSV,4,4,13,11,03,071,*4E
$GPGGA,103039.0,3206.204471,N,03512.502070,E,1,09,0.6,670.0,M,19.0,M,,*54
$GPVTG,290.3,T,287.3,M,2.4,N,4.4,K,A*23
$GPRMC,103039.0,A,3206.204471,N,03512.502070,E,2.4,290.3,130416,3.0,E,A*07
$GPGSA,A,2,05,07,13,15,17,19,20,28,30,,,,1.0,0.6,0.7*32
$GNGSA,A,2,05,07,13,15,17,19,20,28,30,,,,1.0,0.6,0.7*2C
$GNGSA,A,2,65,71,72,73,74,83,84,,,,,,1.0,0.6,0.7*2D
$GLGSV,3,1,10,74,45,320,33,73,35,033,27,70,02,172,18,82,04,023,29*6E
$GLGSV,3,2,10,75,12,272,31,65,11,329,29,84,18,130,26,83,25,074,34*6A
$GLGSV,3,3,10,71,42,205,41,72,49,288,38*67
$GPGSV,4,1,13,05,29,243,40,07,22,075,34,13,50,319,36,15,13,316,29*73
$GPGSV,4,2,13,17,34,147,38,19,13,174,39,20,16,292,31,28,73,016,37*74
$GPGSV,4,3,13,30,46,053,38,41,,,36,08,,,,09,05,139,*7F
$GPGSV,4,4,13,11,03,071,*4E
$GPGGA,103040.0,3206.205074,N,03512.501114,E,1,09,0.6,668.8,M,19.0,M,,*5B
$GPVTG,290.3,T,287.4,M,2.5,N,4.6,K,A*27
$GPRMC,103040.0,A,3206.205074,N,03512.501114,E,2.5,290.3,130416,3.0,E,A*08
$GPGSA,A,2,05,07,13,15,17,19,20,28,30,,,,1.0,0.6,0.7*32
$GNGSA,A,2,05,07,13,15,17,19,20,28,30,,,,1.0,0.6,0.7*2C
$GNGSA,A,2,65,71,72,73,74,83,84,,,,,,1.0,0.6,0.7*2D
$GLGSV,3,1,10,74,45,320,30,73,35,033,28,70,02,172,19,82,04,023,28*62
$GLGSV,3,2,10,75,12,272,28,65,11,329,29,84,18,130,30,83,25,074,33*62
$GLGSV,3,3,10,71,42,205,40,72,49,288,37*69
$GPGSV,4,1,13,05,29,243,41,07,22,075,32,13,50,319,37,15,13,316,27*7B
$GPGSV,4,2,13,17,34,147,39,19,13,174,38,20,16,292,28,28,73,016,37*7C
$GPGSV,4,3,13,30,46,053,35,41,,,36,08,,,,09,05,139,*72
$GPGSV,4,4,13,11,03,071,*4E
$GPGGA,103041.0,3206.205436,N,03512.500622,E,1,09,0.6,666.7,M,19.0,M,,*5A
$GPVTG,278.2,T,275.2,M,2.6,N,4.9,K,A*27
$GPRMC,103041.0,A,3206.205436,N,03512.500622,E,2.6,278.2,130416,3.0,E,A*0C
$GPGSA,A,2,05,07,13,15,17,19,20,28,30,,,,1.0,0.6,0.7*32
$GNGSA,A,2,05,07,13,15,17,19,20,28,30,,,,1.0,0.6,0.7*2C
$GNGSA,A,2,65,71,72,73,74,83,84,,,,,,1.0,0.6,0.7*2D
$GLGSV,3,1,10,74,45,320,31,73,35,033,30,70,02,172,19,82,04,023,23*61
$GLGSV,3,2,10,75,12,272,30,65,11,329,26,84,18,130,28,83,25,074,33*6D
$GLGSV,3,3,10,71,42,205,41,72,49,288,37*68
$GPGSV,4,1,13,05,29,243,40,07,22,075,29,13,50,319,34,15,13,316,25*71
$GPGSV,4,2,13,17,34,147,35,19,13,174,38,20,16,292,29,28,73,016,36*70
$GPGSV,4,3,13,30,46,053,31,41,,,36,08,,,,09,05,139,*76
$GPGSV,4,4,13,11,03,071,*4E
$GPGGA,103042.0,3206.205913,N,03512.499759,E,1,09,0.6,666.1,M,19.0,M,,*59
$GPVTG,278.5,T,275.5,M,2.6,N,4.8,K,A*26
$GPRMC,103042.0,A,3206.205913,N,03512.499759,E,2.6,278.5,130416,3.0,E,A*0E
$GPGSA,A,2,05,07,13,15,17,19,20,28,30,,,,1.0,0.6,0.7*32
$GNGSA,A,2,05,07,13,15,17,19,20,28,30,,,,1.0,0.6,0.7*2C
$GNGSA,A,2,65,71,72,73,74,83,84,,,,,,1.0,0.6,0.7*2D
$GLGSV,3,1,10,74,45,320,33,73,35,033,27,70,02,172,19,82,04,023,26*60
$GLGSV,3,2,10,75,12,272,32,65,11,329,26,84,18,130,27,83,25,074,34*67
$GLGSV,3,3,10,71,42,205,42,72,49,288,36*6A
$GPGSV,4,1,13,05,29,243,41,07,22,075,31,13,50,319,35,15,13,316,24*79
$GPGSV,4,2,13,17,34,147,36,19,13,174,39,20,16,292,31,28,73,016,35*78
$GPGSV,4,3,13,30,46,053,31,41,,,36,08,,,,09,05,139,*76
$GPGSV,4,4,13,11,03,071,*4E
$GPGGA,103043.0,3206.206178,N,03512.499027,E,1,09,0.6,665.1,M,19.0,M,,*53
$GPVTG,276.0,T,273.1,M,2.3,N,4.3,K,A*21
$GPRMC,103043.0,A,3206.206178,N,03512.499027,E,2.3,276.0,130416,3.0,E,A*09
$GPGSA,A,2,05,07,13,15,17,19,20,28,30,,,,1.0,0.6,0.7*32
$GNGSA,A,2,05,07,13,15,17,19,20,28,30,,,,1.0,0.6,0.7*2C
$GNGSA,A,2,65,71,72,73,74,83,84,,,,,,1.0,0.6,0.7*2D
$GLGSV,3,1,10,74,45,320,32,73,35,033,26,70,02,172,18,82,04,023,24*63
$GLGSV,3,2,10,75,12,272,30,65,11,329,25,84,18,130,28,83,25,074,32*6F
$GLGSV,3,3,10,71,42,205,40,72,49,288,40*69
$GPGSV,4,1,13,05,29,243,38,07,22,075,33,13,50,319,34,15,13,316,24*74
$GPGSV,4,2,13,17,34,147,32,19,13,174,40,20,16,292,32,28,73,016,35*71
$GPGSV,4,3,13,30,46,053,33,41,,,36,08,,,,09,05,139,*74
$GPGSV,4,4,13,11,03,071,*4E
$GPGGA,103044.0,3206.206329,N,03512.498168,E,1,09,0.6,665.0,M,19.0,M,,*58
$GPVTG,276.4,T,273.4,M,2.4,N,4.4,K,A*20
$GPRMC,103044.0,A,3206.206329,N,03512.498168,E,2.4,276.4,130416,3.0,E,A*00
$GPGSA,A,2,05,07,13,15,17,19,20,28,30,,,,1.0,0.6,0.7*32
$GNGSA,A,2,05,07,13,15,17,19,20,28,30,,,,1.0,0.6,0.7*2C
$GNGSA,A,2,65,71,72,73,74,83,84,,,,,,1.0,0.6,0.7*2D
$GLGSV,3,1,10,74,45,320,32,73,35,033,25,70,02,172,19,82,04,023,29*6C
$GLGSV,3,2,10,75,12,272,31,65,11,329,22,84,18,130,28,83,25,074,33*68
$GLGSV,3,3,10,71,42,205,38,72,49,288,38*69
$GPGSV,4,1,13,05,29,243,41,07,22,075,31,13,50,319,36,15,13,316,24*7A
$GPGSV,4,2,13,17,34,147,38,19,13,174,41,20,16,292,34,28,73,016,35*7C
$GPGSV,4,3,13,30,46,053,33,41,,,36,08,,,,09,05,139,*74
$GPGSV,4,4,13,11,03,071,*4E
$GPGGA,103045.0,3206.206548,N,03512.497254,E,1,09,0.6,663.9,M,19.0,M,,*54
$GPVTG,285.4,T,282.5,M,2.6,N,4.8,K,A*2D
$GPRMC,103045.0,A,3206.206548,N,03512.497254,E,2.6,285.4,130416,3.0,E,A*0D
$GPGSA,A,2,05,07,13,15,17,19,20,28,30,,,,1.0,0.6,0.7*32
$GNGSA,A,2,05,07,13,15,17,19,20,28,30,,,,1.0,0.6,0.7*2C
$GNGSA,A,2,65,71,72,73,74,83,84,,,,,,1.0,0.6,0.7*2D
$GLGSV,3,1,10,74,45,320,31,73,35,033,24,70,02,172,19,82,04,023,26*61
$GLGSV,3,2,10,75,12,272,31,65,11,329,24,84,18,130,31,83,25,074,33*66
$GLGSV,3,3,10,71,42,205,40,72,49,288,38*66
$GPGSV,4,1,13,05,29,243,37,07,22,075,30,13,50,319,33,15,13,316,24*7F
$GPGSV,4,2,13,17,34,147,35,19,13,174,41,20,16,292,31,28,73,016,34*75
$GPGSV,4,3,13,30,46,053,34,41,,,36,08,,,,09,05,139,*73
$GPGSV,4,4,13,11,03,071,*4E
$GPGGA,103046.0,3206.206576,N,03512.496241,E,1,09,0.6,663.7,M,19.0,M,,*51
$GPVTG,278.2,T,275.2,M,2.6,N,4.7,K,A*29
$GPRMC,103046.0,A,3206.206576,N,03512.496241,E,2.6,278.2,130416,3.0,E,A*02
$GPGSA,A,2,05,07,13,15,17,19,20,28,30,,,,1.0,0.6,0.7*32
$GNGSA,A,2,05,07,13,15,17,19,20,28,30,,,,1.0,0.6,0.7*2C
$GNGSA,A,2,65,71,72,73,74,83,84,,,,,,1.0,0.6,0.7*2D
$GLGSV,3,1,10,74,45,320,29,73,35,033,24,70,02,172,19,82,04,023,26*68
$GLGSV,3,2,10,75,12,272,29,65,11,329,22,84,18,130,28,83,25,074,33*61
$GLGSV,3,3,10,71,42,205,38,72,49,288,37*66
$GPGSV,4,1,13,05,29,243,38,07,22,075,31,13,50,319,33,15,13,316,21*74
$GPGSV,4,2,13,17,34,147,38,19,13,174,40,20,16,292,33,28,73,016,35*7A
$GPGSV,4,3,13,30,46,053,35,41,,,36,08,,,,09,05,139,*72
$GPGSV,4,4,13,11,03,071,*4E
$GPGGA,103047.0,3206.206544,N,03512.495140,E,1,09,0.6,664.2,M,19.0,M,,*52
$GPVTG,271.6,T,268.6,M,2.6,N,4.8,K,A*23
$GPRMC,103047.0,A,3206.206544,N,03512.495140,E,2.6,271.6,130416,3.0,E,A*0E
$GPGSA,A,2,05,07,13,15,17,19,20,28,30,,,,1.0,0.6,0.7*32
$GNGSA,A,2,05,07,13,15,17,19,20,28,30,,,,1.0,0.6,0.7*2C
$GNGSA,A,2,65,71,72,73,74,83,84,,,,,,1.0,0.6,0.7*2D
$GLGSV,3,1,10,74,45,320,26,73,35,033,25,70,02,172,19,82,04,023,28*68
$GLGSV,3,2,10,75,12,272,29,65,11,329,23,84,18,130,32,83,25,074,35*6D
$GLGSV,3,3,10,71,42,205,39,72,49,288,36*66
$GPGSV,4,1,13,05,29,243,39,07,22,075,34,13,50,319,34,15,13,316,22*74
$GPGSV,4,2,13,17,34,147,39,19,13,174,38,20,16,292,27,28,73,016,36*72
$GPGSV,4,3,13,30,46,053,36,41,,,36,08,,,,09,05,139,*71
$GPGSV,4,4,13,11,03,071,*4E
$GPGGA,103048.0,3206.206532,N,03512.494183,E,1,09,0.6,664.4,M,19.0,M,,*54
$GPVTG,265.6,T,262.7,M,2.6,N,4.8,K,A*2D
$GPRMC,103048.0,A,3206.206532,N,03512.494183,E,2.6,265.6,130416,3.0,E,A*0B
$GPGSA,A,2,05,07,13,15,17,19,20,28,30,,,,1.0,0.6,0.7*32
$GNGSA,A,2,05,07,13,15,17,19,20,28,30,,,,1.0,0.6,0.7*2C
$GNGSA,A,2,65,71,72,73,74,83,84,,,,,,1.0,0.6,0.7*2D
$GLGSV,3,1,10,74,45,320,26,73,35,033,27,70,02,172,19,82,04,023,29*6B
$GLGSV,3,2,10,75,12,272,27,65,11,329,24,84,18,130,33,83,25,074,33*63
$GLGSV,3,3,10,71,42,205,39,72,49,288,34*64
$GPGSV,4,1,13,05,29,243,37,07,22,075,34,09,05,139,22,13,50,319,31*7A
$GPGSV,4,2,13,15,13,316,23,17,34,147,42,19,13,174,38,20,16,292,27*71
$GPGSV,4,3,13,28,73,016,37,30,46,053,36,41,,,36,08,,,*7B
$GPGSV,4,4,13,11,03,071,*4E
$GPGGA,103049.0,3206.206432,N,03512.493244,E,1,09,0.6,665.6,M,19.0,M,,*58
$GPVTG,261.5,T,258.5,M,2.6,N,4.9,K,A*20
$GPRMC,103049.0,A,3206.206432,N,03512.493244,E,2.6,261.5,130416,3.0,E,A*03
$GPGSA,A,2,05,07,13,15,17,19,20,28,30,,,,1.0,0.6,0.7*32
$GNGSA,A,2,05,07,13,15,17,19,20,28,30,,,,1.0,0.6,0.7*2C
$GNGSA,A,2,65,71,72,73,74,83,84,,,,,,1.0,0.6,0.7*2D
$GLGSV,3,1,10,74,45,320,25,73,35,033,30,70,02,172,19,82,04,023,27*60
$GLGSV,3,2,10,75,12,272,33,65,11,329,24,84,18,130,34,83,25,074,32*60
$GLGSV,3,3,10,71,42,205,39,72,49,288,38*68
$GPGSV,4,1,13,05,29,243,36,07,22,075,34,09,05,139,21,13,50,319,35*7C
$GPGSV,4,2,13,15,13,316,27,17,34,147,42,19,13,174,38,20,16,292,25*77
$GPGSV,4,3,13,28,73,016,37,30,46,053,38,41,,,36,08,,,*75
$GPGSV,4,4,13,11,03,071,*4E
$GPGGA,103050.0,3206.206253,N,03512.492525,E,1,09,0.6,666.2,M,19.0,M,,*57
$GPVTG,256.7,T,253.7,M,2.6,N,4.8,K,A*2E
$GPRMC,103050.0,A,3206.206253,N,03512.492525,E,2.6,256.7,130416,3.0,E,A*0D
$GPGSA,A,2,05,07,13,15,17,19,20,28,30,,,,1.0,0.6,0.7*32
$GNGSA,A,2,05,07,13,15,17,19,20,28,30,,,,1.0,0.6,0.7*2C
$GNGSA,A,2,65,71,72,73,74,83,84,,,,,,1.0,0.6,0.7*2D
$GLGSV,3,1,10,74,45,320,26,73,35,033,33,70,02,172,19,82,04,023,29*6E
$GLGSV,3,2,10,75,12,272,33,65,11,329,24,84,18,130,32,83,25,074,32*66
$GLGSV,3,3,10,71,42,205,36,72,49,288,31*6E
$GPGSV,4,1,13,05,29,243,35,07,22,075,32,09,05,139,20,13,50,319,32*7F
$GPGSV,4,2,13,15,13,316,28,17,34,147,43,19,13,174,35,20,16,292,25*74
$GPGSV,4,3,13,28,73,016,34,30,46,053,40,41,,,36,08,,,*79
$GPGSV,4,4,13,11,03,071,*4E
$GPGGA,103051.0,3206.206033,N,03512.491759,E,1,09,0.6,665.8,M,19.0,M,,*51
$GPVTG,255.0,T,252.1,M,2.6,N,4.8,K,A*2D
$GPRMC,103051.0,A,3206.206033,N,03512.491759,E,2.6,255.0,130416,3.0,E,A*06
$GPGSA,A,2,05,07,13,15,17,19,20,28,30,,,,1.0,0.6,0.7*32
$GNGSA,A,2,05,07,13,15,17,19,20,28,30,,,,1.0,0.6,0.7*2C
$GNGSA,A,2,65,71,72,73,74,83,84,,,,,,1.0,0.6,0.7*2D
$GLGSV,3,1,10,74,45,320,29,73,35,033,26,70,02,172,19,82,04,023,25*69
$GLGSV,3,2,10,75,12,272,34,65,11,329,26,84,18,130,31,83,25,074,32*60
$GLGSV,3,3,10,71,42,205,38,72,49,288,35*64
$GPGSV,4,1,13,05,29,243,35,07,22,075,38,09,05,139,21,13,50,319,32*74
$GPGSV,4,2,13,15,13,316,29,17,34,147,41,19,13,174,38,20,16,292,29*76
$GPGSV,4,3,13,28,73,016,32,30,46,053,35,41,,,36,08,,,*7D
$GPGSV,4,4,13,11,03,071,*4E
$GPGGA,103052.0,3206.206045,N,03512.491068,E,1,09,0.6,665.6,M,19.0,M,,*58
$GPVTG,273.1,T,270.1,M,2.6,N,4.8,K,A*28
$GPRMC,103052.0,A,3206.206045,N,03512.491068,E,2.6,273.1,130416,3.0,E,A*04
$GPGSA,A,2,05,07,13,15,17,19,20,28,30,,,,1.0,0.6,0.7*32
$GNGSA,A,2,05,07,13,15,17,19,20,28,30,,,,1.0,0.6,0.7*2C
$GNGSA,A,2,65,71,72,73,74,83,84,,,,,,1.0,0.6,0.7*2D
$GLGSV,3,1,10,74,45,320,28,73,35,033,29,70,02,172,19,82,04,023,19*68
$GLGSV,3,2,10,75,12,272,36,65,11,329,25,84,18,130,28,83,25,074,34*6F
$GLGSV,3,3,10,71,42,205,39,72,49,288,36*66
$GPGSV,4,1,13,05,29,243,36,07,22,075,36,08,,,18,09,05,139,20*44
$GPGSV,4,2,13,13,50,319,34,15,13,316,28,17,34,147,37,19,13,174,39*7B
$GPGSV,4,3,13,20,16,292,28,28,73,016,34,30,46,053,32,41,,,36*42
$GPGSV,4,4,13,11,03,071,*4E
$GPGGA,103053.0,3206.206234,N,03512.490398,E,1,09,0.6,665.2,M,19.0,M,,*54
$GPVTG,285.7,T,282.7,M,2.6,N,4.7,K,A*23
$GPRMC,103053.0,A,3206.206234,N,03512.490398,E,2.6,285.7,130416,3.0,E,A*03
$GPGSA,A,2,05,07,13,15,17,19,20,28,30,,,,1.0,0.6,0.7*32
$GNGSA,A,2,05,07,13,15,17,19,20,28,30,,,,1.0,0.6,0.7*2C
$GNGSA,A,2,65,71,72,73,74,83,84,,,,,,1.0,0.6,0.7*2D
$GLGSV,3,1,10,74,45,320,32,73,35,033,29,70,02,172,19,82,04,023,26*6F
$GLGSV,3,2,10,75,12,272,29,65,11,329,27,84,18,130,27,83,25,074,34*6C
$GLGSV,3,3,10,71,42,205,37,72,49,288,36*68
$GPGSV,4,1,13,05,29,243,38,07,22,075,36,08,,,18,09,05,139,20*4A
$GPGSV,4,2,13,13,50,319,35,15,13,316,27,17,34,147,35,19,13,174,40*79
$GPGSV,4,3,13,20,16,292,32,28,73,016,35,30,46,053,35,41,,,36*4F
$GPGSV,4,4,13,11,03,071,*4E
$GPGGA,103054.0,3206.206439,N,03512.489701,E,1,09,0.6,665.2,M,19.0,M,,*54
$GPVTG,282.8,T,279.9,M,2.6,N,4.8,K,A*2E
$GPRMC,103054.0,A,3206.206439,N,03512.489701,E,2.6,282.8,130416,3.0,E,A*0B
$GPGSA,A,2,05,07,13,15,17,19,20,28,30,,,,1.0,0.6,0.7*32
$GNGSA,A,2,05,07,13,15,17,19,20,28,30,,,,1.0,0.6,0.7*2C
$GNGSA,A,2,65,71,72,73,74,83,84,,,,,,1.0,0.6,0.7*2D
$GLGSV,3,1,10,74,45,320,29,73,35,033,27,70,02,172,19,82,04,023,19*67
$GLGSV,3,2,10,75,12,272,32,65,11,329,26,84,18,130,30,83,25,074,33*66
$GLGSV,3,3,10,71,42,205,38,72,49,288,37*66
$GPGSV,4,1,13,05,29,243,39,07,22,075,30,08,,,18,09,05,139,20*4D
$GPGSV,4,2,13,13,50,319,32,15,13,316,27,17,34,147,38,19,13,174,34*70
$GPGSV,4,3,13,20,16,292,31,28,73,016,33,30,46,053,35,41,,,36*4A
$GPGSV,4,4,13,11,03,071,*4E
$GPGGA,103055.0,3206.206456,N,03512.489028,E,1,09,0.6,665.6,M,19.0,M,,*54
$GPVTG,267.4,T,264.4,M,2.6,N,4.8,K,A*28
$GPRMC,103055.0,A,3206.206456,N,03512.489028,E,2.6,267.4,130416,3.0,E,A*08
$GPGSA,A,2,05,07,13,15,17,19,20,28,30,,,,1.0,0.6,0.7*32
$GNGSA,A,2,05,07,13,15,17,19,20,28,30,,,,1.0,0.6,0.7*2C
$GNGSA,A,2,65,71,72,73,74,83,84,,,,,,1.0,0.6,0.7*2D
$GLGSV,3,1,10,74,45,320,30,73,35,033,25,70,02,172,19,82,04,023,20*67
$GLGSV,3,2,10,75,12,272,32,65,11,329,23,84,18,130,33,83,25,074,33*60
$GLGSV,3,3,10,71,42,205,39,72,49,288,36*66
$GPGSV,4,1,13,05,29,243,38,07,22,075,30,08,,,18,09,05,139,19*46
$GPGSV,4,2,13,13,50,319,33,15,13,316,29,17,34,147,37,19,13,174,35*71
$GPGSV,4,3,13,20,16,292,32,28,73,016,35,30,46,053,36,41,,,36*4C
$GPGSV,4,4,13,11,03,071,*4E
$GPGGA,103056.0,3206.206322,N,03512.488413,E,1,09,0.6,665.0,M,19.0,M,,*58
$GPVTG,254.0,T,251.0,M,2.6,N,4.8,K,A*2E
$GPRMC,103056.0,A,3206.206322,N,03512.488413,E,2.6,254.0,130416,3.0,E,A*06
$GPGSA,A,2,05,07,13,15,17,19,20,28,30,,,,1.0,0.6,0.7*32
$GNGSA,A,2,05,07,13,15,17,19,20,28,30,,,,1.0,0.6,0.7*2C
$GNGSA,A,2,65,71,72,73,74,83,84,,,,,,1.0,0.6,0.7*2D
$GLGSV,3,1,10,74,45,320,33,73,35,033,27,70,02,172,19,82,04,023,20*66
$GLGSV,3,2,10,75,12,272,31,65,11,329,21,84,18,130,32,83,25,074,34*67
$GLGSV,3,3,10,71,42,205,34,72,49,288,33*6E
$GPGSV,4,1,13,05,29,243,34,07,22,075,34,08,,,18,09,05,139,19*4E
$GPGSV,4,2,13,13,50,319,30,15,13,316,26,17,34,147,40,19,13,174,38*70
$GPGSV,4,3,13,20,16,292,27,28,73,016,30,30,46,053,35,41,,,36*4E
$GPGSV,4,4,13,11,03,071,*4E
$GPGGA,103057.0,3206.206048,N,03512.487727,E,1,09,0.6,665.0,M,19.0,M,,*5D
$GPVTG,248.9,T,245.9,M,2.7,N,4.9,K,A*26
$GPRMC,103057.0,A,3206.206048,N,03512.487727,E,2.7,248.9,130416,3.0,E,A*06
$GPGSA,A,2,05,07,13,15,17,19,20,28,30,,,,1.0,0.6,0.7*32
$GNGSA,A,2,05,07,13,15,17,19,20,28,30,,,,1.0,0.6,0.7*2C
$GNGSA,A,2,65,71,72,73,74,83,84,,,,,,1.0,0.6,0.7*2D
$GLGSV,3,1,10,74,45,320,31,73,35,033,32,70,02,172,19,82,04,023,18*6B
$GLGSV,3,2,10,75,12,272,30,65,11,329,30,84,18,130,32,83,25,074,34*66
$GLGSV,3,3,10,71,42,205,37,72,49,288,31*6F
$GPGSV,4,1,13,05,29,243,29,07,22,075,34,08,,,18,09,05,139,19*42
$GPGSV,4,2,13,13,50,319,30,15,13,316,31,17,34,147,38,19,13,174,36*77
$GPGSV,4,3,13,20,16,292,29,28,73,016,33,30,46,053,33,41,,,37*44
$GPGSV,4,4,13,11,03,071,*4E
$GPGGA,103058.0,3206.205391,N,03512.487403,E,1,10,0.6,665.7,M,19.0,M,,*5C
$GPVTG,214.3,T,211.3,M,2.7,N,4.9,K,A*2E
$GPRMC,103058.0,A,3206.205391,N,03512.487403,E,2.7,214.3,130416,3.0,E,A*0B
$GPGSA,A,2,05,07,09,13,15,17,19,20,28,30,,,0.9,0.6,0.7*33
$GNGSA,A,2,05,07,09,13,15,17,19,20,28,30,,,0.9,0.6,0.7*2D
$GNGSA,A,2,65,71,72,73,74,83,84,,,,,,0.9,0.6,0.7*25
$GLGSV,3,1,10,74,45,320,32,73,35,033,33,70,02,172,14,82,04,023,21*6E
$GLGSV,3,2,10,75,12,272,30,65,11,329,31,84,18,130,24,83,25,074,39*6D
$GLGSV,3,3,10,71,42,205,35,72,49,288,34*68
$GPGSV,4,1,13,05,29,243,31,07,22,075,39,08,,,17,09,05,139,18*48
$GPGSV,4,2,13,13,50,319,33,15,13,316,33,17,34,147,35,19,13,174,32*7F
$GPGSV,4,3,13,20,16,292,32,28,73,016,31,30,46,053,39,41,,,37*46
$GPGSV,4,4,13,11,03,071,*4E
$GPGGA,103059.0,3206.204692,N,03512.487299,E,1,10,0.6,665.8,M,19.0,M,,*50
$GPVTG,189.4,T,186.4,M,2.7,N,4.9,K,A*24
$GPRMC,103059.0,A,3206.204692,N,03512.487299,E,2.7,189.4,130416,3.0,E,A*08
$GPGSA,A,2,05,07,09,13,15,17,19,20,28,30,,,0.9,0.6,0.7*33
$GNGSA,A,2,05,07,09,13,15,17,19,20,28,30,,,0.9,0.6,0.7*2D
$GNGSA,A,2,65,71,72,73,74,83,84,,,,,,0.9,0.6,0.7*25
$GLGSV,3,1,10,74,45,320,33,73,35,033,37,70,02,172,14,82,04,023,21*6B
$GLGSV,3,2,10,75,12,272,30,65,11,329,33,84,18,130,28,83,25,074,41*6C
$GLGSV,3,3,10,71,42,205,34,72,49,288,32*6F
$GPGSV,4,1,13,05,29,243,32,07,22,075,39,08,,,17,09,05,139,18*4B
$GPGSV,4,2,13,13,50,319,35,15,13,316,32,17,34,147,35,19,13,174,33*79
$GPGSV,4,3,13,20,16,292,32,28,73,016,35,30,46,053,41,41,,,37*4D
$GPGSV,4,4,13,11,03,071,*4E
$GPGGA,103100.0,3206.204007,N,03512.487345,E,1,10,0.6,664.8,M,19.0,M,,*56
$GPVTG,190.8,T,187.8,M,2.7,N,4.9,K,A*2D
$GPRMC,103100.0,A,3206.204007,N,03512.487345,E,2.7,190.8,130416,3.0,E,A*0B
$GPGSA,A,2,05,07,09,13,15,17,19,20,28,30,,,0.9,0.6,0.7*33
$GNGSA,A,2,05,07,09,13,15,17,19,20,28,30,,,0.9,0.6,0.7*2D
$GNGSA,A,2,65,71,72,73,74,83,84,,,,,,0.9,0.6,0.7*25
$GLGSV,3,1,10,74,45,320,33,73,35,033,37,70,02,172,14,82,04,023,19*60
$GLGSV,3,2,10,75,12,272,30,65,11,329,31,84,18,130,23,83,25,074,37*64
$GLGSV,3,3,10,71,42,205,34,72,49,288,33*6E
$GPGSV,4,1,13,05,29,243,31,07,22,075,37,08,,,17,09,05,139,18*46
$GPGSV,4,2,13,13,50,319,35,15,13,316,30,17,34,147,37,19,13,174,32*78
$GPGSV,4,3,13,20,16,292,31,28,73,016,36,30,46,053,40,41,,,37*4C
$GPGSV,4,4,13,11,03,071,*4E
$GPGGA,103101.0,3206.203315,N,03512.487354,E,1,10,0.6,664.9,M,19.0,M,,*51
$GPVTG,191.2,T,188.2,M,2.7,N,5.0,K,A*2B
$GPRMC,103101.0,A,3206.203315,N,03512.487354,E,2.7,191.2,130416,3.0,E,A*06
$GPGSA,A,2,05,07,09,13,15,17,19,20,28,30,,,0.9,0.6,0.7*33
$GNGSA,A,2,05,07,09,13,15,17,19,20,28,30,,,0.9,0.6,0.7*2D
$GNGSA,A,2,65,71,72,73,74,83,84,,,,,,0.9,0.6,0.7*25
$GLGSV,3,1,10,74,45,320,31,73,35,033,38,70,02,172,14,82,04,023,22*65
$GLGSV,3,2,10,75,12,272,31,65,11,329,30,84,18,130,28,83,25,074,38*60
$GLGSV,3,3,10,71,42,205,35,72,49,288,34*68
$GPGSV,4,1,13,05,29,243,33,07,22,075,39,08,,,17,09,05,139,18*4A
$GPGSV,4,2,13,13,50,319,36,15,13,316,32,17,34,147,37,19,13,174,31*7A
$GPGSV,4,3,13,20,16,292,32,28,73,016,36,30,46,053,40,41,,,36*4E
$GPGSV,4,4,13,11,03,071,*4E
$GPGGA,103102.0,3206.202553,N,03512.487266,E,1,10,0.6,664.8,M,19.0,M,,*56
$GPVTG,199.2,T,196.2,M,2.7,N,5.0,K,A*2C
$GPRMC,103102.0,A,3206.202553,N,03512.487266,E,2.7,199.2,130416,3.0,E,A*08
$GPGSA,A,2,05,07,09,13,15,17,19,20,28,30,,,0.9,0.6,0.7*33
$GNGSA,A,2,05,07,09,13,15,17,19,20,28,30,,,0.9,0.6,0.7*2D
$GNGSA,A,2,65,71,72,73,74,83,84,,,,,,0.9,0.6,0.7*25
$GLGSV,3,1,10,74,45,320,32,73,35,033,36,70,02,172,14,82,04,023,22*68
$GLGSV,3,2,10,75,12,272,31,65,11,329,31,84,18,130,28,83,25,074,40*6E
$GLGSV,3,3,10,71,42,205,38,72,49,288,34*65
$GPGSV,4,1,13,05,29,243,36,07,22,075,39,08,,,17,09,05,139,18*4F
$GPGSV,4,2,13,13,50,319,35,15,13,316,29,17,34,147,38,19,13,174,32*7F
$GPGSV,4,3,13,20,16,292,28,28,73,016,36,30,46,053,38,41,,,34*48
$GPGSV,4,4,13,11,03,071,*4E
$GPGGA,103103.0,3206.201802,N,03512.486915,E,1,10,0.6,664.6,M,19.0,M,,*5D
$GPVTG,204.7,T,201.8,M,2.7,N,5.0,K,A*29
$GPRMC,103103.0,A,3206.201802,N,03512.486915,E,2.7,204.7,130416,3.0,E,A*0F
$GPGSA,A,2,05,07,09,13,15,17,19,20,28,30,,,0.9,0.6,0.7*33
$GNGSA,A,2,05,07,09,13,15,17,19,20,28,30,,,0.9,0.6,0.7*2D
$GNGSA,A,2,65,71,72,73,74,83,84,,,,,,0.9,0.6,0.7*25
$GLGSV,3,1,10,74,45,320,31,73,35,033,34,70,02,172,14,82,04,023,22*69
$GLGSV,3,2,10,75,12,272,34,65,11,329,31,84,18,130,25,83,25,074,32*63
$GLGSV,3,3,10,71,42,205,38,72,49,288,31*60
$GPGSV,4,1,13,05,29,243,37,07,22,075,34,08,,,17,09,05,139,18*43
$GPGSV,4,2,13,13,50,319,34,15,13,316,33,17,34,147,39,19,13,174,32*74
$GPGSV,4,3,13,20,16,292,33,28,73,016,33,30,46,053,36,41,,,33*4E
$GPGSV,4,4,13,11,03,071,*4E
$GPGGA,103104.0,3206.201174,N,03512.486304,E,1,09,0.6,665.1,M,19.0,M,,*56
$GPVTG,241.8,T,238.8,M,2.8,N,5.1,K,A*23
$GPRMC,103104.0,A,3206.201174,N,03512.486304,E,2.8,241.8,130416,3.0,E,A*0B
$GPGSA,A,2,05,07,13,15,17,19,20,28,30,,,,0.9,0.6,0.7*3A
$GNGSA,A,2,05,07,13,15,17,19,20,28,30,,,,0.9,0.6,0.7*24
$GNGSA,A,2,65,71,72,73,74,83,84,,,,,,0.9,0.6,0.7*25
$GLGSV,3,1,10,74,45,320,35,73,35,033,29,70,02,172,14,82,04,023,20*63
$GLGSV,3,2,10,75,12,272,35,65,11,329,33,84,18,130,22,83,25,074,29*6D
$GLGSV,3,3,10,71,42,205,39,72,49,288,34*64
$GPGSV,4,1,13,05,29,243,37,07,22,075,33,08,,,17,09,05,139,18*44
$GPGSV,4,2,13,13,50,319,36,15,13,316,32,17,34,147,38,19,13,174,36*72
$GPGSV,4,3,13,20,16,292,34,28,73,016,33,30,46,053,31,41,,,33*4E
$GPGSV,4,4,13,11,03,071,*4E
$GPGGA,103105.0,3206.201132,N,03512.485452,E,1,09,0.6,665.2,M,19.0,M,,*51
$GPVTG,277.4,T,274.5,M,2.7,N,5.0,K,A*21
$GPRMC,103105.0,A,3206.201132,N,03512.485452,E,2.7,277.4,130416,3.0,E,A*09
$GPGSA,A,2,05,07,13,15,17,19,20,28,30,,,,0.9,0.6,0.7*3A
$GNGSA,A,2,05,07,13,15,17,19,20,28,30,,,,0.9,0.6,0.7*24
$GNGSA,A,2,65,71,72,73,74,83,84,,,,,,0.9,0.6,0.7*25
$GLGSV,3,1,10,74,45,320,34,73,35,033,31,70,02,172,14,82,04,023,21*6A
$GLGSV,3,2,10,75,12,272,34,65,11,329,34,84,18,130,26,83,25,074,29*6F
$GLGSV,3,3,10,71,42,205,39,72,49,288,36*66
$GPGSV,4,1,13,05,29,243,36,07,22,075,33,08,,,17,09,05,139,18*45
$GPGSV,4,2,13,13,50,319,36,15,13,316,33,17,34,147,38,19,13,174,34*71
$GPGSV,4,3,13,20,16,292,31,28,73,016,34,30,46,053,29,41,,,33*45
$GPGSV,4,4,13,11,03,071,*4E
$GPGGA,103106.0,3206.201416,N,03512.484551,E,1,09,0.6,665.2,M,19.0,M,,*52
$GPVTG,294.4,T,291.4,M,2.7,N,5.0,K,A*26
$GPRMC,103106.0,A,3206.201416,N,03512.484551,E,2.7,294.4,130416,3.0,E,A*07
$GPGSA,A,2,05,07,13,15,17,19,20,28,30,,,,0.9,0.6,0.7*3A
$GNGSA,A,2,05,07,13,15,17,19,20,28,30,,,,0.9,0.6,0.7*24
$GNGSA,A,2,65,71,72,73,74,83,84,,,,,,0.9,0.6,0.7*25
$GLGSV,3,1,10,74,45,320,37,73,35,033,33,70,02,172,14,82,04,023,20*6A
$GLGSV,3,2,10,75,12,272,30,65,11,329,29,84,18,130,27,83,25,074,31*6F
$GLGSV,3,3,10,71,42,205,39,72,49,288,39*69
$GPGSV,4,1,13,05,29,243,39,07,22,075,30,08,,,17,09,05,139,19*48
$GPGSV,4,2,13,13,50,319,35,15,13,316,31,17,34,147,37,19,13,174,33*78
$GPGSV,4,3,13,20,16,292,32,28,73,016,30,30,46,053,33,41,,,33*49
$GPGSV,4,4,13,11,03,071,*4E
$GPGGA,103107.0,3206.201928,N,03512.483880,E,1,09,0.6,665.1,M,19.0,M,,*56
$GPVTG,324.0,T,321.0,M,2.7,N,5.0,K,A*26
$GPRMC,103107.0,A,3206.201928,N,03512.483880,E,2.7,324.0,130416,3.0,E,A*0E
$GPGSA,A,2,05,07,13,15,17,19,20,28,30,,,,0.9,0.6,0.7*3A
$GNGSA,A,2,05,07,13,15,17,19,20,28,30,,,,0.9,0.6,0.7*24
$GNGSA,A,2,65,71,72,73,74,83,84,,,,,,0.9,0.6,0.7*25
$GLGSV,3,1,10,74,45,320,38,73,35,033,27,70,02,172,14,82,04,023,24*64
$GLGSV,3,2,10,75,12,272,34,65,11,329,34,84,18,130,22,83,25,074,32*61
$GLGSV,3,3,10,71,42,205,39,72,49,288,36*66
$GPGSV,4,1,13,05,29,243,38,07,22,075,33,08,,,17,09,05,139,19*4A
$GPGSV,4,2,13,13,50,319,36,15,13,316,30,17,34,147,32,19,13,174,37*7B
$GPGSV,4,3,13,20,16,292,35,28,73,016,35,30,46,053,35,41,,,33*4D
$GPGSV,4,4,13,11,03,071,*4E
$GPGGA,103108.0,3206.202721,N,03512.483714,E,1,09,0.6,665.5,M,19.0,M,,*5B
$GPVTG,4.8,T,1.8,M,2.7,N,5.0,K,A*26
$GPRMC,103108.0,A,3206.202721,N,03512.483714,E,2.7,4.8,130416,3.0,E,A*0E
$GPGSA,A,2,05,07,13,15,17,19,20,28,30,,,,0.9,0.6,0.7*3A
$GNGSA,A,2,05,07,13,15,17,19,20,28,30,,,,0.9,0.6,0.7*24
$GNGSA,A,2,65,71,72,73,74,83,84,,,,,,0.9,0.6,0.7*25
$GLGSV,3,1,10,74,45,320,33,73,35,033,34,70,02,172,14,82,04,023,24*6D
$GLGSV,3,2,10,75,12,272,37,65,11,329,33,84,18,130,25,83,25,074,29*68
$GLGSV,3,3,10,71,42,205,31,72,49,288,38*60
$GPGSV,4,1,13,05,29,243,37,07,22,075,31,08,,,17,09,05,139,19*47
$GPGSV,4,2,13,13,50,319,35,15,13,316,33,17,34,147,31,19,13,174,37*78
$GPGSV,4,3,13,20,16,292,32,28,73,016,32,30,46,053,32,41,,,33*4A
$GPGSV,4,4,13,11,03,071,*4E
$GPGGA,103109.0,3206.203615,N,03512.483922,E,1,09,0.6,664.0,M,19.0,M,,*52
$GPVTG,9.4,T,6.4,M,2.7,N,5.0,K,A*2C
$GPRMC,103109.0,A,3206.203615,N,03512.483922,E,2.7,9.4,130416,3.0,E,A*02
$GPGSA,A,2,05,07,13,15,17,19,20,28,30,,,,0.9,0.6,0.7*3A
$GNGSA,A,2,05,07,13,15,17,19,20,28,30,,,,0.9,0.6,0.7*24
$GNGSA,A,2,65,71,72,73,74,83,84,,,,,,0.9,0.6,0.7*25
$GLGSV,3,1,10,74,45,320,36,73,35,033,27,70,02,172,14,82,04,023,23*6D
$GLGSV,3,2,10,75,12,272,37,65,11,329,32,84,18,130,24,83,25,074,33*63
$GLGSV,3,3,10,71,42,205,36,72,49,288,38*67
$GPGSV,4,1,13,05,29,243,37,07,22,075,32,08,,,17,09,05,139,19*44
$GPGSV,4,2,13,13,50,319,37,15,13,316,34,17,34,147,27,19,13,174,34*79
$GPGSV,4,3,13,20,16,292,34,28,73,016,36,30,46,053,34,41,,,33*4E
$GPGSV,4,4,13,11,03,071,*4E
$GPGGA,103110.0,3206.204565,N,03512.484149,E,1,10,0.6,663.9,M,19.0,M,,*5D
$GPVTG,5.6,T,2.6,M,2.7,N,5.1,K,A*25
$GPRMC,103110.0,A,3206.204565,N,03512.484149,E,2.7,5.6,130416,3.0,E,A*05
$GPGSA,A,2,05,07,09,13,15,17,19,20,28,30,,,0.9,0.6,0.7*33
$GNGSA,A,2,05,07,09,13,15,17,19,20,28,30,,,0.9,0.6,0.7*2D
$GNGSA,A,2,65,71,72,73,74,83,84,,,,,,0.9,0.6,0.7*25
$GLGSV,3,1,10,74,45,320,37,73,35,033,30,70,02,172,14,82,04,023,21*68
$GLGSV,3,2,10,75,12,272,34,65,11,329,33,84,18,130,23,83,25,074,25*61
$GLGSV,3,3,10,71,42,205,37,72,49,288,38*66
$GPGSV,4,1,13,05,29,243,38,07,22,075,29,08,,,17,09,05,139,19*41
$GPGSV,4,2,13,13,50,319,32,15,13,316,34,17,34,147,33,19,13,174,35*78
$GPGSV,4,3,13,20,16,292,34,28,73,016,28,30,46,053,33,41,,,33*46
$GPGSV,4,4,13,11,03,071,*4E
$GPGGA,103111.0,3206.205520,N,03512.484167,E,1,10,0.6,663.8,M,19.0,M,,*51
$GPVTG,356.6,T,353.6,M,2.8,N,5.2,K,A*2B
$GPRMC,103111.0,A,3206.205520,N,03512.484167,E,2.8,356.6,130416,3.0,E,A*02
$GPGSA,A,2,05,07,09,13,15,17,19,20,28,30,,,0.9,0.6,0.7*33
$GNGSA,A,2,05,07,09,13,15,17,19,20,28,30,,,0.9,0.6,0.7*2D
$GNGSA,A,2,65,71,72,73,74,83,84,,,,,,0.9,0.6,0.7*25
$GLGSV,3,1,10,74,45,320,37,73,35,033,32,70,02,172,14,82,04,023,19*61
$GLGSV,3,2,10,75,12,272,35,65,11,329,30,84,18,130,26,83,25,074,30*62
$GLGSV,3,3,10,71,42,205,39,72,49,288,38*68
$GPGSV,4,1,13,05,29,243,41,07,22,075,30,08,,,17,09,05,139,19*47
$GPGSV,4,2,13,13,50,319,37,15,13,316,37,17,34,147,37,19,13,174,32*7D
$GPGSV,4,3,13,20,16,292,34,28,73,016,31,30,46,053,32,41,,,33*4F
$GPGSV,4,4,13,11,03,071,*4E
$GPGGA,103112.0,3206.206362,N,03512.483885,E,1,10,0.6,663.7,M,19.0,M,,*5C
$GPVTG,331.7,T,328.8,M,2.8,N,5.2,K,A*29
$GPRMC,103112.0,A,3206.206362,N,03512.483885,E,2.8,331.7,130416,3.0,E,A*00
$GPGSA,A,2,05,07,09,13,15,17,19,20,28,30,,,0.9,0.6,0.7*33
$GNGSA,A,2,05,07,09,13,15,17,19,20,28,30,,,0.9,0.6,0.7*2D
$GNGSA,A,2,65,71,72,73,74,83,84,,,,,,0.9,0.6,0.7*25
$GLGSV,3,1,10,74,45,320,33,73,35,033,26,70,02,172,14,82,04,023,19*60
$GLGSV,3,2,10,75,12,272,35,65,11,329,24,84,18,130,28,83,25,074,33*6A
$GLGSV,3,3,10,71,42,205,41,72,49,288,35*6A
$GPGSV,4,1,13,05,29,243,38,07,22,075,32,08,,,17,09,05,139,19*4B
$GPGSV,4,2,13,13,50,319,36,15,13,316,31,17,34,147,36,19,13,174,36*7F
$GPGSV,4,3,13,20,16,292,33,28,73,016,32,30,46,053,29,41,,,33*41
$GPGSV,4,4,13,11,03,071,*4E
$GPGGA,103113.0,3206.206946,N,03512.483193,E,1,10,0.6,663.8,M,19.0,M,,*50
$GPVTG,292.5,T,289.5,M,2.8,N,5.2,K,A*24
$GPRMC,103113.0,A,3206.206946,N,03512.483193,E,2.8,292.5,130416,3.0,E,A*09
$GPGSA,A,2,05,07,09,13,15,17,19,20,28,30,,,0.9,0.6,0.7*33
$GNGSA,A,2,05,07,09,13,15,17,19,20,28,30,,,0.9,0.6,0.7*2D
$GNGSA,A,2,65,71,72,73,74,83,84,,,,,,0.9,0.6,0.7*25
$GLGSV,3,1,10,74,45,320,35,73,35,033,26,70,02,172,14,82,04,023,19*66
$GLGSV,3,2,10,75,12,272,31,65,11,329,27,84,18,130,30,83,25,074,36*61
$GLGSV,3,3,10,71,42,205,39,72,49,288,33*63
$GPGSV,4,1,13,05,29,243,36,07,22,075,36,08,,,17,09,05,139,20*4B
$GPGSV,4,2,13,13,50,319,37,15,13,316,31,17,34,147,37,19,13,174,40*7E
$GPGSV,4,3,13,20,16,292,33,28,73,016,34,30,46,053,36,41,,,33*49
$GPGSV,4,4,13,11,03,071,*4E
$GPGGA,103114.0,3206.207145,N,03512.482320,E,1,10,0.6,663.6,M,19.0,M,,*58
$GPVTG,283.9,T,280.9,M,2.8,N,5.1,K,A*2E
$GPRMC,103114.0,A,3206.207145,N,03512.482320,E,2.8,283.9,130416,3.0,E,A*03
$GPGSA,A,2,05,07,09,13,15,17,19,20,28,30,,,0.9,0.6,0.7*33
$GNGSA,A,2,05,07,09,13,15,17,19,20,28,30,,,0.9,0.6,0.7*2D
$GNGSA,A,2,65,71,72,73,74,83,84,,,,,,0.9,0.6,0.7*25
$GLGSV,3,1,10,74,45,320,36,73,35,033,27,70,02,172,14,82,04,023,20*6E
$GLGSV,3,2,10,75,12,272,34,65,11,329,30,84,18,130,24,83,25,074,31*60
$GLGSV,3,3,10,71,42,205,37,72,49,288,37*69
$GPGSV,4,1,13,05,29,243,35,07,22,075,34,08,,,17,09,05,139,20*4A
$GPGSV,4,2,13,13,50,319,37,15,13,316,33,17,34,147,37,19,13,174,36*7D
$GPGSV,4,3,13,20,16,292,32,28,73,016,34,30,46,053,31,41,,,33*4F
$GPGSV,4,4,13,11,03,071,*4E
$GPGGA,103115.0,3206.207431,N,03512.481412,E,1,10,0.6,663.3,M,19.0,M,,*5F
$GPVTG,292.3,T,289.3,M,2.8,N,5.2,K,A*24
$GPRMC,103115.0,A,3206.207431,N,03512.481412,E,2.8,292.3,130416,3.0,E,A*0B
$GPGSA,A,2,05,07,09,13,15,17,19,20,28,30,,,0.9,0.6,0.7*33
$GNGSA,A,2,05,07,09,13,15,17,19,20,28,30,,,0.9,0.6,0.7*2D
$GNGSA,A,2,65,71,72,73,74,83,84,,,,,,0.9,0.6,0.7*25
$GLGSV,3,1,10,74,45,320,36,73,35,033,26,70,02,172,14,82,04,023,22*6D
$GLGSV,3,2,10,75,12,272,33,65,11,329,33,84,18,130,25,83,25,074,31*65
$GLGSV,3,3,10,71,42,205,38,72,49,288,37*66
$GPGSV,4,1,13,05,29,243,35,07,22,075,31,09,05,139,21,13,50,319,37*78
$GPGSV,4,2,13,15,13,316,33,17,34,147,38,19,13,174,37,20,16,292,36*72
$GPGSV,4,3,13,28,73,016,32,30,46,053,32,41,,,33,08,,,*7F
$GPGSV,4,4,13,11,03,071,*4E
$GPGGA,103116.0,3206.207644,N,03512.480567,E,1,10,0.6,662.8,M,19.0,M,,*54
$GPVTG,279.9,T,276.9,M,2.8,N,5.2,K,A*21
$GPRMC,103116.0,A,3206.207644,N,03512.480567,E,2.8,279.9,130416,3.0,E,A*05
$GPGSA,A,2,05,07,09,13,15,17,19,20,28,30,,,0.9,0.6,0.7*33
$GNGSA,A,2,05,07,09,13,15,17,19,20,28,30,,,0.9,0.6,0.7*2D
$GNGSA,A,2,65,71,72,73,74,83,84,,,,,,0.9,0.6,0.7*25
$GLGSV,3,1,10,74,45,320,35,73,35,033,21,70,02,172,14,82,04,023,22*69
$GLGSV,3,2,10,75,12,272,30,65,11,329,27,84,18,130,30,83,25,074,30*66
$GLGSV,3,3,10,71,42,205,39,72,49,288,35*65
$GPGSV,4,1,13,05,29,243,36,07,22,075,31,09,05,139,24,13,50,319,35*7C
$GPGSV,4,2,13,15,13,316,30,17,34,147,35,19,13,174,37,20,16,292,31*7B
$GPGSV,4,3,13,28,73,016,34,30,46,053,32,41,,,33,08,,,*79
$GPGSV,4,4,13,11,03,071,*4E
$GPGGA,103117.0,3206.207705,N,03512.479643,E,1,10,0.6,662.8,M,19.0,M,,*52
$GPVTG,276.4,T,273.4,M,2.8,N,5.1,K,A*28
$GPRMC,103117.0,A,3206.207705,N,03512.479643,E,2.8,276.4,130416,3.0,E,A*01
$GPGSA,A,2,05,07,09,13,15,17,19,20,28,30,,,0.9,0.6,0.7*33
$GNGSA,A,2,05,07,09,13,15,17,19,20,28,30,,,0.9,0.6,0.7*2D
$GNGSA,A,2,65,71,72,73,74,83,84,,,,,,0.9,0.6,0.7*25
$GLGSV,3,1,10,74,45,320,33,73,35,033,28,70,02,172,14,82,04,023,22*66
$GLGSV,3,2,10,75,12,272,34,65,11,329,26,84,18,130,31,83,25,074,29*6A
$GLGSV,3,3,10,71,42,205,40,72,49,288,35*6B
$GPGSV,4,1,13,05,29,243,35,07,22,075,29,09,05,139,24,13,50,319,35*76
$GPGSV,4,2,13,15,13,316,31,17,34,147,35,19,13,174,38,20,16,292,32*76
$GPGSV,4,3,13,28,73,016,30,30,46,053,33,41,,,33,08,,,*7C
$GPGSV,4,4,13,11,03,071,*4E
$GPGGA,103118.0,3206.207662,N,03512.478835,E,1,10,0.6,662.9,M,19.0,M,,*52
$GPVTG,290.3,T,287.3,M,2.8,N,5.2,K,A*28
$GPRMC,103118.0,A,3206.207662,N,03512.478835,E,2.8,290.3,130416,3.0,E,A*0F
$GPGSA,A,2,05,07,09,13,15,17,19,20,28,30,,,0.9,0.6,0.7*33
$GNGSA,A,2,05,07,09,13,15,17,19,20,28,30,,,0.9,0.6,0.7*2D
$GNGSA,A,2,65,71,72,73,74,83,84,,,,,,0.9,0.6,0.7*25
$GLGSV,3,1,10,74,45,320,34,73,35,033,27,82,04,023,19,75,12,272,34*63
$GLGSV,3,2,10,65,11,329,23,84,18,130,27,83,25,074,27,71,42,205,40*64
$GLGSV,3,3,10,72,49,288,35,,02,172,*6E
$GPGSV,4,1,13,05,29,243,37,07,22,075,28,09,05,139,25,13,50,319,35*74
$GPGSV,4,2,13,15,13,316,28,17,34,147,32,19,13,174,38,20,16,292,33*78
$GPGSV,4,3,13,28,73,016,34,30,46,053,34,41,,,33,08,,,*7F
$GPGSV,4,4,13,11,03,071,*4E
$GPGGA,103119.0,3206.207835,N,03512.478085,E,1,10,0.6,662.8,M,19.0,M,,*5D
$GPVTG,291.4,T,288.5,M,2.7,N,5.1,K,A*2B
$GPRMC,103119.0,A,3206.207835,N,03512.478085,E,2.7,291.4,130416,3.0,E,A*08
$GPGSA,A,2,05,07,09,13,15,17,19,20,28,30,,,0.9,0.6,0.7*33
$GNGSA,A,2,05,07,09,13,15,17,19,20,28,30,,,0.9,0.6,0.7*2D
$GNGSA,A,2,65,71,72,73,74,83,84,,,,,,0.9,0.6,0.7*25
$GLGSV,3,1,10,74,45,320,35,73,35,033,27,82,04,023,21,75,12,272,33*6E
$GLGSV,3,2,10,65,11,329,24,84,18,130,25,83,25,074,32,71,42,205,35*67
$GLGSV,3,3,10,72,49,288,35,70,02,172,*69
$GPGSV,4,1,13,05,29,243,35,07,22,075,30,09,05,139,25,13,50,319,33*79
$GPGSV,4,2,13,15,13,316,23,17,34,147,37,19,13,174,40,20,16,292,32*78
$GPGSV,4,3,13,28,73,016,32,30,46,053,31,41,,,32,08,,,*7D
$GPGSV,4,4,13,11,03,071,*4E
$GPGGA,103120.0,3206.208054,N,03512.477280,E,1,10,0.6,662.7,M,19.0,M,,*50
$GPVTG,288.1,T,285.1,M,2.7,N,5.1,K,A*2F
$GPRMC,103120.0,A,3206.208054,N,03512.477280,E,2.7,288.1,130416,3.0,E,A*07
$GPGSA,A,2,05,07,09,13,15,17,19,20,28,30,,,0.9,0.6,0.7*33
$GNGSA,A,2,05,07,09,13,15,17,19,20,28,30,,,0.9,0.6,0.7*2D
$GNGSA,A,2,65,71,72,73,74,83,84,,,,,,0.9,0.6,0.7*25
$GLGSV,3,1,11,74,45,320,36,73,35,033,20,,,,34,82,04,023,21*5A
$GLGSV,3,2,11,75,12,272,33,65,11,329,23,84,18,130,29,83,25,074,27*6E
$GLGSV,3,3,11,71,42,205,35,72,49,288,35,70,02,172,*59
$GPGSV,4,1,13,05,29,243,35,07,22,075,27,09,05,139,22,13,50,319,33*78
$GPGSV,4,2,13,15,13,316,26,17,34,147,36,19,13,174,38,20,16,292,31*70
$GPGSV,4,3,13,28,73,016,32,30,46,053,31,41,,,32,08,,,*7D
$GPGSV,4,4,13,11,03,071,*4E
$GPGGA,103121.0,3206.208210,N,03512.476488,E,1,10,0.6,662.6,M,19.0,M,,*5D
$GPVTG,280.1,T,277.1,M,2.8,N,5.1,K,A*25
$GPRMC,103121.0,A,3206.208210,N,03512.476488,E,2.8,280.1,130416,3.0,E,A*0C
$GPGSA,A,2,05,07,09,13,15,17,19,20,28,30,,,0.9,0.6,0.7*33
$GNGSA,A,2,05,07,09,13,15,17,19,20,28,30,,,0.9,0.6,0.7*2D
$GNGSA,A,2,65,71,72,73,74,83,84,,,,,,0.9,0.6,0.7*25
$GLGSV,3,1,11,74,45,320,31,73,35,033,20,,,,34,82,04,023,19*56
$GLGSV,3,2,11,75,12,272,32,65,11,329,22,84,18,130,30,83,25,074,28*69
$GLGSV,3,3,11,71,42,205,39,72,49,288,35,70,02,172,*55
$GPGSV,4,1,13,05,29,243,37,07,22,075,28,09,05,139,24,13,50,319,32*72
$GPGSV,4,2,13,15,13,316,24,17,34,147,36,19,13,174,31,20,16,292,31*7B
$GPGSV,4,3,13,28,73,016,31,30,46,053,26,41,,,32,08,,,*78
$GPGSV,4,4,13,11,03,071,*4E
$GPGGA,103122.0,3206.208443,N,03512.475721,E,1,10,0.6,662.6,M,19.0,M,,*5D
$GPVTG,295.8,T,292.8,M,2.8,N,5.2,K,A*29
$GPRMC,103122.0,A,3206.208443,N,03512.475721,E,2.8,295.8,130416,3.0,E,A*01
$GPGSA,A,2,05,07,09,13,15,17,19,20,28,30,,,0.9,0.6,0.7*33
$GNGSA,A,2,05,07,09,13,15,17,19,20,28,30,,,0.9,0.6,0.7*2D
$GNGSA,A,2,65,71,72,73,74,83,84,,,,,,0.9,0.6,0.7*25
$GLGSV,3,1,11,74,45,320,28,73,35,033,21,,,,31,82,04,023,19*5A
$GLGSV,3,2,11,75,12,272,32,65,11,329,21,84,18,130,28,83,25,074,30*6A
$GLGSV,3,3,11,71,42,205,41,72,49,288,35,70,02,172,*5A
$GPGSV,4,1,13,05,29,243,40,07,22,075,27,09,05,139,26,13,50,319,28*74
$GPGSV,4,2,13,15,13,316,24,17,34,147,39,19,13,174,35,20,16,292,29*79
$GPGSV,4,3,13,28,73,016,32,30,46,053,30,41,,,32,08,,,*7C
$GPGSV,4,4,13,11,03,071,*4E
$GPGGA,103123.0,3206.208408,N,03512.475134,E,1,10,0.6,662.6,M,19.0,M,,*51
$GPVTG,279.1,T,276.2,M,2.8,N,5.2,K,A*22
$GPRMC,103123.0,A,3206.208408,N,03512.475134,E,2.8,279.1,130416,3.0,E,A*06
$GPGSA,A,2,05,07,09,13,15,17,19,20,28,30,,,0.9,0.6,0.7*33
$GNGSA,A,2,05,07,09,13,15,17,19,20,28,30,,,0.9,0.6,0.7*2D
$GNGSA,A,2,65,71,72,73,74,83,84,,,,,,0.9,0.6,0.7*25
$GLGSV,3,1,11,74,45,320,26,73,35,033,25,,,,30,82,04,023,18*50
$GLGSV,3,2,11,75,12,272,30,65,11,329,22,84,18,130,29,83,25,074,28*63
$GLGSV,3,3,11,71,42,205,41,72,49,288,33,70,02,172,*5C
$GPGSV,4,1,13,05,29,243,40,07,22,075,29,09,05,139,26,13,50,319,34*77
$GPGSV,4,2,13,15,13,316,26,17,34,147,37,19,13,174,37,20,16,292,26*78
$GPGSV,4,3,13,28,73,016,35,30,46,053,30,41,,,32,08,,,*7B
$GPGSV,4,4,13,11,03,071,*4E
$GPGGA,103124.0,3206.208469,N,03512.474682,E,1,10,0.6,662.5,M,19.0,M,,*59
$GPVTG,278.2,T,275.3,M,0.5,N,1.0,K,A*2B
$GPRMC,103124.0,A,3206.208469,N,03512.474682,E,0.5,278.2,130416,3.0,E,A*00
$GPGSA,A,2,05,07,09,13,15,17,19,20,28,30,,,0.9,0.6,0.7*33
$GNGSA,A,2,05,07,09,13,15,17,19,20,28,30,,,0.9,0.6,0.7*2D
$GNGSA,A,2,65,71,72,73,74,83,84,,,,,,0.9,0.6,0.7*25
$GLGSV,3,1,11,74,45,320,31,73,35,033,32,,,,28,82,04,023,26*54
$GLGSV,3,2,11,75,12,272,30,65,11,329,23,84,18,130,26,83,25,074,26*63
$GLGSV,3,3,11,71,42,205,42,72,49,288,33,70,02,172,*5F
$GPGSV,4,1,13,05,29,243,39,07,22,075,25,09,05,139,26,13,50,319,29*79
$GPGSV,4,2,13,15,13,316,27,17,34,147,36,19,13,174,39,20,16,292,34*75
$GPGSV,4,3,13,28,73,016,34,30,46,053,33,41,,,34,08,,,*7F
$GPGSV,4,4,13,11,03,071,*4E
$GPGGA,103125.0,3206.208568,N,03512.473632,E,1,10,0.6,662.3,M,19.0,M,,*52
$GPVTG,281.4,T,278.4,M,2.7,N,5.0,K,A*25
$GPRMC,103125.0,A,3206.208568,N,03512.473632,E,2.7,281.4,130416,3.0,E,A*0D
$GPGSA,A,2,05,07,09,13,15,17,19,20,28,30,,,0.9,0.6,0.7*33
$GNGSA,A,2,05,07,09,13,15,17,19,20,28,30,,,0.9,0.6,0.7*2D
$GNGSA,A,2,65,71,72,73,74,83,84,,,,,,0.9,0.6,0.7*25
$GLGSV,3,1,11,74,45,320,29,73,35,033,31,,,,33,82,04,023,21*53
$GLGSV,3,2,11,75,12,272,28,65,11,329,24,84,18,130,29,83,25,074,28*6C
$GLGSV,3,3,11,71,42,205,39,72,49,288,36,70,02,172,*56
$GPGSV,4,1,13,05,29,243,34,07,22,075,28,09,05,139,26,13,50,319,32*73
$GPGSV,4,2,13,15,13,316,29,17,34,147,38,19,13,174,39,20,16,292,34*75
$GPGSV,4,3,13,28,73,016,29,30,46,053,33,41,,,34,08,,,*73
$GPGSV,4,4,13,11,03,071,*4E
$GPGGA,103126.0,3206.208777,N,03512.472897,E,1,10,0.6,662.1,M,19.0,M,,*5F
$GPVTG,283.3,T,280.4,M,2.3,N,4.2,K,A*20
$GPRMC,103126.0,A,3206.208777,N,03512.472897,E,2.3,283.3,130416,3.0,E,A*03
$GPGSA,A,2,05,07,09,13,15,17,19,20,28,30,,,0.9,0.6,0.7*33
$GNGSA,A,2,05,07,09,13,15,17,19,20,28,30,,,0.9,0.6,0.7*2D
$GNGSA,A,2,65,71,72,73,74,83,84,,,,,,0.9,0.6,0.7*25
$GLGSV,3,1,11,74,45,320,31,73,35,033,27,,,,33,82,04,023,23*5F
$GLGSV,3,2,11,75,12,272,27,65,11,329,32,84,18,130,28,83,25,074,32*6E
$GLGSV,3,3,11,71,42,205,39,72,49,288,36,70,02,172,*56
$GPGSV,4,1,13,05,29,243,33,07,22,075,28,09,05,139,28,13,50,319,34*7C
$GPGSV,4,2,13,15,13,316,30,17,34,147,39,19,13,174,38,20,16,292,32*7B
$GPGSV,4,3,13,28,73,016,30,30,46,053,28,41,,,34,08,,,*71
$GPGSV,4,4,13,11,03,071,*4E
$GPGGA,103127.0,3206.208848,N,03512.471951,E,1,10,0.6,662.2,M,19.0,M,,*56
$GPVTG,273.8,T,270.8,M,3.0,N,5.5,K,A*23
$GPRMC,103127.0,A,3206.208848,N,03512.471951,E,3.0,273.8,130416,3.0,E,A*0F
$GPGSA,A,2,05,07,09,13,15,17,19,20,28,30,,,0.9,0.6,0.7*33
$GNGSA,A,2,05,07,09,13,15,17,19,20,28,30,,,0.9,0.6,0.7*2D
$GNGSA,A,2,65,71,72,73,74,83,84,,,,,,0.9,0.6,0.7*25
$GLGSV,3,1,11,74,45,320,30,73,35,033,28,,,,33,82,04,023,26*54
$GLGSV,3,2,11,75,12,272,23,65,11,329,30,84,18,130,29,83,25,074,34*6F
$GLGSV,3,3,11,71,42,205,40,72,49,288,37,70,02,172,*59
$GPGSV,4,1,13,05,29,243,36,07,22,075,32,09,05,139,28,13,50,319,31*77
$GPGSV,4,2,13,15,13,316,24,17,34,147,39,19,13,174,36,20,16,292,29*7A
$GPGSV,4,3,13,28,73,016,28,30,46,053,27,41,,,34,08,,,*77
$GPGSV,4,4,13,11,03,071,*4E
$GPGGA,103128.0,3206.208992,N,03512.471245,E,1,10,0.6,662.1,M,19.0,M,,*52
$GPVTG,276.0,T,273.1,M,2.8,N,5.1,K,A*29
$GPRMC,103128.0,A,3206.208992,N,03512.471245,E,2.8,276.0,130416,3.0,E,A*0C
$GPGSA,A,2,05,07,09,13,15,17,19,20,28,30,,,0.9,0.6,0.7*33
$GNGSA,A,2,05,07,09,13,15,17,19,20,28,30,,,0.9,0.6,0.7*2D
$GNGSA,A,2,65,71,72,73,74,83,84,,,,,,0.9,0.6,0.7*25
$GLGSV,3,1,11,74,45,320,33,73,35,033,28,,,,32,82,04,023,29*59
$GLGSV,3,2,11,75,12,272,25,65,11,329,31,84,18,130,28,83,25,074,35*68
$GLGSV,3,3,11,71,42,205,40,72,49,288,36,70,02,172,*58
$GPGSV,4,1,13,05,29,243,36,07,22,075,35,09,05,139,26,13,50,319,33*7C
$GPGSV,4,2,13,15,13,316,27,17,34,147,37,19,13,174,38,20,16,292,28*78
$GPGSV,4,3,13,28,73,016,32,30,46,053,32,41,,,34,08,,,*78
$GPGSV,4,4,13,11,03,071,*4E
$GPGGA,103129.0,3206.209015,N,03512.470451,E,1,10,0.6,662.2,M,19.0,M,,*55
$GPVTG,275.9,T,272.9,M,2.4,N,4.5,K,A*23
$GPRMC,103129.0,A,3206.209015,N,03512.470451,E,2.4,275.9,130416,3.0,E,A*0E
$GPGSA,A,2,05,07,09,13,15,17,19,20,28,30,,,0.9,0.6,0.7*33
$GNGSA,A,2,05,07,09,13,15,17,19,20,28,30,,,0.9,0.6,0.7*2D
$GNGSA,A,2,65,71,72,73,74,83,84,,,,,,0.9,0.6,0.7*25
$GLGSV,3,1,11,74,45,320,29,73,35,033,34,,,,31,82,04,023,30*54
$GLGSV,3,2,11,75,12,272,25,65,11,329,30,84,18,130,27,83,25,074,37*64
$GLGSV,3,3,11,71,42,205,37,72,49,288,38,70,02,172,*56
$GPGSV,4,1,13,05,29,243,38,07,22,075,36,09,05,139,28,13,50,319,33*7F
$GPGSV,4,2,13,15,13,316,26,17,34,147,33,19,13,174,37,20,16,292,27*7D
$GPGSV,4,3,13,28,73,016,34,30,46,053,31,41,,,33,08,,,*7A
$GPGSV,4,4,13,11,03,071,*4E
$GPGGA,103130.0,3206.209060,N,03512.469308,E,1,10,0.6,662.8,M,19.0,M,,*56
$GPVTG,272.6,T,269.6,M,3.0,N,5.5,K,A*2A
$GPRMC,103130.0,A,3206.209060,N,03512.469308,E,3.0,272.6,130416,3.0,E,A*0A
$GPGSA,A,2,05,07,09,13,15,17,19,20,28,30,,,0.9,0.6,0.7*33
$GNGSA,A,2,05,07,09,13,15,17,19,20,28,30,,,0.9,0.6,0.7*2D
$GNGSA,A,2,65,71,72,73,74,83,84,,,,,,0.9,0.6,0.7*25
$GLGSV,3,1,11,74,45,320,27,73,35,033,31,,,,36,82,04,023,33*5B
$GLGSV,3,2,11,75,12,272,19,65,11,329,27,84,18,130,29,83,25,074,33*67
$GLGSV,3,3,11,71,42,205,39,72,49,288,35,70,02,172,*55
$GPGSV,4,1,13,05,29,243,36,07,22,075,33,09,05,139,23,13,50,319,31*7D
$GPGSV,4,2,13,15,13,316,27,17,34,147,32,19,13,174,32,20,16,292,24*7B
$GPGSV,4,3,13,28,73,016,34,30,46,053,32,41,,,32,08,,,*78
$GPGSV,4,4,13,11,03,071,*4E
$GPGGA,103131.0,3206.209181,N,03512.468662,E,1,10,0.6,662.8,M,19.0,M,,*51
$GPVTG,272.6,T,269.7,M,2.8,N,5.2,K,A*25
$GPRMC,103131.0,A,3206.209181,N,03512.468662,E,2.8,272.6,130416,3.0,E,A*04
$GPGSA,A,2,05,07,09,13,15,17,19,20,28,30,,,0.9,0.6,0.7*33
$GNGSA,A,2,05,07,09,13,15,17,19,20,28,30,,,0.9,0.6,0.7*2D
$GNGSA,A,2,65,71,72,73,74,83,84,,,,,,0.9,0.6,0.7*25
$GLGSV,3,1,11,74,45,320,26,73,35,033,31,,,,38,82,04,023,33*54
$GLGSV,3,2,11,75,12,272,22,65,11,329,25,84,18,130,30,83,25,074,33*65
$GLGSV,3,3,11,71,42,205,39,72,49,288,36,70,02,172,*56
$GPGSV,4,1,13,05,29,243,34,07,22,075,31,09,05,139,29,13,50,319,33*75
$GPGSV,4,2,13,15,13,316,32,17,34,147,33,19,13,174,34,20,16,292,25*79
$GPGSV,4,3,13,28,73,016,35,30,46,053,34,41,,,32,08,,,*7F
$GPGSV,4,4,13,11,03,071,*4E
$GPGGA,103132.0,3206.209093,N,03512.467853,E,1,10,0.6,662.8,M,19.0,M,,*53
$GPVTG,264.0,T,261.0,M,2.6,N,4.9,K,A*2F
$GPRMC,103132.0,A,3206.209093,N,03512.467853,E,2.6,264.0,130416,3.0,E,A*09
$GPGSA,A,2,05,07,09,13,15,17,19,20,28,30,,,0.9,0.6,0.7*33
$GNGSA,A,2,05,07,09,13,15,17,19,20,28,30,,,0.9,0.6,0.7*2D
$GNGSA,A,2,65,71,72,73,74,83,84,,,,,,0.9,0.6,0.7*25
$GLGSV,3,1,11,74,45,320,27,73,35,033,35,,,,36,82,04,023,37*5B
$GLGSV,3,2,11,75,12,272,21,65,11,329,25,84,18,130,31,83,25,074,34*60
$GLGSV,3,3,11,71,42,205,38,72,49,288,32,70,02,172,*53
$GPGSV,4,1,13,05,29,243,37,07,22,075,31,09,05,139,29,13,50,319,31*74
$GPGSV,4,2,13,15,13,316,29,17,34,147,37,19,13,174,31,20,16,292,23*74
$GPGSV,4,3,13,28,73,016,35,30,46,053,34,41,,,32,08,,,*7F
$GPGSV,4,4,13,11,03,071,*4E
$GPGGA,103133.0,3206.208901,N,03512.466941,E,1,10,0.6,662.6,M,19.0,M,,*5C
$GPVTG,252.8,T,249.8,M,2.7,N,5.0,K,A*29
$GPRMC,103133.0,A,3206.208901,N,03512.466941,E,2.7,252.8,130416,3.0,E,A*04
$GPGSA,A,2,05,07,09,13,15,17,19,20,28,30,,,0.9,0.6,0.7*33
$GNGSA,A,2,05,07,09,13,15,17,19,20,28,30,,,0.9,0.6,0.7*2D
$GNGSA,A,2,65,71,72,73,74,83,84,,,,,,0.9,0.6,0.7*25
$GLGSV,3,1,11,74,45,320,31,73,35,033,34,,,,37,82,04,023,31*5A
$GLGSV,3,2,11,75,12,272,20,65,11,329,26,84,18,130,33,83,25,074,33*67
$GLGSV,3,3,11,71,42,205,35,72,49,288,31,70,02,172,*5D
$GPGSV,4,1,13,05,29,243,34,07,22,075,30,09,05,139,30,13,50,319,32*7D
$GPGSV,4,2,13,15,13,316,24,17,34,147,38,19,13,174,33,20,16,292,23*74
$GPGSV,4,3,13,28,73,016,35,30,46,053,33,41,,,32,08,,,*78
$GPGSV,4,4,13,11,03,071,*4E
$GPGGA,103134.0,3206.208438,N,03512.466149,E,1,10,0.6,663.1,M,19.0,M,,*5A
$GPVTG,247.4,T,244.4,M,2.5,N,4.6,K,A*25
$GPRMC,103134.0,A,3206.208438,N,03512.466149,E,2.5,247.4,130416,3.0,E,A*0E
$GPGSA,A,2,05,07,09,13,15,17,19,20,28,30,,,0.9,0.6,0.7*33
$GNGSA,A,2,05,07,09,13,15,17,19,20,28,30,,,0.9,0.6,0.7*2D
$GNGSA,A,2,65,71,72,73,74,83,84,,,,,,0.9,0.6,0.7*25
$GLGSV,3,1,11,74,45,320,31,73,35,033,33,,,,39,82,04,023,28*5B
$GLGSV,3,2,11,75,12,272,21,65,11,329,21,84,18,130,33,83,25,074,32*60
$GLGSV,3,3,11,71,42,205,36,72,49,288,29,70,02,172,*57
$GPGSV,4,1,13,05,29,243,30,07,22,075,34,09,05,139,31,13,50,319,32*7C
$GPGSV,4,2,13,15,13,316,24,17,34,147,37,19,13,174,35,20,16,292,20*7E
$GPGSV,4,3,13,28,73,016,33,30,46,053,32,41,,,37,08,,,*7A
$GPGSV,4,4,13,11,03,071,*4E
$GPGGA,103135.0,3206.207568,N,03512.465465,E,1,10,0.6,663.4,M,19.0,M,,*5D
$GPVTG,227.8,T,224.8,M,2.8,N,5.2,K,A*2D
$GPRMC,103135.0,A,3206.207568,N,03512.465465,E,2.8,227.8,130416,3.0,E,A*0B
$GPGSA,A,2,05,07,09,13,15,17,19,20,28,30,,,0.9,0.6,0.7*33
$GNGSA,A,2,05,07,09,13,15,17,19,20,28,30,,,0.9,0.6,0.7*2D
$GNGSA,A,2,65,71,72,73,74,83,84,,,,,,0.9,0.6,0.7*25
$GLGSV,3,1,11,74,45,320,31,73,35,033,29,,,,36,82,04,023,27*50
$GLGSV,3,2,11,75,12,272,23,65,11,329,21,84,18,130,32,83,25,074,39*68
$GLGSV,3,3,11,71,42,205,37,72,49,288,29,70,02,172,*56
$GPGSV,4,1,13,05,29,243,26,07,22,075,37,09,05,139,27,13,50,319,31*7C
$GPGSV,4,2,13,15,13,316,21,17,34,147,42,19,13,174,33,20,16,292,20*7F
$GPGSV,4,3,13,28,73,016,29,30,46,053,33,41,,,34,08,,,*73
$GPGSV,4,4,13,11,03,071,*4E
$GPGGA,103136.0,3206.206986,N,03512.464960,E,1,10,0.6,663.2,M,19.0,M,,*5C
$GPVTG,217.4,T,214.4,M,2.7,N,5.1,K,A*21
$GPRMC,103136.0,A,3206.206986,N,03512.464960,E,2.7,217.4,130416,3.0,E,A*0C
$GPGSA,A,2,05,07,09,13,15,17,19,20,28,30,,,0.9,0.6,0.7*33
$GNGSA,A,2,05,07,09,13,15,17,19,20,28,30,,,0.9,0.6,0.7*2D
$GNGSA,A,2,65,71,72,73,74,83,84,,,,,,0.9,0.6,0.7*25
$GLGSV,3,1,11,74,45,320,30,73,35,033,31,,,,33,82,04,023,25*5F
$GLGSV,3,2,11,75,12,272,25,65,11,329,24,84,18,130,32,83,25,074,36*64
$GLGSV,3,3,11,71,42,205,38,72,49,288,27,70,02,172,*57
$GPGSV,4,1,13,05,29,243,25,07,22,075,41,09,05,139,30,13,50,319,31*78
$GPGSV,4,2,13,15,13,316,22,17,34,147,35,19,13,174,32,20,16,292,18*76
$GPGSV,4,3,13,28,73,016,33,30,46,053,34,41,,,34,08,,,*7F
$GPGSV,4,4,13,11,03,071,*4E
$GPGGA,103137.0,3206.206194,N,03512.464711,E,1,10,0.6,663.2,M,19.0,M,,*5E
$GPVTG,206.6,T,203.6,M,2.8,N,5.2,K,A*2B
$GPRMC,103137.0,A,3206.206194,N,03512.464711,E,2.8,206.6,130416,3.0,E,A*03
$GPGSA,A,2,05,07,09,13,15,17,19,20,28,30,,,0.9,0.6,0.7*33
$GNGSA,A,2,05,07,09,13,15,17,19,20,28,30,,,0.9,0.6,0.7*2D
$GNGSA,A,2,65,71,72,73,74,83,84,,,,,,0.9,0.6,0.7*25
$GLGSV,3,1,11,74,45,320,24,73,35,033,31,,,,34,82,04,023,28*50
$GLGSV,3,2,11,75,12,272,20,65,11,329,19,84,18,130,34,83,25,074,32*6D
$GLGSV,3,3,11,71,42,205,33,72,49,288,27,70,02,172,*5C
$GPGSV,4,1,13,05,29,243,28,07,22,075,34,09,05,139,27,13,50,319,29*78
$GPGSV,4,2,13,15,13,316,22,17,34,147,37,19,13,174,29,20,16,292,20*75
$GPGSV,4,3,13,28,73,016,33,30,46,053,33,41,,,35,08,,,*79
$GPGSV,4,4,13,11,03,071,*4E
$GPGGA,103138.0,3206.205812,N,03512.464196,E,1,10,0.6,663.4,M,19.0,M,,*5A
$GPVTG,223.6,T,220.6,M,1.8,N,3.4,K,A*2E
$GPRMC,103138.0,A,3206.205812,N,03512.464196,E,1.8,223.6,130416,3.0,E,A*05
$GPGSA,A,2,05,07,09,13,15,17,19,20,28,30,,,0.9,0.6,0.7*33
$GNGSA,A,2,05,07,09,13,15,17,19,20,28,30,,,0.9,0.6,0.7*2D
$GNGSA,A,2,65,71,72,73,74,83,84,,,,,,0.9,0.6,0.7*25
$GLGSV,3,1,11,74,45,320,25,73,35,033,32,,,,35,82,04,023,23*58
$GLGSV,3,2,11,75,12,272,21,65,11,329,19,84,18,130,31,83,25,074,29*63
$GLGSV,3,3,11,71,42,205,39,72,49,288,22,70,02,172,*53
$GPGSV,4,1,13,05,29,243,27,07,22,075,30,09,05,139,33,13,50,319,26*79
$GPGSV,4,2,13,15,13,316,22,17,34,147,41,19,13,174,33,20,16,292,20*7F
$GPGSV,4,3,13,28,73,016,27,30,46,053,33,41,,,35,08,,,*7C
$GPGSV,4,4,13,11,03,071,*4E
$GPGGA,103139.0,3206.205749,N,03512.463664,E,1,10,0.6,663.5,M,19.0,M,,*56
$GPVTG,256.6,T,253.6,M,1.4,N,2.7,K,A*26
$GPRMC,103139.0,A,3206.205749,N,03512.463664,E,1.4,256.6,130416,3.0,E,A*06
$GPGSA,A,2,05,07,09,13,15,17,19,20,28,30,,,0.9,0.6,0.7*33
$GNGSA,A,2,05,07,09,13,15,17,19,20,28,30,,,0.9,0.6,0.7*2D
$GNGSA,A,2,65,71,72,73,74,83,84,,,,,,0.9,0.6,0.7*25
$GLGSV,3,1,11,74,45,320,25,73,35,033,26,,,,38,82,04,023,24*57
$GLGSV,3,2,11,75,12,272,21,65,11,329,19,84,18,130,30,83,25,074,27*6C
$GLGSV,3,3,11,71,42,205,37,72,49,288,34,70,02,172,*5A
$GPGSV,4,1,13,05,29,243,26,07,22,075,30,09,05,139,33,13,50,319,27*79
$GPGSV,4,2,13,15,13,316,17,17,34,147,41,19,13,174,35,20,16,292,21*7E
$GPGSV,4,3,13,28,73,016,30,30,46,053,27,41,,,33,08,,,*79
$GPGSV,4,4,13,11,03,071,*4E
$GPGGA,103140.0,3206.205774,N,03512.464035,E,1,10,0.6,663.5,M,19.0,M,,*53
$GPVTG,256.4,T,253.4,M,0.3,N,0.6,K,A*23
$GPRMC,103140.0,A,3206.205774,N,03512.464035,E,0.3,256.4,130416,3.0,E,A*07
$GPGSA,A,2,05,07,09,13,15,17,19,20,28,30,,,0.9,0.6,0.7*33
$GNGSA,A,2,05,07,09,13,15,17,19,20,28,30,,,0.9,0.6,0.7*2D
$GNGSA,A,2,65,71,72,73,74,83,84,,,,,,0.9,0.6,0.7*25
$GLGSV,3,1,11,74,45,320,31,73,35,033,25,,,,34,82,04,023,24*5D
$GLGSV,3,2,11,75,12,272,21,65,11,329,19,84,18,130,24,83,25,074,34*6B
$GLGSV,3,3,11,71,42,205,33,72,49,288,36,70,02,172,*5C
$GPGSV,4,1,13,05,29,243,32,07,22,075,31,09,05,139,29,13,50,319,28*79
$GPGSV,4,2,13,15,13,316,17,17,34,147,39,19,13,174,33,20,16,292,21*77
$GPGSV,4,3,13,28,73,016,26,30,46,053,29,41,,,34,08,,,*77
$GPGSV,4,4,13,11,03,071,*4E
$GPGGA,103141.0,3206.205920,N,03512.464134,E,1,09,0.6,663.6,M,19.0,M,,*56
$GPVTG,58.7,T,55.7,M,0.6,N,1.1,K,A*28
$GPRMC,103141.0,A,3206.205920,N,03512.464134,E,0.6,58.7,130416,3.0,E,A*33
$GPGSA,A,2,05,07,09,13,17,19,20,28,30,,,,0.9,0.6,0.7*37
$GNGSA,A,2,05,07,09,13,17,19,20,28,30,,,,0.9,0.6,0.7*29
$GNGSA,A,2,65,71,72,73,74,83,84,,,,,,0.9,0.6,0.7*25
$GLGSV,3,1,11,74,45,320,33,73,35,033,23,,,,38,82,04,023,21*50
$GLGSV,3,2,11,75,12,272,17,65,11,329,19,84,18,130,23,83,25,074,30*6D
$GLGSV,3,3,11,71,42,205,35,72,49,288,31,70,02,172,*5D
$GPGSV,4,1,13,05,29,243,30,07,22,075,36,09,05,139,29,13,50,319,31*74
$GPGSV,4,2,13,15,13,316,17,17,34,147,38,19,13,174,28,20,16,292,21*7C
$GPGSV,4,3,13,28,73,016,30,30,46,053,22,41,,,34,08,,,*7B
$GPGSV,4,4,13,11,03,071,*4E
$GPGGA,103142.0,3206.205640,N,03512.464305,E,1,09,0.6,663.7,M,19.0,M,,*5D
$GPVTG,58.7,T,55.7,M,0.0,N,0.0,K,A*2E
$GPRMC,103142.0,A,3206.205640,N,03512.464305,E,0.0,58.7,130416,3.0,E,A*3F
$GPGSA,A,2,05,07,09,13,17,19,20,28,30,,,,0.9,0.6,0.7*37
$GNGSA,A,2,05,07,09,13,17,19,20,28,30,,,,0.9,0.6,0.7*29
$GNGSA,A,2,65,71,72,73,74,83,84,,,,,,0.9,0.6,0.7*25
$GLGSV,3,1,11,74,45,320,32,73,35,033,23,,,,41,82,04,023,21*5F
$GLGSV,3,2,11,75,12,272,24,65,11,329,19,84,18,130,26,83,25,074,31*69
$GLGSV,3,3,11,71,42,205,35,72,49,288,36,70,02,172,*5A
$GPGSV,4,1,14,05,29,243,22,07,22,075,34,09,05,139,32,13,50,319,30*79
$GPGSV,4,2,14,15,13,316,18,17,34,147,39,19,13,174,31,20,16,292,21*7D
$GPGSV,4,3,14,28,73,016,30,30,46,053,26,40,,,38,41,,,34*7F
$GPGSV,4,4,14,08,,,,11,03,071,*41
$GPGGA,103143.0,3206.205911,N,03512.464004,E,1,09,0.6,663.8,M,19.0,M,,*5A
$GPVTG,215.6,T,212.6,M,0.3,N,0.6,K,A*21
$GPRMC,103143.0,A,3206.205911,N,03512.464004,E,0.3,215.6,130416,3.0,E,A*0E
$GPGSA,A,2,05,07,09,13,17,19,20,28,30,,,,0.9,0.6,0.7*37
$GNGSA,A,2,05,07,09,13,17,19,20,28,30,,,,0.9,0.6,0.7*29
$GNGSA,A,2,65,71,72,73,74,83,84,,,,,,0.9,0.6,0.7*25
$GLGSV,3,1,11,74,45,320,29,73,35,033,24,,,,35,82,04,023,22*52
$GLGSV,3,2,11,75,12,272,22,65,11,329,15,84,18,130,28,83,25,074,30*6C
$GLGSV,3,3,11,71,42,205,38,72,49,288,37,70,02,172,*56
$GPGSV,4,1,14,05,29,243,26,07,22,075,31,09,05,139,30,13,50,319,27*7C
$GPGSV,4,2,14,15,13,316,18,17,34,147,37,19,13,174,31,20,16,292,22*70
$GPGSV,4,3,14,28,73,016,27,30,46,053,24,40,,,35,41,,,36*74
$GPGSV,4,4,14,08,,,,11,03,071,*41
$GPGGA,103144.0,3206.205575,N,03512.463872,E,1,08,0.7,664.1,M,19.0,M,,*53
$GPVTG,215.6,T,212.6,M,0.6,N,1.1,K,A*22
$GPRMC,103144.0,A,3206.205575,N,03512.463872,E,0.6,215.6,130416,3.0,E,A*0C
$GPGSA,A,2,05,07,09,13,17,19,28,30,,,,,1.1,0.7,0.8*32
$GNGSA,A,2,05,07,09,13,17,19,28,30,,,,,1.1,0.7,0.8*2C
$GNGSA,A,2,71,72,73,74,83,84,,,,,,,1.1,0.7,0.8*21
$GLGSV,3,1,11,74,45,320,28,73,35,033,27,,,,34,82,04,023,25*56
$GLGSV,3,2,11,75,12,272,22,65,11,329,15,84,18,130,29,83,25,074,30*6D
$GLGSV,3,3,11,71,42,205,37,72,49,288,26,70,02,172,*59
$GPGSV,4,1,14,05,29,243,24,07,22,075,29,09,05,139,33,13,50,319,26*75
$GPGSV,4,2,14,15,13,316,18,17,34,147,35,19,13,174,32,20,16,292,22*71
$GPGSV,4,3,14,28,73,016,24,30,46,053,28,40,,,35,41,,,36*7B
$GPGSV,4,4,14,08,,,,11,03,071,*41
$GPGGA,103145.0,3206.205965,N,03512.463798,E,1,09,0.6,663.6,M,19.0,M,,*54
$GPVTG,215.6,T,212.6,M,0.0,N,0.0,K,A*24
$GPRMC,103145.0,A,3206.205965,N,03512.463798,E,0.0,215.6,130416,3.0,E,A*0D
$GPGSA,A,2,05,07,09,13,17,19,20,28,30,,,,1.0,0.6,0.8*30
$GNGSA,A,2,05,07,09,13,17,19,20,28,30,,,,1.0,0.6,0.8*2E
$GNGSA,A,2,71,72,73,74,83,84,,,,,,,1.0,0.6,0.8*21
$GLGSV,3,1,11,74,45,320,28,73,35,033,25,,,,27,82,04,023,25*56
$GLGSV,3,2,11,75,12,272,22,65,11,329,15,84,18,130,23,83,25,074,33*64
$GLGSV,3,3,11,71,42,205,29,72,49,288,31,70,02,172,*50
$GPGSV,4,1,14,05,29,243,26,07,22,075,33,09,05,139,24,13,50,319,27*7B
$GPGSV,4,2,14,15,13,316,18,17,34,147,33,19,13,174,30,20,16,292,22*75
$GPGSV,4,3,14,28,73,016,24,30,46,053,28,40,,,35,41,,,32*7F
$GPGSV,4,4,14,08,,,,11,03,071,*41
$GPGGA,103146.0,3206.205964,N,03512.463800,E,1,10,0.6,663.6,M,19.0,M,,*50
$GPVTG,215.6,T,212.6,M,0.0,N,0.0,K,A*24
$GPRMC,103146.0,A,3206.205964,N,03512.463800,E,0.0,215.6,130416,3.0,E,A*01
$GPGSA,A,2,05,07,09,13,15,17,19,20,28,30,,,1.0,0.6,0.7*3B
$GNGSA,A,2,05,07,09,13,15,17,19,20,28,30,,,1.0,0.6,0.7*25
$GNGSA,A,2,71,72,73,74,83,84,,,,,,,1.0,0.6,0.7*2E
$GLGSV,3,1,11,74,45,320,28,73,35,033,26,,,,31,82,04,023,28*5F
$GLGSV,3,2,11,75,12,272,20,65,11,329,15,84,18,130,27,83,25,074,32*63
$GLGSV,3,3,11,71,42,205,28,72,49,288,25,70,02,172,*54
$GPGSV,4,1,14,05,29,243,29,07,22,075,32,09,05,139,26,13,50,319,28*78
$GPGSV,4,2,14,15,13,316,18,17,34,147,34,19,13,174,27,20,16,292,19*7C
$GPGSV,4,3,14,28,73,016,22,30,46,053,29,40,,,35,41,,,32*78
$GPGSV,4,4,14,08,,,,11,03,071,*41
$GPGGA,103147.0,3206.205967,N,03512.463798,E,1,10,0.6,663.6,M,19.0,M,,*5C
$GPVTG,215.6,T,212.6,M,0.0,N,0.0,K,A*24
$GPRMC,103147.0,A,3206.205967,N,03512.463798,E,0.0,215.6,130416,3.0,E,A*0D
$GPGSA,A,2,05,07,09,13,15,17,19,20,28,30,,,1.0,0.6,0.7*3B
$GNGSA,A,2,05,07,09,13,15,17,19,20,28,30,,,1.0,0.6,0.7*25
$GNGSA,A,2,71,72,73,74,83,84,,,,,,,1.0,0.6,0.7*2E
$GLGSV,3,1,11,74,45,320,35,73,35,033,33,,,,34,82,04,023,31*5A
$GLGSV,3,2,11,75,12,272,21,65,11,329,19,84,18,130,24,83,25,074,33*6C
$GLGSV,3,3,11,71,42,205,27,72,49,288,28,70,02,172,*56
$GPGSV,4,1,14,05,29,243,20,07,22,075,32,09,05,139,29,13,50,319,37*70
$GPGSV,4,2,14,15,13,316,22,17,34,147,30,19,13,174,31,20,16,292,20*7C
$GPGSV,4,3,14,28,73,016,28,30,46,053,35,40,,,35,41,,,32*7F
$GPGSV,4,4,14,08,,,,11,03,071,*41
$GPGGA,103148.0,3206.205970,N,03512.463796,E,1,10,0.6,663.6,M,19.0,M,,*5B
$GPVTG,215.6,T,212.6,M,0.0,N,0.0,K,A*24
$GPRMC,103148.0,A,3206.205970,N,03512.463796,E,0.0,215.6,130416,3.0,E,A*0A
$GPGSA,A,2,05,07,09,13,15,17,19,20,28,30,,,0.9,0.6,0.7*33
$GNGSA,A,2,05,07,09,13,15,17,19,20,28,30,,,0.9,0.6,0.7*2D
$GNGSA,A,2,65,71,72,73,74,83,84,,,,,,0.9,0.6,0.7*25
$GLGSV,3,1,11,74,45,320,38,73,35,033,35,,,,34,82,04,023,33*53
$GLGSV,3,2,11,75,12,272,24,65,11,329,23,84,18,130,28,83,25,074,32*6D
$GLGSV,3,3,11,71,42,205,23,72,49,288,39,70,02,172,*52
$GPGSV,4,1,14,05,29,243,26,07,22,075,36,09,05,139,28,13,50,319,38*7C
$GPGSV,4,2,14,15,13,316,25,17,34,147,28,19,13,174,31,20,16,292,23*71
$GPGSV,4,3,14,28,73,016,35,30,46,053,34,40,,,35,41,,,34*74
$GPGSV,4,4,14,08,,,,11,03,071,*41
$GPGGA,103149.0,3206.206043,N,03512.463582,E,1,10,0.6,663.4,M,19.0,M,,*55
$GPVTG,270.1,T,267.1,M,0.7,N,1.4,K,A*27
$GPRMC,103149.0,A,3206.206043,N,03512.463582,E,0.7,270.1,130416,3.0,E,A*05
$GPGSA,A,2,05,07,09,13,15,17,19,20,28,30,,,0.9,0.6,0.7*33
$GNGSA,A,2,05,07,09,13,15,17,19,20,28,30,,,0.9,0.6,0.7*2D
$GNGSA,A,2,65,71,72,73,74,83,84,,,,,,0.9,0.6,0.7*25
$GLGSV,3,1,11,74,45,320,33,73,35,033,32,,,,29,82,04,023,27*56
$GLGSV,3,2,11,75,12,272,22,65,11,329,24,84,18,130,29,83,25,074,37*68
$GLGSV,3,3,11,71,42,205,28,72,49,288,38,70,02,172,*58
$GPGSV,4,1,14,05,29,243,36,07,22,075,34,09,05,139,26,13,50,319,35*7C
$GPGSV,4,2,14,15,13,316,23,17,34,147,28,19,13,174,25,20,16,292,24*75
$GPGSV,4,3,14,28,73,016,31,30,46,053,34,40,,,35,41,,,34*70
$GPGSV,4,4,14,08,,,,11,03,071,*41
$GPGGA,103150.0,3206.205945,N,03512.463534,E,1,10,0.6,663.4,M,19.0,M,,*5C
$GPVTG,201.3,T,198.3,M,0.4,N,0.7,K,A*23
$GPRMC,103150.0,A,3206.205945,N,03512.463534,E,0.4,201.3,130416,3.0,E,A*0B
$GPGSA,A,2,05,07,09,13,15,17,19,20,28,30,,,0.9,0.6,0.7*33
$GNGSA,A,2,05,07,09,13,15,17,19,20,28,30,,,0.9,0.6,0.7*2D
$GNGSA,A,2,65,71,72,73,74,83,84,,,,,,0.9,0.6,0.7*25
$GLGSV,3,1,11,74,45,320,32,73,35,033,32,,,,28,82,04,023,26*57
$GLGSV,3,2,11,75,12,272,25,65,11,329,22,84,18,130,20,83,25,074,33*64
$GLGSV,3,3,11,71,42,205,37,72,49,288,38,70,02,172,*56
$GPGSV,4,1,14,05,29,243,38,07,22,075,31,09,05,139,26,13,50,319,36*74
$GPGSV,4,2,14,15,13,316,22,17,34,147,31,19,13,174,28,20,16,292,20*75
$GPGSV,4,3,14,28,73,016,29,30,46,053,34,40,,,35,41,,,34*79
$GPGSV,4,4,14,08,,,,11,03,071,*41
$GPGGA,103151.0,3206.206075,N,03512.463025,E,1,10,0.6,663.5,M,19.0,M,,*50
$GPVTG,279.2,T,276.2,M,1.4,N,2.6,K,A*2D
$GPRMC,103151.0,A,3206.206075,N,03512.463025,E,1.4,279.2,130416,3.0,E,A*09
$GPGSA,A,2,05,07,09,13,15,17,19,20,28,30,,,0.9,0.6,0.7*33
$GNGSA,A,2,05,07,09,13,15,17,19,20,28,30,,,0.9,0.6,0.7*2D
$GNGSA,A,2,65,71,72,73,74,83,84,,,,,,0.9,0.6,0.7*25
$GLGSV,3,1,11,74,45,320,31,73,35,033,30,,,,25,82,04,023,23*5E
$GLGSV,3,2,11,75,12,272,26,65,11,329,22,84,18,130,23,83,25,074,35*62
$GLGSV,3,3,11,71,42,205,39,72,49,288,39,70,02,172,*59
$GPGSV,4,1,14,05,29,243,33,07,22,075,35,09,05,139,25,13,50,319,33*7D
$GPGSV,4,2,14,15,13,316,22,17,34,147,32,19,13,174,28,20,16,292,20*76
$GPGSV,4,3,14,28,73,016,24,30,46,053,27,40,,,34,41,,,34*77
$GPGSV,4,4,14,08,,,,11,03,071,*41
