$GPGSV,3,1,12,05,18,045,,10,02,195,,12,07,146,,15,02,120,*79
$GPGSV,3,2,12,16,06,320,,18,33,177,,20,54,091,,21,63,271,*7A
$GPGSV,3,3,12,25,40,154,,26,33,313,,29,53,049,,31,23,253,*7B
$GLGSV,3,1,09,78,46,260,,66,09,163,,77,21,198,,79,28,314,*6B
$GLGSV,3,2,09,65,36,111,,88,47,355,,87,24,054,,81,23,292,*63
$GLGSV,3,3,09,72,26,050,*58
$GPGSA,A,1,,,,,,,,,,,,,,,*1E
$GPVTG,,T,,M,,N,,K,N*2C
$GPRMC,,V,,,,,,,,,,N*53
$GPGGA,,,,,,0,,,,,,,,*66
$GPGSV,3,1,12,05,18,045,,10,02,195,,12,07,146,,15,02,120,*79
$GPGSV,3,2,12,16,06,320,,18,33,177,,20,54,091,,21,63,271,*7A
$GPGSV,3,3,12,25,40,154,,26,33,313,,29,53,049,,31,23,253,*7B
$GLGSV,3,1,09,78,46,260,,66,09,163,,77,21,198,,79,28,314,*6B
$GLGSV,3,2,09,65,36,111,,88,47,355,,87,24,054,,81,23,292,*63
$GLGSV,3,3,09,72,26,050,*58
$GPGSA,A,1,,,,,,,,,,,,,,,*1E
$GPVTG,,T,,M,,N,,K,N*2C
$GPRMC,,V,,,,,,,,,,N*53
$GPGGA,,,,,,0,,,,,,,,*66
$GPGSV,3,1,12,05,18,045,,10,02,195,,12,07,146,,15,02,120,*79
$GPGSV,3,2,12,16,06,320,,18,33,177,,20,54,091,,21,63,271,*7A
$GPGSV,3,3,12,25,40,154,,26,33,313,,29,53,049,,31,23,253,*7B
$GLGSV,3,1,09,78,46,260,,66,09,163,,77,21,198,,79,28,314,*6B
$GLGSV,3,2,09,65,36,111,,88,47,355,,87,24,054,,81,23,292,*63
$GLGSV,3,3,09,72,26,050,*58
$GPGSA,A,1,,,,,,,,,,,,,,,*1E
$GPVTG,,T,,M,,N,,K,N*2C
$GPRMC,,V,,,,,,,,,,N*53
$GPGGA,,,,,,0,,,,,,,,*66
$GPGSV,3,1,12,05,18,045,,10,02,195,,12,07,146,,15,02,120,*79
$GPGSV,3,2,12,16,06,320,,18,33,177,,20,54,091,,21,63,271,*7A
$GPGSV,3,3,12,25,40,154,,26,33,313,,29,53,049,,31,23,253,*7B
$GLGSV,3,1,09,78,46,260,,66,09,163,,77,21,198,,79,28,314,*6B
$GLGSV,3,2,09,65,36,111,,88,47,355,,87,24,054,,81,23,292,*63
$GLGSV,3,3,09,72,26,050,*58
$GPGSA,A,1,,,,,,,,,,,,,,,*1E
$GPVTG,,T,,M,,N,,K,N*2C
$GPRMC,,V,,,,,,,,,,N*53
$GPGGA,,,,,,0,,,,,,,,*66
$GPGSV,3,1,12,05,18,045,,10,02,195,,12,07,146,,15,02,120,*79
$GPGSV,3,2,12,16,06,320,,18,33,177,,20,54,091,,21,63,271,*7A
$GPGSV,3,3,12,25,40,154,,26,33,313,,29,53,049,,31,23,253,*7B
$GLGSV,3,1,09,78,46,260,,66,09,163,,77,21,198,,79,28,314,*6B
$GLGSV,3,2,09,65,36,111,,88,47,355,,87,24,054,,81,23,292,*63
$GLGSV,3,3,09,72,26,050,*58
$GPGSA,A,1,,,,,,,,,,,,,,,*1E
$GPVTG,,T,,M,,N,,K,N*2C
$GPRMC,,V,,,,,,,,,,N*53
$GPGGA,,,,,,0,,,,,,,,*66
$GPGSV,3,1,12,05,18,045,,10,02,195,,12,07,146,,15,02,120,*79
$GPGSV,3,2,12,16,06,320,,18,33,177,,20,54,091,,21,63,271,*7A
$GPGSV,3,3,12,25,40,154,,26,33,313,,29,53,049,,31,23,253,*7B
$GLGSV,3,1,09,78,46,260,,66,09,163,,77,21,198,,79,28,314,*6B
$GLGSV,3,2,09,65,36,111,,88,47,355,,87,24,054,,81,23,292,*63
$GLGSV,3,3,09,72,26,050,*58
$GPGSA,A,1,,,,,,,,,,,,,,,*1E
$GPVTG,,T,,M,,N,,K,N*2C
$GPRMC,,V,,,,,,,,,,N*53
$GPGGA,,,,,,0,,,,,,,,*66
$GPGSV,3,1,12,05,18,045,,10,02,195,,12,07,146,,15,02,120,*79
$GPGSV,3,2,12,16,06,320,,18,33,177,,20,54,091,,21,63,271,*7A
$GPGSV,3,3,12,25,40,154,,26,33,313,,29,53,049,,31,23,253,*7B
$GLGSV,3,1,09,78,46,260,,66,09,163,,77,21,198,,79,28,314,*6B
$GLGSV,3,2,09,65,36,111,,88,47,355,,87,24,054,,81,23,292,*63
$GLGSV,3,3,09,72,26,050,*58
$GPGSA,A,1,,,,,,,,,,,,,,,*1E
$GPVTG,,T,,M,,N,,K,N*2C
$GPRMC,,V,,,,,,,,,,N*53
$GPGGA,,,,,,0,,,,,,,,*66
$GPGSV,3,1,12,05,18,045,,10,02,195,,12,07,146,,15,02,120,*79
$GPGSV,3,2,12,16,06,320,,18,33,177,,20,54,091,,21,63,271,*7A
$GPGSV,3,3,12,25,40,154,,26,33,313,,29,53,049,,31,23,253,*7B
$GLGSV,3,1,09,78,46,260,,66,09,163,,77,21,198,,79,28,314,*6B
$GLGSV,3,2,09,65,36,111,,88,47,355,,87,24,054,,81,23,292,*63
$GLGSV,3,3,09,72,26,050,*58
$GPGSA,A,1,,,,,,,,,,,,,,,*1E
$GPVTG,,T,,M,,N,,K,N*2C
$GPRMC,,V,,,,,,,,,,N*53
$GPGGA,,,,,,0,,,,,,,,*66
$GPGSV,3,1,12,05,18,045,,10,02,195,,12,07,146,,15,02,120,*79
$GPGSV,3,2,12,16,06,320,,18,33,177,,20,54,091,,21,63,271,*7A
$GPGSV,3,3,12,25,40,154,,26,33,313,,29,53,049,,31,23,253,*7B
$GLGSV,3,1,09,78,46,260,,66,09,163,,77,21,198,,79,28,314,*6B
$GLGSV,3,2,09,65,36,111,,88,47,355,,87,24,054,,81,23,292,*63
$GLGSV,3,3,09,72,26,050,*58
$GPGSA,A,1,,,,,,,,,,,,,,,*1E
$GPVTG,,T,,M,,N,,K,N*2C
$GPRMC,,V,,,,,,,,,,N*53
$GPGGA,,,,,,0,,,,,,,,*66
$GPGSV,3,1,12,05,18,045,,10,02,195,,12,07,146,,15,02,120,*79
$GPGSV,3,2,12,16,06,320,,18,33,177,,20,54,091,,21,63,271,*7A
$GPGSV,3,3,12,25,40,154,,26,33,313,,29,53,049,,31,23,253,*7B
$GLGSV,3,1,09,78,46,260,,66,09,163,,77,21,198,,79,28,314,*6B
$GLGSV,3,2,09,65,36,111,,88,47,355,,87,24,054,,81,23,292,*63
$GLGSV,3,3,09,72,26,050,*58
$GPGSA,A,1,,,,,,,,,,,,,,,*1E
$GPVTG,,T,,M,,N,,K,N*2C
$GPRMC,,V,,,,,,,,,,N*53
$GPGGA,,,,,,0,,,,,,,,*66
$GPGSV,3,1,12,05,18,045,,10,02,195,,12,07,146,,15,02,120,*79
$GPGSV,3,2,12,16,06,320,,18,33,177,,20,54,091,,21,63,271,*7A
$GPGSV,3,3,12,25,40,154,,26,33,313,,29,53,049,,31,23,253,*7B
$GLGSV,3,1,09,78,46,260,,66,09,163,,77,21,198,,79,28,314,*6B
$GLGSV,3,2,09,65,36,111,,88,47,355,,87,24,054,,81,23,292,*63
$GLGSV,3,3,09,72,26,050,*58
$GPGSA,A,1,,,,,,,,,,,,,,,*1E
$GPVTG,,T,,M,,N,,K,N*2C
$GPRMC,,V,,,,,,,,,,N*53
$GPGGA,,,,,,0,,,,,,,,*66
$GPGSV,3,1,12,05,18,045,,10,02,195,,12,07,146,,15,02,120,*79
$GPGSV,3,2,12,16,06,320,,18,33,177,,20,54,091,,21,63,271,*7A
$GPGSV,3,3,12,25,40,154,,26,33,313,,29,53,049,,31,23,253,*7B
$GLGSV,3,1,09,78,46,260,,66,09,163,,77,21,198,,79,28,314,*6B
$GLGSV,3,2,09,65,36,111,,88,47,355,,87,24,054,,81,23,292,*63
$GLGSV,3,3,09,72,26,050,*58
$GPGSA,A,1,,,,,,,,,,,,,,,*1E
$GPVTG,,T,,M,,N,,K,N*2C
$GPRMC,,V,,,,,,,,,,N*53
$GPGGA,,,,,,0,,,,,,,,*66
$GPGSV,3,1,12,05,18,045,,10,02,195,,12,07,146,,15,02,120,*79
$GPGSV,3,2,12,16,06,320,,18,33,177,,20,54,091,,21,63,271,*7A
$GPGSV,3,3,12,25,40,154,,26,33,313,,29,53,049,,31,23,253,*7B
$GLGSV,3,1,09,78,46,260,,66,09,163,,77,21,198,,79,28,314,*6B
$GLGSV,3,2,09,65,36,111,,88,47,355,,87,24,054,,81,23,292,*63
$GLGSV,3,3,09,72,26,050,*58
$GPGSA,A,1,,,,,,,,,,,,,,,*1E
$GPVTG,,T,,M,,N,,K,N*2C
$GPRMC,,V,,,,,,,,,,N*53
$GPGGA,,,,,,0,,,,,,,,*66
$GPGSV,3,1,12,05,18,045,,10,02,195,,12,07,146,,15,02,120,*79
$GPGSV,3,2,12,16,06,320,,18,33,177,,20,54,091,,21,63,271,*7A
$GPGSV,3,3,12,25,40,154,,26,33,313,,29,53,049,,31,23,253,*7B
$GLGSV,3,1,09,78,46,260,,66,09,163,,77,21,198,,79,28,314,*6B
$GLGSV,3,2,09,65,36,111,,88,47,355,,87,24,054,,81,23,292,*63
$GLGSV,3,3,09,72,26,050,*58
$GPGSA,A,1,,,,,,,,,,,,,,,*1E
$GPVTG,,T,,M,,N,,K,N*2C
$GPRMC,,V,,,,,,,,,,N*53
$GPGGA,,,,,,0,,,,,,,,*66
$GPGSV,3,1,12,05,18,045,,10,02,195,,12,07,146,,15,02,120,*79
$GPGSV,3,2,12,16,06,320,,18,33,177,,20,54,091,,21,63,271,*7A
$GPGSV,3,3,12,25,40,154,,26,33,313,,29,53,049,,31,23,253,*7B
$GLGSV,3,1,09,78,46,260,,66,09,163,,77,21,198,,79,28,314,*6B
$GLGSV,3,2,09,65,36,111,,88,47,355,,87,24,054,,81,23,292,*63
$GLGSV,3,3,09,72,26,050,*58
$GPGSA,A,1,,,,,,,,,,,,,,,*1E
$GPVTG,,T,,M,,N,,K,N*2C
$GPRMC,,V,,,,,,,,,,N*53
$GPGGA,,,,,,0,,,,,,,,*66
$GPGSV,3,1,12,05,18,045,,10,02,195,,12,07,146,,15,02,120,*79
$GPGSV,3,2,12,16,06,320,,18,33,177,,20,54,091,,21,63,271,*7A
$GPGSV,3,3,12,25,40,154,,26,33,313,,29,53,049,,31,23,253,*7B
$GLGSV,3,1,09,78,46,260,,66,09,163,,77,21,198,,79,28,314,*6B
$GLGSV,3,2,09,65,36,111,,88,47,355,,87,24,054,,81,23,292,*63
$GLGSV,3,3,09,72,26,050,*58
$GPGSA,A,1,,,,,,,,,,,,,,,*1E
$GPVTG,,T,,M,,N,,K,N*2C
$GPRMC,,V,,,,,,,,,,N*53
$GPGGA,,,,,,0,,,,,,,,*66
$GPGSV,3,1,12,05,18,045,,10,02,195,,12,07,146,,15,02,120,*79
$GPGSV,3,2,12,16,06,320,,18,33,177,,20,54,091,,21,63,271,*7A
$GPGSV,3,3,12,25,40,154,,26,33,313,,29,53,049,,31,23,253,*7B
$GLGSV,3,1,09,78,46,260,,66,09,163,,77,21,198,,79,28,314,*6B
$GLGSV,3,2,09,65,36,111,,88,47,355,,87,24,054,,81,23,292,*63
$GLGSV,3,3,09,72,26,050,*58
$GPGSA,A,1,,,,,,,,,,,,,,,*1E
$GPVTG,,T,,M,,N,,K,N*2C
$GPRMC,,V,,,,,,,,,,N*53
$GPGGA,,,,,,0,,,,,,,,*66
$GPGSV,3,1,12,05,18,045,,10,02,195,,12,07,146,,15,02,120,*79
$GPGSV,3,2,12,16,06,320,,18,33,177,,20,54,091,,21,63,271,*7A
$GPGSV,3,3,12,25,40,154,,26,33,313,,29,53,049,,31,23,253,*7B
$GLGSV,3,1,09,78,46,260,,66,09,163,,77,21,198,,79,28,314,*6B
$GLGSV,3,2,09,65,36,111,,88,47,355,,87,24,054,,81,23,292,*63
$GLGSV,3,3,09,72,26,050,*58
$GPGSA,A,1,,,,,,,,,,,,,,,*1E
$GPVTG,,T,,M,,N,,K,N*2C
$GPRMC,,V,,,,,,,,,,N*53
$GPGGA,,,,,,0,,,,,,,,*66
$GPGSV,3,1,12,05,18,045,,10,02,195,,12,07,146,,15,02,120,*79
$GPGSV,3,2,12,16,06,320,,18,33,177,,20,54,091,,21,63,271,*7A
$GPGSV,3,3,12,25,40,154,,26,33,313,,29,53,049,,31,23,253,*7B
$GLGSV,3,1,09,78,46,260,,66,09,163,,77,21,198,,79,28,314,*6B
$GLGSV,3,2,09,65,36,111,,88,47,355,,87,24,054,,81,23,292,*63
$GLGSV,3,3,09,72,26,050,*58
$GPGSA,A,1,,,,,,,,,,,,,,,*1E
$GPVTG,,T,,M,,N,,K,N*2C
$GPRMC,,V,,,,,,,,,,N*53
$GPGGA,,,,,,0,,,,,,,,*66
$GPGSV,3,1,12,05,18,045,,10,02,195,,12,07,146,,15,02,120,*79
$GPGSV,3,2,12,16,06,320,,18,33,177,,20,54,091,,21,63,271,*7A
$GPGSV,3,3,12,25,40,154,,26,33,313,,29,53,049,,31,23,253,*7B
$GLGSV,3,1,09,78,46,260,,66,09,163,,77,21,198,,79,28,314,*6B
$GLGSV,3,2,09,65,36,111,,88,47,355,,87,24,054,,81,23,292,*63
$GLGSV,3,3,09,72,26,050,*58
$GPGSA,A,1,,,,,,,,,,,,,,,*1E
$GPVTG,,T,,M,,N,,K,N*2C
$GPRMC,,V,,,,,,,,,,N*53
$GPGGA,,,,,,0,,,,,,,,*66
$GPGSV,3,1,12,05,18,045,,10,02,195,,12,07,146,,15,02,120,*79
$GPGSV,3,2,12,16,06,320,,18,33,177,,20,54,091,,21,63,271,*7A
$GPGSV,3,3,12,25,40,154,,26,33,313,,29,53,049,,31,23,253,*7B
$GLGSV,3,1,09,78,46,260,,66,09,163,,77,21,198,,79,28,314,*6B
$GLGSV,3,2,09,65,36,111,,88,47,355,,87,24,054,,81,23,292,*63
$GLGSV,3,3,09,72,26,050,*58
$GPGSA,A,1,,,,,,,,,,,,,,,*1E
$GPVTG,,T,,M,,N,,K,N*2C
$GPRMC,,V,,,,,,,,,,N*53
$GPGGA,,,,,,0,,,,,,,,*66
$GPGSV,3,1,12,05,18,045,,10,02,195,,12,07,146,,15,02,120,*79
$GPGSV,3,2,12,16,06,320,,18,33,177,,20,54,091,,21,63,271,*7A
$GPGSV,3,3,12,25,40,154,,26,33,313,,29,53,049,,31,23,253,*7B
$GLGSV,3,1,09,78,46,260,,66,09,163,,77,21,198,,79,28,314,*6B
$GLGSV,3,2,09,65,36,111,,88,47,355,,87,24,054,,81,23,292,*63
$GLGSV,3,3,09,72,26,050,*58
$GPGSA,A,1,,,,,,,,,,,,,,,*1E
$GPVTG,,T,,M,,N,,K,N*2C
$GPRMC,,V,,,,,,,,,,N*53
$GPGGA,,,,,,0,,,,,,,,*66
$GPGSV,3,1,12,05,18,045,,10,02,195,,12,07,146,,15,02,120,*79
$GPGSV,3,2,12,16,06,320,,18,33,177,,20,54,091,,21,63,271,*7A
$GPGSV,3,3,12,25,40,154,,26,33,313,,29,53,049,,31,23,253,*7B
$GLGSV,3,1,09,78,46,260,,66,09,163,,77,21,198,,79,28,314,*6B
$GLGSV,3,2,09,65,36,111,,88,47,355,,87,24,054,,81,23,292,*63
$GLGSV,3,3,09,72,26,050,*58
$GPGSA,A,1,,,,,,,,,,,,,,,*1E
$GPVTG,,T,,M,,N,,K,N*2C
$GPRMC,,V,,,,,,,,,,N*53
$GPGGA,,,,,,0,,,,,,,,*66
$GPGSV,3,1,12,05,18,045,,10,02,195,,12,07,146,,15,02,120,*79
$GPGSV,3,2,12,16,06,320,,18,33,177,,20,54,091,,21,63,271,*7A
$GPGSV,3,3,12,25,40,154,,26,33,313,,29,53,049,,31,23,253,*7B
$GLGSV,3,1,09,78,46,260,,66,09,163,,77,21,198,,79,28,314,*6B
$GLGSV,3,2,09,65,36,111,,88,47,355,,87,24,054,,81,23,292,*63
$GLGSV,3,3,09,72,26,050,*58
$GPGSA,A,1,,,,,,,,,,,,,,,*1E
$GPVTG,,T,,M,,N,,K,N*2C
$GPRMC,,V,,,,,,,,,,N*53
$GPGGA,,,,,,0,,,,,,,,*66
$GPGSV,3,1,12,05,18,045,,10,02,195,,12,07,146,,15,02,120,*79
$GPGSV,3,2,12,16,06,320,,18,33,177,,20,54,091,,21,63,271,*7A
$GPGSV,3,3,12,25,40,154,,26,33,313,,29,53,049,,31,23,253,*7B
$GLGSV,3,1,09,78,46,260,,66,09,163,,77,21,198,,79,28,314,*6B
$GLGSV,3,2,09,65,36,111,,88,47,355,,87,24,054,,81,23,292,*63
$GLGSV,3,3,09,72,26,050,*58
$GPGSA,A,1,,,,,,,,,,,,,,,*1E
$GPVTG,,T,,M,,N,,K,N*2C
$GPRMC,,V,,,,,,,,,,N*53
$GPGGA,,,,,,0,,,,,,,,*66
$GPGSV,3,1,12,05,18,045,,10,02,195,,12,07,146,,15,02,120,*79
$GPGSV,3,2,12,16,06,320,,18,33,177,,20,54,091,,21,63,271,*7A
$GPGSV,3,3,12,25,40,154,,26,33,313,,29,53,049,,31,23,253,*7B
$GLGSV,3,1,09,78,46,260,,66,09,163,,77,21,198,,79,28,314,*6B
$GLGSV,3,2,09,65,36,111,,88,47,355,,87,24,054,,81,23,292,*63
$GLGSV,3,3,09,72,26,050,*58
$GPGSA,A,1,,,,,,,,,,,,,,,*1E
$GPVTG,,T,,M,,N,,K,N*2C
$GPRMC,,V,,,,,,,,,,N*53
$GPGGA,,,,,,0,,,,,,,,*66
$GPGSV,3,1,12,05,18,045,,10,02,195,,12,07,146,,15,02,120,*79
$GPGSV,3,2,12,16,06,320,,18,33,177,,20,54,091,,21,63,271,*7A
$GPGSV,3,3,12,25,40,154,,26,33,313,,29,53,049,,31,23,253,*7B
$GLGSV,3,1,09,78,46,260,,66,09,163,,77,21,198,,79,28,314,*6B
$GLGSV,3,2,09,65,36,111,,88,47,355,,87,24,054,,81,23,292,*63
$GLGSV,3,3,09,72,26,050,*58
$GPGSA,A,1,,,,,,,,,,,,,,,*1E
$GPVTG,,T,,M,,N,,K,N*2C
$GPRMC,,V,,,,,,,,,,N*53
$GPGGA,,,,,,0,,,,,,,,*66
$GPGSV,3,1,12,05,18,045,,10,02,195,,12,07,146,,15,02,120,*79
$GPGSV,3,2,12,16,06,320,,18,33,177,,20,54,091,,21,63,271,*7A
$GPGSV,3,3,12,25,40,154,,26,33,313,,29,53,049,,31,23,253,*7B
$GLGSV,3,1,09,78,46,260,,66,09,163,,77,21,198,,79,28,314,*6B
$GLGSV,3,2,09,65,36,111,,88,47,355,,87,24,054,,81,23,292,*63
$GLGSV,3,3,09,72,26,050,*58
$GPGSA,A,1,,,,,,,,,,,,,,,*1E
$GPVTG,,T,,M,,N,,K,N*2C
$GPRMC,,V,,,,,,,,,,N*53
$GPGGA,,,,,,0,,,,,,,,*66
$GPGSV,3,1,12,05,18,045,,10,02,195,,12,07,146,,15,02,120,*79
$GPGSV,3,2,12,16,06,320,,18,33,177,,20,54,091,,21,63,271,*7A
$GPGSV,3,3,12,25,40,154,,26,33,313,,29,53,049,,31,23,253,*7B
$GLGSV,3,1,09,78,46,260,,66,09,163,,77,21,198,,79,28,314,*6B
$GLGSV,3,2,09,65,36,111,,88,47,355,,87,24,054,,81,23,292,*63
$GLGSV,3,3,09,72,26,050,*58
$GPGSA,A,1,,,,,,,,,,,,,,,*1E
$GPVTG,,T,,M,,N,,K,N*2C
$GPRMC,,V,,,,,,,,,,N*53
$GPGGA,,,,,,0,,,,,,,,*66
$GPGSV,3,1,12,05,14,042,,10,08,195,,12,02,147,,15,05,116,*7E
$GPGSV,3,2,12,16,12,320,,18,39,175,,20,53,080,,21,66,285,*7E
$GPGSV,3,3,12,25,34,157,,26,38,310,,29,51,059,,31,20,247,*76
$GLGSV,3,1,09,78,42,250,,66,16,160,,77,14,195,,79,30,306,*60
$GLGSV,3,2,09,65,40,102,,88,46,007,,87,21,060,,81,26,299,*69
$GLGSV,3,3,09,72,23,043,*5F
$GPGSA,A,1,,,,,,,,,,,,,,,*1E
$GPVTG,,T,,M,,N,,K,N*2C
$GPRMC,,V,,,,,,,,,,N*53
$GPGGA,,,,,,0,,,,,,,,*66
$GPGSV,3,1,12,20,53,080,32,05,14,042,,10,08,195,,12,02,147,*74
$GPGSV,3,2,12,15,05,116,,16,12,320,,18,39,175,,21,66,285,*75
$GPGSV,3,3,12,25,34,157,,26,38,310,,29,51,059,,31,20,247,*76
$GLGSV,3,1,09,78,42,250,30,79,30,306,32,65,40,102,36,66,16,160,*6B
$GLGSV,3,2,09,77,14,195,,88,46,007,,87,21,060,,81,26,299,*65
$GLGSV,3,3,09,72,23,043,*5F
$GPGSA,A,1,,,,,,,,,,,,,,,*1E
$GPVTG,,T,,M,,N,,K,N*2C
$GPRMC,,V,,,,,,,,,,N*53
$GPGGA,,,,,,0,,,,,,,,*66
$GPGSA,A,1,,,,,,,,,,,,,,,*1E
$GPVTG,,T,,M,,N,,K,N*2C
$GPRMC,,V,,,,,,,,,,N*53
$GPGGA,,,,,,0,,,,,,,,*66
$GPGSV,3,1,12,20,53,080,32,05,14,042,,10,08,195,,12,02,147,*74
$GPGSV,3,2,12,15,05,116,,16,12,320,,18,39,175,,21,66,285,*75
$GPGSV,3,3,12,25,34,157,,26,38,310,,29,51,059,,31,20,247,*76
$GLGSV,3,1,09,78,42,250,30,79,30,306,32,65,40,102,36,66,16,160,*6B
$GLGSV,3,2,09,77,14,195,,88,46,007,,87,21,060,,81,26,299,*65
$GLGSV,3,3,09,72,23,043,*5F
$GPGSA,A,1,,,,,,,,,,,,,,,*1E
$GPVTG,,T,,M,,N,,K,N*2C
$GPRMC,,V,,,,,,,,,,N*53
$GPGGA,,,,,,0,,,,,,,,*66
$GPGSA,A,1,,,,,,,,,,,,,,,*1E
$GPVTG,,T,,M,,N,,K,N*2C
$GPRMC,,V,,,,,,,,,,N*53
$GPGGA,,,,,,0,,,,,,,,*66
$GPGSV,3,1,12,20,53,080,30,21,66,285,25,26,38,310,32,31,20,247,29*7A
$GPGSV,3,2,12,05,14,042,,10,08,195,,12,02,147,,15,05,116,*7D
$GPGSV,3,3,12,16,12,320,,18,39,175,,25,34,157,,29,51,059,*7F
$GLGSV,3,1,09,78,42,250,31,79,30,306,32,65,40,102,36,81,26,299,33*65
$GLGSV,3,2,09,66,16,160,,77,14,195,,88,46,007,,87,21,060,*6A
$GLGSV,3,3,09,72,23,043,*5F
$GPGSA,A,1,,,,,,,,,,,,,,,*1E
$GPVTG,,T,,M,,N,,K,N*2C
$GPRMC,,V,,,,,,,,,,N*53
$GPGGA,,,,,,0,,,,,,,,*66
$GPGSV,3,1,12,05,14,042,23,16,12,320,20,18,39,175,25,20,53,080,24*75
$GPGSV,3,2,12,21,66,285,33,25,34,157,25,26,38,310,34,29,51,059,27*7F
$GPGSV,3,3,12,31,20,247,34,10,08,195,,12,02,147,,15,05,116,*7C
$GLGSV,3,1,09,78,42,250,24,66,16,160,24,79,30,306,32,65,40,102,36*68
$GLGSV,3,2,09,81,26,299,32,72,23,043,24,77,14,195,,88,46,007,*6B
$GLGSV,3,3,09,87,21,060,*56
$GPGSA,A,3,05,16,18,20,21,25,26,29,31,,,,1.5,0.7,1.3*33
$GPVTG,282.3,T,282.3,M,1.8,N,3.4,K,A*2D
$GPRMC,195535,A,3206.231802,N,03512.411436,E,1.8,282.3,050416,3.0,E,A*1F
$GPGGA,195535,3206.231802,N,03512.411436,E,1,09,0.7,667.0,M,19.0,M,,*40
$GPGSV,3,1,12,05,14,042,22,10,08,195,17,16,12,320,20,18,39,175,20*79
$GPGSV,3,2,12,20,53,080,24,21,66,285,34,25,34,157,26,26,38,310,34*77
$GPGSV,3,3,12,29,51,059,26,31,20,247,35,12,02,147,,15,05,116,*7E
$GLGSV,3,1,09,78,42,250,30,66,16,160,23,79,30,306,32,65,40,102,28*65
$GLGSV,3,2,09,88,46,007,22,87,21,060,21,81,26,299,30,72,23,043,24*68
$GLGSV,3,3,09,77,14,195,*54
$GPGSA,A,3,05,10,16,18,20,21,25,26,29,31,,,1.3,0.6,1.1*37
$GPVTG,266.2,T,266.2,M,1.5,N,2.8,K,A*2D
$GPRMC,195536,A,3206.229888,N,03512.410669,E,1.5,266.2,050416,3.0,E,A*18
$GPGGA,195536,3206.229888,N,03512.410669,E,1,10,0.6,666.0,M,19.0,M,,*49
$GPGSV,3,1,12,05,14,042,21,10,08,195,19,16,12,320,19,18,39,175,23*7D
$GPGSV,3,2,12,20,53,080,23,21,66,285,33,25,34,157,21,26,38,310,35*71
$GPGSV,3,3,12,29,51,059,29,31,20,247,29,12,02,147,,15,05,116,*7C
$GLGSV,3,1,09,78,42,250,24,66,16,160,24,79,30,306,32,65,40,102,17*6B
$GLGSV,3,2,09,88,46,007,23,87,21,060,23,81,26,299,32,72,23,043,21*6C
$GLGSV,3,3,09,77,14,195,*54
$GPGSA,A,3,05,10,16,18,20,21,25,26,29,31,,,1.3,0.6,1.1*37
$GPVTG,294.8,T,294.8,M,1.6,N,3.0,K,A*27
$GPRMC,195537,A,3206.229580,N,03512.409651,E,1.6,294.8,050416,3.0,E,A*1B
$GPGGA,195537,3206.229580,N,03512.409651,E,1,10,0.6,672.0,M,19.0,M,,*4B
$GPGSV,3,1,12,05,14,042,23,10,08,195,18,16,12,320,20,18,39,175,23*74
$GPGSV,3,2,12,20,53,080,23,21,66,285,34,25,34,157,24,26,38,310,33*75
$GPGSV,3,3,12,29,51,059,24,31,20,247,32,12,02,147,,15,05,116,*7B
$GLGSV,3,1,09,78,42,250,28,66,16,160,24,77,14,195,17,79,30,306,31*68
$GLGSV,3,2,09,65,40,102,23,88,46,007,22,87,21,060,23,81,26,299,29*62
$GLGSV,3,3,09,72,23,043,20*5D
$GPGSA,A,3,05,10,16,18,20,21,25,26,29,31,,,1.2,0.6,1.1*36
$GPVTG,294.8,T,294.8,M,0.9,N,1.6,K,A*2D
$GPRMC,195538,A,3206.228726,N,03512.406974,E,0.9,294.8,050416,3.0,E,A*12
$GPGGA,195538,3206.228726,N,03512.406974,E,1,10,0.6,673.0,M,19.0,M,,*4D
$GPGSV,3,1,12,05,14,042,20,10,08,195,18,16,12,320,19,18,39,175,22*7C
$GPGSV,3,2,12,20,53,080,27,21,66,285,34,25,34,157,23,26,38,310,34*71
$GPGSV,3,3,12,29,51,059,29,31,20,247,35,12,02,147,,15,05,116,*71
$GLGSV,3,1,09,78,42,250,31,66,16,160,17,77,14,195,17,79,30,306,30*61
$GLGSV,3,2,09,65,40,102,26,88,46,007,26,87,21,060,23,81,26,299,30*6B
$GLGSV,3,3,09,72,23,043,22*5F
$GPGSA,A,3,05,10,16,18,20,21,25,26,29,31,,,1.5,0.8,1.3*3D
$GPVTG,281.7,T,281.7,M,1.6,N,3.0,K,A*27
$GPRMC,195539,A,3206.230224,N,03512.406712,E,1.6,281.7,050416,3.0,E,A*16
$GPGGA,195539,3206.230224,N,03512.406712,E,1,10,0.8,671.0,M,19.0,M,,*40
$GPGSV,3,1,12,05,14,042,19,10,08,195,18,16,12,320,18,18,39,175,27*72
$GPGSV,3,2,12,20,53,080,28,21,66,285,34,25,34,157,25,26,38,310,34*78
$GPGSV,3,3,12,29,51,059,25,31,20,247,37,12,02,147,,15,05,116,*7F
$GLGSV,3,1,09,78,42,250,30,66,16,160,17,77,14,195,18,79,30,306,31*6E
$GLGSV,3,2,09,65,40,102,31,88,46,007,24,87,21,060,22,81,26,299,34*6A
$GLGSV,3,3,09,72,23,043,23*5E
$GPGSA,A,3,05,10,16,18,20,21,25,26,29,31,,,1.2,0.8,0.9*31
$GPVTG,,T,,M,0.0,N,0.0,K,A*23
$GPRMC,195540,A,3206.229135,N,03512.405326,E,0.0,,050416,3.0,E,A*36
$GPGGA,195540,3206.229135,N,03512.405326,E,1,10,0.8,670.0,M,19.0,M,,*44
$GPGSV,3,1,12,05,14,042,23,10,08,195,18,16,12,320,18,18,39,175,30*7D
$GPGSV,3,2,12,20,53,080,31,21,66,285,35,25,34,157,21,26,38,310,30*71
$GPGSV,3,3,12,29,51,059,23,31,20,247,36,12,02,147,,15,05,116,*78
$GLGSV,3,1,09,78,42,250,33,66,16,160,18,77,14,195,17,79,30,306,29*64
$GLGSV,3,2,09,65,40,102,28,88,46,007,26,87,21,060,25,81,26,299,34*67
$GLGSV,3,3,09,72,23,043,25*58
$GPGSA,A,3,05,10,16,18,20,21,25,26,29,31,,,1.1,0.7,0.8*3C
$GPVTG,,T,,M,0.0,N,0.0,K,A*23
$GPRMC,195541,A,3206.230747,N,03512.406958,E,0.0,,050416,3.0,E,A*3C
$GPGGA,195541,3206.230747,N,03512.406958,E,1,10,0.7,667.0,M,19.0,M,,*47
$GPGSV,3,1,12,05,14,042,22,10,08,195,18,16,12,320,18,18,39,175,27*7A
$GPGSV,3,2,12,20,53,080,23,21,66,285,35,25,34,157,22,26,38,310,30*71
$GPGSV,3,3,12,29,51,059,24,31,20,247,32,12,02,147,,15,05,116,*7B
$GLGSV,3,1,09,78,42,250,29,66,16,160,17,77,14,195,18,79,30,306,25*63
$GLGSV,3,2,09,65,40,102,26,88,46,007,26,87,21,060,26,81,26,299,31*6F
$GLGSV,3,3,09,72,23,043,23*5E
$GPGSA,A,3,05,10,16,18,20,21,25,26,29,31,,,0.9,0.6,0.7*3B
$GPVTG,,T,,M,0.0,N,0.0,K,A*23
$GPRMC,195542,A,3206.231565,N,03512.404769,E,0.0,,050416,3.0,E,A*32
$GPGGA,195542,3206.231565,N,03512.404769,E,1,10,0.6,669.0,M,19.0,M,,*46
$GPGSV,4,1,13,04,00,000,34,05,14,042,22,10,08,195,25,16,12,320,17*7B
$GPGSV,4,2,13,18,39,175,27,20,53,080,24,21,66,285,35,25,34,157,22*7B
$GPGSV,4,3,13,26,38,310,31,29,51,059,24,31,20,247,29,12,02,147,*7F
$GPGSV,4,4,13,15,05,116,*4C
$GLGSV,3,1,09,78,42,250,28,66,16,160,21,77,14,195,18,79,30,306,31*62
$GLGSV,3,2,09,65,40,102,27,88,46,007,27,87,21,060,21,81,26,299,29*61
$GLGSV,3,3,09,72,23,043,21*5C
$GPGSA,A,3,05,10,16,18,20,21,25,26,29,31,,,1.0,0.6,0.8*3C
$GPVTG,,T,,M,0.0,N,0.0,K,A*23
$GPRMC,195543,A,3206.232605,N,03512.405579,E,0.0,,050416,3.0,E,A*37
$GPGGA,195543,3206.232605,N,03512.405579,E,1,10,0.6,668.0,M,19.0,M,,*42
$GPGSV,4,1,13,04,00,000,35,05,14,042,16,10,08,195,21,16,12,320,17*79
$GPGSV,4,2,13,18,39,175,22,20,53,080,27,21,66,285,34,25,34,157,24*7A
$GPGSV,4,3,13,26,38,310,33,29,51,059,26,31,20,247,32,12,02,147,*75
$GPGSV,4,4,13,15,05,116,*4C
$GLGSV,3,1,09,78,42,250,25,66,16,160,22,77,14,195,18,79,30,306,30*6D
$GLGSV,3,2,09,65,40,102,26,88,46,007,26,87,21,060,19,81,26,299,33*61
$GLGSV,3,3,09,72,23,043,23*5E
$GPGSA,A,3,04,05,10,16,18,20,21,25,26,29,31,,0.9,0.6,0.7*3F
$GPVTG,282.1,T,282.1,M,0.6,N,1.2,K,A*26
$GPRMC,195544,A,3206.232614,N,03512.406203,E,0.6,282.1,050416,3.0,E,A*18
$GPGGA,195544,3206.232614,N,03512.406203,E,1,11,0.6,667.0,M,19.0,M,,*42
$GPGSV,4,1,13,04,00,000,35,05,14,042,17,10,08,195,22,16,12,320,17*7B
$GPGSV,4,2,13,18,39,175,27,20,53,080,26,21,66,285,35,25,34,157,25*7E
$GPGSV,4,3,13,26,38,310,29,29,51,059,26,31,20,247,30,12,02,147,*7C
$GPGSV,4,4,13,15,05,116,*4C
$GLGSV,3,1,09,78,42,250,28,66,16,160,21,77,14,195,18,79,30,306,27*65
$GLGSV,3,2,09,65,40,102,28,88,46,007,25,87,21,060,18,81,26,299,31*6F
$GLGSV,3,3,09,72,23,043,20*5D
$GPGSA,A,3,04,05,10,16,18,20,21,25,26,29,31,,0.9,0.6,0.7*3F
$GPVTG,236.2,T,236.2,M,0.6,N,1.2,K,A*26
$GPRMC,195545,A,3206.232382,N,03512.406459,E,0.6,236.2,050416,3.0,E,A*16
$GPGGA,195545,3206.232382,N,03512.406459,E,1,11,0.6,667.0,M,19.0,M,,*40
$GPGSV,4,1,13,04,00,000,31,05,14,042,19,10,08,195,20,16,12,320,17*73
$GPGSV,4,2,13,18,39,175,24,20,53,080,23,21,66,285,31,25,34,157,23*7A
$GPGSV,4,3,13,26,38,310,30,29,51,059,26,31,20,247,31,12,02,147,*75
$GPGSV,4,4,13,15,05,116,*4C
$GLGSV,3,1,09,78,42,250,27,66,16,160,23,77,14,195,19,79,30,306,26*68
$GLGSV,3,2,09,65,40,102,26,88,46,007,25,87,21,060,19,81,26,299,28*68
$GLGSV,3,3,09,72,23,043,21*5C
$GPGSA,A,3,04,05,10,16,18,20,21,25,26,29,31,,0.9,0.6,0.7*3F
$GPVTG,,T,,M,0.0,N,0.0,K,A*23
$GPRMC,195546,A,3206.233043,N,03512.405583,E,0.0,,050416,3.0,E,A*32
$GPGGA,195546,3206.233043,N,03512.405583,E,1,11,0.6,667.0,M,19.0,M,,*49
$GPGSV,4,1,13,04,00,000,29,05,14,042,21,10,08,195,21,16,12,320,23*77
$GPGSV,4,2,13,18,39,175,26,20,53,080,26,21,66,285,31,25,34,157,25*7B
$GPGSV,4,3,13,26,38,310,31,29,51,059,26,31,20,247,36,12,02,147,*73
$GPGSV,4,4,13,15,05,116,*4C
$GLGSV,3,1,09,78,42,250,25,66,16,160,23,77,14,195,19,79,30,306,29*65
$GLGSV,3,2,09,65,40,102,27,88,46,007,23,87,21,060,21,81,26,299,33*6E
$GLGSV,3,3,09,72,23,043,21*5C
$GPGSA,A,3,04,05,10,16,18,20,21,25,26,29,31,,1.0,0.6,0.7*37
$GPVTG,,T,,M,0.0,N,0.0,K,A*23
$GPRMC,195547,A,3206.232937,N,03512.405655,E,0.0,,050416,3.0,E,A*30
$GPGGA,195547,3206.232937,N,03512.405655,E,1,11,0.6,666.0,M,19.0,M,,*4A
$GPGSV,4,1,13,04,00,000,31,05,14,042,19,10,08,195,18,16,12,320,20*7C
$GPGSV,4,2,13,18,39,175,26,20,53,080,25,21,66,285,30,25,34,157,23*7F
$GPGSV,4,3,13,26,38,310,32,29,51,059,26,31,20,247,30,12,02,147,*76
$GPGSV,4,4,13,15,05,116,*4C
$GLGSV,3,1,09,78,42,250,28,66,16,160,21,77,14,195,19,79,30,306,30*62
$GLGSV,3,2,09,65,40,102,25,88,46,007,24,87,21,060,19,81,26,299,32*61
$GLGSV,3,3,09,72,23,043,18*56
$GPGSA,A,3,04,05,10,16,18,20,21,25,26,29,31,,0.9,0.6,0.7*3F
$GPVTG,260.7,T,260.7,M,1.9,N,3.5,K,A*2D
$GPRMC,195548,A,3206.232936,N,03512.404383,E,1.9,260.7,050416,3.0,E,A*14
$GPGGA,195548,3206.232936,N,03512.404383,E,1,11,0.6,665.0,M,19.0,M,,*48
$GPGSV,4,1,13,04,00,000,32,05,14,042,19,10,08,195,17,16,12,320,20*70
$GPGSV,4,2,13,18,39,175,28,20,53,080,23,21,66,285,29,25,34,157,23*7F
$GPGSV,4,3,13,26,38,310,33,29,51,059,25,31,20,247,27,12,02,147,*72
$GPGSV,4,4,13,15,05,116,*4C
$GLGSV,3,1,09,78,42,250,26,66,16,160,26,77,14,195,15,79,30,306,31*66
$GLGSV,3,2,09,65,40,102,24,88,46,007,24,87,21,060,22,81,26,299,30*6A
$GLGSV,3,3,09,72,23,043,18*56
$GPGSA,A,3,04,05,10,16,18,20,21,25,26,29,31,,1.0,0.6,0.8*38
$GPVTG,263.9,T,263.9,M,1.6,N,3.0,K,A*27
$GPRMC,195549,A,3206.233367,N,03512.403624,E,1.6,263.9,050416,3.0,E,A*17
$GPGGA,195549,3206.233367,N,03512.403624,E,1,11,0.6,664.0,M,19.0,M,,*48
$GPGSV,4,1,13,04,00,000,35,05,14,042,18,10,08,195,19,16,12,320,20*78
$GPGSV,4,2,13,18,39,175,31,20,53,080,22,21,66,285,30,25,34,157,24*79
$GPGSV,4,3,13,26,38,310,33,29,51,059,26,31,20,247,29,12,02,147,*7F
$GPGSV,4,4,13,15,05,116,*4C
$GLGSV,3,1,09,78,42,250,27,66,16,160,21,77,14,195,21,79,30,306,29*6E
$GLGSV,3,2,09,65,40,102,22,88,46,007,23,87,21,060,23,81,26,299,30*6A
$GLGSV,3,3,09,72,23,043,19*57
$GPGSA,A,3,04,05,10,16,18,20,21,25,26,29,31,,1.0,0.6,0.8*38
$GPVTG,268.2,T,268.2,M,0.9,N,1.7,K,A*2C
$GPRMC,195550,A,3206.233662,N,03512.402995,E,0.9,268.2,050416,3.0,E,A*15
$GPGGA,195550,3206.233662,N,03512.402995,E,1,11,0.6,665.0,M,19.0,M,,*45
$GPGSV,4,1,13,04,00,000,37,05,14,042,18,10,08,195,21,16,12,320,16*74
$GPGSV,4,2,13,18,39,175,35,20,53,080,24,21,66,285,32,25,34,157,24*79
$GPGSV,4,3,13,26,38,310,31,29,51,059,24,31,20,247,24,12,02,147,*72
$GPGSV,4,4,13,15,05,116,*4C
$GLGSV,3,1,09,78,42,250,27,66,16,160,28,77,14,195,18,79,30,306,28*6C
$GLGSV,3,2,09,65,40,102,30,88,46,007,22,87,21,060,20,81,26,299,35*6E
$GLGSV,3,3,09,72,23,043,21*5C
$GPGSA,A,3,04,05,10,16,18,20,21,25,26,29,31,,1.0,0.7,0.8*39
$GPVTG,282.7,T,282.7,M,1.2,N,2.3,K,A*21
$GPRMC,195551,A,3206.233654,N,03512.402935,E,1.2,282.7,050416,3.0,E,A*10
$GPGGA,195551,3206.233654,N,03512.402935,E,1,11,0.7,664.0,M,19.0,M,,*4B
$GPGSV,4,1,13,04,00,000,34,05,14,042,16,10,08,195,20,16,12,320,16*78
$GPGSV,4,2,13,18,39,175,35,20,53,080,24,21,66,285,34,25,34,157,26*7D
$GPGSV,4,3,13,26,38,310,28,29,51,059,22,31,20,247,26,12,02,147,*7E
$GPGSV,4,4,13,15,05,116,*4C
$GLGSV,3,1,09,78,42,250,22,66,16,160,26,77,14,195,22,79,30,306,29*6F
$GLGSV,3,2,09,65,40,102,24,88,46,007,23,87,21,060,21,81,26,299,34*6A
$GLGSV,3,3,09,72,23,043,20*5D
$GPGSA,A,3,04,05,10,16,18,20,21,25,26,29,31,,1.1,0.6,0.8*39
$GPVTG,289.9,T,289.9,M,1.4,N,2.6,K,A*22
$GPRMC,195552,A,3206.233789,N,03512.402537,E,1.4,289.9,050416,3.0,E,A*1F
$GPGGA,195552,3206.233789,N,03512.402537,E,1,11,0.6,664.0,M,19.0,M,,*46
$GPGSV,4,1,13,04,00,000,34,05,14,042,19,10,08,195,20,16,12,320,17*76
$GPGSV,4,2,13,18,39,175,29,20,53,080,24,21,66,285,34,25,34,157,25*73
$GPGSV,4,3,13,26,38,310,31,29,51,059,25,31,20,247,27,12,02,147,*70
$GPGSV,4,4,13,15,05,116,*4C
$GLGSV,3,1,09,78,42,250,23,66,16,160,24,77,14,195,22,79,30,306,31*65
$GLGSV,3,2,09,65,40,102,27,88,46,007,20,87,21,060,20,81,26,299,32*6D
$GLGSV,3,3,09,72,23,043,20*5D
$GPGSA,A,3,04,05,10,16,18,20,21,25,26,29,31,,0.9,0.6,0.7*3F
$GPVTG,298.8,T,298.8,M,1.0,N,1.8,K,A*2B
$GPRMC,195553,A,3206.234094,N,03512.402770,E,1.0,298.8,050416,3.0,E,A*16
$GPGGA,195553,3206.234094,N,03512.402770,E,1,11,0.6,663.0,M,19.0,M,,*4D
$GPGSV,4,1,13,04,00,000,29,05,14,042,21,10,08,195,17,16,12,320,21*70
$GPGSV,4,2,13,18,39,175,28,20,53,080,25,21,66,285,33,25,34,157,29*78
$GPGSV,4,3,13,26,38,310,32,29,51,059,24,31,20,247,32,12,02,147,*76
$GPGSV,4,4,13,15,05,116,*4C
$GLGSV,3,1,09,78,42,250,19,66,16,160,28,77,14,195,15,79,30,306,27*63
$GLGSV,3,2,09,65,40,102,30,88,46,007,23,87,21,060,24,81,26,299,33*6D
$GLGSV,3,3,09,72,23,043,24*59
$GPGSA,A,3,04,05,10,16,18,20,21,25,26,29,31,,0.9,0.6,0.7*3F
$GPVTG,293.6,T,293.6,M,1.3,N,2.4,K,A*27
$GPRMC,195554,A,3206.233375,N,03512.401594,E,1.3,293.6,050416,3.0,E,A*17
$GPGGA,195554,3206.233375,N,03512.401594,E,1,11,0.6,662.0,M,19.0,M,,*4B
$GPGSV,4,1,13,04,00,000,32,05,14,042,21,10,08,195,17,16,12,320,21*7A
$GPGSV,4,2,13,18,39,175,28,20,53,080,23,21,66,285,32,25,34,157,32*75
$GPGSV,4,3,13,26,38,310,30,29,51,059,26,31,20,247,30,12,02,147,*74
$GPGSV,4,4,13,15,05,116,*4C
$GLGSV,3,1,09,78,42,250,24,66,16,160,31,77,14,195,16,79,30,306,30*60
$GLGSV,3,2,09,65,40,102,29,88,46,007,23,87,21,060,22,81,26,299,36*66
$GLGSV,3,3,09,72,23,043,25*58
$GPGSA,A,3,04,05,10,16,18,20,21,25,26,29,31,,1.0,0.6,0.8*38
$GPVTG,293.5,T,293.5,M,1.3,N,2.4,K,A*27
$GPRMC,195555,A,3206.233546,N,03512.400950,E,1.3,293.5,050416,3.0,E,A*16
$GPGGA,195555,3206.233546,N,03512.400950,E,1,11,0.6,662.0,M,19.0,M,,*49
$GPGSV,4,1,13,04,00,000,32,05,14,042,22,10,08,195,17,16,12,320,21*79
$GPGSV,4,2,13,18,39,175,32,20,53,080,27,21,66,285,34,25,34,157,31*7F
$GPGSV,4,3,13,26,38,310,35,29,51,059,24,31,20,247,34,12,02,147,*77
$GPGSV,4,4,13,15,05,116,*4C
$GLGSV,3,1,09,78,42,250,27,66,16,160,30,77,14,195,16,79,30,306,31*63
$GLGSV,3,2,09,65,40,102,29,88,46,007,18,87,21,060,21,81,26,299,35*6E
$GLGSV,3,3,09,72,23,043,25*58
$GPGSA,A,3,04,05,10,16,18,20,21,25,26,29,31,,1.0,0.6,0.8*38
$GPVTG,279.0,T,279.0,M,1.4,N,2.5,K,A*21
$GPRMC,195556,A,3206.233823,N,03512.401948,E,1.4,279.0,050416,3.0,E,A*15
$GPGGA,195556,3206.233823,N,03512.401948,E,1,11,0.6,659.0,M,19.0,M,,*44
$GPGSV,4,1,13,04,00,000,33,05,14,042,21,10,08,195,14,16,12,320,21*78
$GPGSV,4,2,13,18,39,175,31,20,53,080,23,21,66,285,29,25,34,157,28*7C
$GPGSV,4,3,13,26,38,310,34,29,51,059,22,31,20,247,30,12,02,147,*74
$GPGSV,4,4,13,15,05,116,*4C
$GLGSV,3,1,09,78,42,250,25,66,16,160,33,77,14,195,16,79,30,306,32*61
$GLGSV,3,2,09,65,40,102,29,88,46,007,21,87,21,060,20,81,26,299,35*65
$GLGSV,3,3,09,72,23,043,23*5E
$GPGSA,A,3,04,05,10,16,18,20,21,25,26,29,31,,1.0,0.7,0.8*39
$GPVTG,279.0,T,279.0,M,1.7,N,3.2,K,A*24
$GPRMC,195557,A,3206.233991,N,03512.401527,E,1.7,279.0,050416,3.0,E,A*1A
$GPGGA,195557,3206.233991,N,03512.401527,E,1,11,0.7,659.0,M,19.0,M,,*49
$GPGSV,4,1,13,04,00,000,34,05,14,042,20,10,08,195,17,16,12,320,17*78
$GPGSV,4,2,13,18,39,175,29,20,53,080,24,21,66,285,32,25,34,157,32*73
$GPGSV,4,3,13,26,38,310,35,29,51,059,23,31,20,247,31,12,02,147,*75
$GPGSV,4,4,13,15,05,116,*4C
$GLGSV,3,1,09,78,42,250,27,66,16,160,31,77,14,195,16,79,30,306,30*63
$GLGSV,3,2,09,65,40,102,24,88,46,007,24,87,21,060,20,81,26,299,36*6E
$GLGSV,3,3,09,72,23,043,23*5E
$GPGSA,A,3,04,05,10,16,18,20,21,25,26,29,31,,1.1,0.7,0.9*39
$GPVTG,279.0,T,279.0,M,1.7,N,3.2,K,A*24
$GPRMC,195558,A,3206.233880,N,03512.401143,E,1.7,279.0,050416,3.0,E,A*12
$GPGGA,195558,3206.233880,N,03512.401143,E,1,11,0.7,659.0,M,19.0,M,,*41
$GPGSV,4,1,13,04,00,000,33,05,14,042,20,10,08,195,17,16,12,320,17*7F
$GPGSV,4,2,13,18,39,175,31,20,53,080,26,21,66,285,33,25,34,157,31*7A
$GPGSV,4,3,13,26,38,310,31,29,51,059,23,31,20,247,30,12,02,147,*70
$GPGSV,4,4,13,15,05,116,*4C
$GLGSV,3,1,09,78,42,250,24,66,16,160,28,77,14,195,18,79,30,306,30*66
$GLGSV,3,2,09,65,40,102,28,88,46,007,25,87,21,060,24,81,26,299,36*67
$GLGSV,3,3,09,72,23,043,23*5E
$GPGSA,A,3,04,05,10,16,18,20,21,25,26,29,31,,1.0,0.6,0.8*38
$GPVTG,279.0,T,279.0,M,1.8,N,3.4,K,A*2D
$GPRMC,195559,A,3206.233606,N,03512.400868,E,1.8,279.0,050416,3.0,E,A*1D
$GPGGA,195559,3206.233606,N,03512.400868,E,1,11,0.6,658.0,M,19.0,M,,*41
$GPGSV,4,1,13,04,00,000,34,05,14,042,22,10,08,195,20,16,12,320,17*7E
$GPGSV,4,2,13,18,39,175,32,20,53,080,25,21,66,285,33,25,34,157,28*72
$GPGSV,4,3,13,26,38,310,34,29,51,059,25,31,20,247,28,12,02,147,*7A
$GPGSV,4,4,13,15,05,116,*4C
$GLGSV,3,1,09,78,42,250,27,66,16,160,28,77,14,195,17,79,30,306,33*69
$GLGSV,3,2,09,65,40,102,27,88,46,007,26,87,21,060,25,81,26,299,31*6D
$GLGSV,3,3,09,72,23,043,23*5E
$GPGSA,A,3,04,05,10,16,18,20,21,25,26,29,31,,0.9,0.6,0.7*3F
$GPVTG,278.9,T,278.9,M,1.5,N,2.8,K,A*2D
$GPRMC,195600,A,3206.233633,N,03512.400319,E,1.5,278.9,050416,3.0,E,A*1C
$GPGGA,195600,3206.233633,N,03512.400319,E,1,11,0.6,660.0,M,19.0,M,,*4E
$GPGSV,4,1,13,04,00,000,33,05,14,042,23,10,08,195,17,16,12,320,20*78
$GPGSV,4,2,13,18,39,175,30,20,53,080,24,21,66,285,33,25,34,157,29*70
$GPGSV,4,3,13,26,38,310,34,29,51,059,23,31,20,247,29,12,02,147,*7D
$GPGSV,4,4,13,15,05,116,*4C
$GLGSV,3,1,09,78,42,250,30,66,16,160,30,77,14,195,17,79,30,306,29*6D
$GLGSV,3,2,09,65,40,102,26,88,46,007,26,87,21,060,23,81,26,299,33*68
$GLGSV,3,3,09,72,23,043,24*59
$GPGSA,A,3,04,05,10,16,18,20,21,25,26,29,31,,0.9,0.6,0.7*3F
$GPVTG,285.6,T,285.6,M,1.2,N,2.3,K,A*21
$GPRMC,195601,A,3206.234464,N,03512.401288,E,1.2,285.6,050416,3.0,E,A*18
$GPGGA,195601,3206.234464,N,03512.401288,E,1,11,0.6,661.0,M,19.0,M,,*41
$GPGSV,4,1,13,04,00,000,34,05,14,042,22,10,08,195,18,16,12,320,20*71
$GPGSV,4,2,13,18,39,175,30,20,53,080,22,21,66,285,33,25,34,157,28*77
$GPGSV,4,3,13,26,38,310,33,29,51,059,20,31,20,247,28,12,02,147,*78
$GPGSV,4,4,13,15,05,116,*4C
$GLGSV,3,1,09,78,42,250,24,66,16,160,21,77,14,195,20,79,30,306,30*64
$GLGSV,3,2,09,65,40,102,28,88,46,007,24,87,21,060,21,81,26,299,30*65
$GLGSV,3,3,09,72,23,043,23*5E
$GPGSA,A,3,04,05,10,16,18,20,21,25,26,29,31,,1.0,0.6,0.8*38
$GPVTG,286.1,T,286.1,M,0.8,N,1.5,K,A*2F
$GPRMC,195602,A,3206.234811,N,03512.400973,E,0.8,286.1,050416,3.0,E,A*14
$GPGGA,195602,3206.234811,N,03512.400973,E,1,11,0.6,660.0,M,19.0,M,,*43
$GPGSV,4,1,13,04,00,000,35,05,14,042,20,10,08,195,18,16,12,320,19*78
$GPGSV,4,2,13,18,39,175,29,20,53,080,24,21,66,285,34,25,34,157,29*7F
$GPGSV,4,3,13,26,38,310,33,29,51,059,24,31,20,247,29,12,02,147,*7D
$GPGSV,4,4,13,15,05,116,*4C
$GLGSV,3,1,09,78,42,250,29,66,16,160,29,77,14,195,17,79,30,306,29*6D
$GLGSV,3,2,09,65,40,102,25,88,46,007,27,87,21,060,21,81,26,299,31*6A
$GLGSV,3,3,09,72,23,043,22*5F
$GPGSA,A,3,04,05,10,16,18,20,21,25,26,29,31,,0.9,0.6,0.7*3F
$GPVTG,286.2,T,286.2,M,0.9,N,1.7,K,A*2C
$GPRMC,195603,A,3206.235474,N,03512.401108,E,0.9,286.2,050416,3.0,E,A*1C
$GPGGA,195603,3206.235474,N,03512.401108,E,1,11,0.6,660.0,M,19.0,M,,*49
$GPGSV,4,1,13,04,00,000,34,05,14,042,22,10,08,195,19,16,12,320,19*7A
$GPGSV,4,2,13,18,39,175,33,20,53,080,23,21,66,285,35,25,34,157,30*7A
$GPGSV,4,3,13,26,38,310,34,29,51,059,22,31,20,247,32,12,02,147,*76
$GPGSV,4,4,13,15,05,116,*4C
$GLGSV,3,1,09,78,42,250,26,66,16,160,31,77,14,195,17,79,30,306,31*62
$GLGSV,3,2,09,65,40,102,26,88,46,007,30,87,21,060,21,81,26,299,33*6D
$GLGSV,3,3,09,72,23,043,22*5F
$GPGSA,A,3,04,05,10,16,18,20,21,25,26,29,31,,0.9,0.6,0.7*3F
$GPVTG,286.4,T,286.4,M,1.7,N,3.1,K,A*27
$GPRMC,195604,A,3206.235924,N,03512.400912,E,1.7,286.4,050416,3.0,E,A*18
$GPGGA,195604,3206.235924,N,03512.400912,E,1,11,0.6,660.0,M,19.0,M,,*44
$GPGSV,4,1,13,04,00,000,32,05,14,042,18,10,08,195,17,16,12,320,19*7B
$GPGSV,4,2,13,18,39,175,31,20,53,080,24,21,66,285,32,25,34,157,31*79
$GPGSV,4,3,13,26,38,310,31,29,51,059,23,31,20,247,28,12,02,147,*79
$GPGSV,4,4,13,15,05,116,*4C
$GLGSV,3,1,09,78,42,250,24,66,16,160,27,77,14,195,17,79,30,306,32*64
$GLGSV,3,2,09,65,40,102,28,88,46,007,27,87,21,060,21,81,26,299,31*67
$GLGSV,3,3,09,72,23,043,23*5E
$GPGSA,A,3,04,05,10,16,18,20,21,25,26,29,31,,1.0,0.6,0.8*38
$GPVTG,286.4,T,286.4,M,2.1,N,3.9,K,A*2A
$GPRMC,195605,A,3206.236142,N,03512.400178,E,2.1,286.4,050416,3.0,E,A*13
$GPGGA,195605,3206.236142,N,03512.400178,E,1,11,0.6,660.0,M,19.0,M,,*4A
$GPGSV,4,1,13,04,00,000,34,05,14,042,17,10,08,195,17,16,12,320,18*73
$GPGSV,4,2,13,18,39,175,32,20,53,080,26,21,66,285,33,25,34,157,30*78
$GPGSV,4,3,13,26,38,310,33,29,51,059,25,31,20,247,35,12,02,147,*71
$GPGSV,4,4,13,15,05,116,*4C
$GLGSV,3,1,09,78,42,250,30,66,16,160,25,77,14,195,17,79,30,306,30*61
$GLGSV,3,2,09,65,40,102,29,88,46,007,26,87,21,060,19,81,26,299,34*69
$GLGSV,3,3,09,72,23,043,21*5C
$GPGSA,A,3,04,05,10,16,18,20,21,25,26,29,31,,0.9,0.6,0.7*3F
$GPVTG,286.3,T,286.3,M,2.4,N,4.4,K,A*25
$GPRMC,195606,A,3206.236188,N,03512.398961,E,2.4,286.3,050416,3.0,E,A*12
$GPGGA,195606,3206.236188,N,03512.398961,E,1,11,0.6,661.0,M,19.0,M,,*48
$GPGSV,4,1,13,04,00,000,32,05,14,042,18,10,08,195,17,16,12,320,21*70
$GPGSV,4,2,13,18,39,175,32,20,53,080,25,21,66,285,33,25,34,157,26*7C
$GPGSV,4,3,13,26,38,310,31,29,51,059,24,31,20,247,36,12,02,147,*71
$GPGSV,4,4,13,15,05,116,*4C
$GLGSV,3,1,09,78,42,250,31,66,16,160,24,77,14,195,17,79,30,306,31*60
$GLGSV,3,2,09,65,40,102,27,88,46,007,19,87,21,060,25,81,26,299,31*61
$GLGSV,3,3,09,72,23,043,21*5C
$GPGSA,A,3,04,05,10,16,18,20,21,25,26,29,31,,1.0,0.7,0.8*39
$GPVTG,286.3,T,286.3,M,2.4,N,4.4,K,A*25
$GPRMC,195607,A,3206.236253,N,03512.398221,E,2.4,286.3,050416,3.0,E,A*19
$GPGGA,195607,3206.236253,N,03512.398221,E,1,11,0.7,661.0,M,19.0,M,,*42
$GPGSV,4,1,13,04,00,000,35,05,14,042,22,10,08,195,17,16,12,320,21*7E
$GPGSV,4,2,13,18,39,175,28,20,53,080,24,21,66,285,33,25,34,157,24*74
$GPGSV,4,3,13,26,38,310,36,29,51,059,24,31,20,247,35,12,02,147,*75
$GPGSV,4,4,13,15,05,116,*4C
$GLGSV,3,1,09,78,42,250,31,66,16,160,22,77,14,195,17,79,30,306,34*63
$GLGSV,3,2,09,65,40,102,27,88,46,007,18,87,21,060,19,81,26,299,33*6D
$GLGSV,3,3,09,72,23,043,21*5C
$GPGSA,A,3,04,05,10,16,18,20,21,25,26,29,31,,1.0,0.6,0.8*38
$GPVTG,286.3,T,286.3,M,1.9,N,3.5,K,A*2D
$GPRMC,195608,A,3206.236207,N,03512.397403,E,1.9,286.3,050416,3.0,E,A*10
$GPGGA,195608,3206.236207,N,03512.397403,E,1,11,0.6,660.0,M,19.0,M,,*45
$GPGSV,4,1,13,04,00,000,33,05,14,042,17,10,08,195,15,16,12,320,19*77
$GPGSV,4,2,13,18,39,175,30,20,53,080,23,21,66,285,33,25,34,157,25*7B
$GPGSV,4,3,13,26,38,310,36,29,51,059,21,31,20,247,34,12,02,147,*71
$GPGSV,4,4,13,15,05,116,*4C
$GLGSV,3,1,09,78,42,250,28,66,16,160,22,77,14,195,17,79,30,306,32*6D
$GLGSV,3,2,09,65,40,102,26,88,46,007,18,87,21,060,23,81,26,299,35*63
$GLGSV,3,3,09,72,23,043,21*5C
$GPGSA,A,3,04,05,10,16,18,20,21,25,26,29,31,,1.1,0.7,0.9*39
$GPVTG,286.3,T,286.3,M,2.0,N,3.7,K,A*25
$GPRMC,195609,A,3206.236225,N,03512.396617,E,2.0,286.3,050416,3.0,E,A*1D
$GPGGA,195609,3206.236225,N,03512.396617,E,1,11,0.7,660.0,M,19.0,M,,*43
$GPGSV,4,1,13,04,00,000,36,05,14,042,17,10,08,195,19,16,12,320,19*7E
$GPGSV,4,2,13,18,39,175,31,20,53,080,22,21,66,285,33,25,34,157,26*78
$GPGSV,4,3,13,26,38,310,34,29,51,059,21,31,20,247,33,12,02,147,*74
$GPGSV,4,4,13,15,05,116,*4C
$GLGSV,3,1,09,78,42,250,27,66,16,160,21,77,14,195,12,79,30,306,30*66
$GLGSV,3,2,09,65,40,102,27,88,46,007,18,87,21,060,20,81,26,299,36*62
$GLGSV,3,3,09,72,23,043,16*58
$GPGSA,A,3,04,05,10,16,18,20,21,25,26,29,31,,1.2,0.9,0.9*34
$GPVTG,286.3,T,286.3,M,0.8,N,1.5,K,A*2F
$GPRMC,195610,A,3206.236222,N,03512.396560,E,0.8,286.3,050416,3.0,E,A*1B
$GPGGA,195610,3206.236222,N,03512.396560,E,1,11,0.9,659.0,M,19.0,M,,*4B
$GPGSV,4,1,13,04,00,000,37,05,14,042,17,10,08,195,17,18,39,175,28*76
$GPGSV,4,2,13,20,53,080,23,21,66,285,34,25,34,157,29,26,38,310,38*75
$GPGSV,4,3,13,29,51,059,27,31,20,247,32,12,02,147,,15,05,116,*7E
$GPGSV,4,4,13,16,12,320,*4E
$GLGSV,3,1,09,78,42,250,26,66,16,160,24,77,14,195,18,79,30,306,34*6C
$GLGSV,3,2,09,65,40,102,27,88,46,007,13,87,21,060,25,81,26,299,35*6F
$GLGSV,3,3,09,72,23,043,19*57
$GPGSA,A,3,04,05,10,18,20,21,25,26,29,31,,,1.1,0.7,0.9*3E
$GPVTG,286.3,T,286.3,M,1.5,N,2.8,K,A*2D
$GPRMC,195611,A,3206.236384,N,03512.395995,E,1.5,286.3,050416,3.0,E,A*1E
$GPGGA,195611,3206.236384,N,03512.395995,E,1,10,0.7,658.0,M,19.0,M,,*4C
$GPGSV,4,1,13,04,00,000,35,05,14,042,17,10,08,195,17,18,39,175,30*7D
$GPGSV,4,2,13,20,53,080,23,21,66,285,35,25,34,157,28,26,38,310,35*78
$GPGSV,4,3,13,29,51,059,25,31,20,247,34,12,02,147,,15,05,116,*7A
$GPGSV,4,4,13,16,12,320,*4E
$GLGSV,3,1,09,78,42,250,28,66,16,160,23,77,14,195,18,79,30,306,30*61
$GLGSV,3,2,09,65,40,102,24,88,46,007,13,87,21,060,27,81,26,299,33*68
$GLGSV,3,3,09,72,23,043,18*56
$GPGSA,A,3,04,05,10,18,20,21,25,26,29,31,,,1.0,0.7,0.8*3E
$GPVTG,286.2,T,286.2,M,1.2,N,2.3,K,A*21
$GPRMC,195612,A,3206.236770,N,03512.395012,E,1.2,286.2,050416,3.0,E,A*12
$GPGGA,195612,3206.236770,N,03512.395012,E,1,10,0.7,658.0,M,19.0,M,,*46
$GPGSV,4,1,13,04,00,000,33,05,14,042,17,10,08,195,17,18,39,175,30*7B
$GPGSV,4,2,13,20,53,080,25,21,66,285,33,25,34,157,26,26,38,310,35*76
$GPGSV,4,3,13,29,51,059,22,31,20,247,35,12,02,147,,15,05,116,*7C
$GPGSV,4,4,13,16,12,320,*4E
$GLGSV,3,1,09,78,42,250,26,66,16,160,23,77,14,195,18,79,30,306,27*69
$GLGSV,3,2,09,65,40,102,26,88,46,007,13,87,21,060,22,81,26,299,31*6D
$GLGSV,3,3,09,72,23,043,19*57
$GPGSA,A,3,04,05,10,18,20,21,25,26,29,31,,,1.1,0.7,0.9*3E
$GPVTG,286.3,T,286.3,M,1.0,N,1.9,K,A*2A
$GPRMC,195613,A,3206.237215,N,03512.395266,E,1.0,286.3,050416,3.0,E,A*16
$GPGGA,195613,3206.237215,N,03512.395266,E,1,10,0.7,657.0,M,19.0,M,,*4E
$GPGSV,4,1,13,04,00,000,33,05,14,042,17,10,08,195,17,16,12,320,19*75
$GPGSV,4,2,13,18,39,175,28,20,53,080,26,21,66,285,32,25,34,157,27*74
$GPGSV,4,3,13,26,38,310,34,29,51,059,22,31,20,247,37,12,02,147,*73
$GPGSV,4,4,13,15,05,116,*4C
$GLGSV,3,1,09,78,42,250,28,66,16,160,23,77,14,195,15,79,30,306,32*6E
$GLGSV,3,2,09,65,40,102,27,88,46,007,15,87,21,060,25,81,26,299,33*6F
$GLGSV,3,3,09,72,23,043,19*57
$GPGSA,A,3,04,05,10,16,18,20,21,25,26,29,31,,1.1,0.7,0.9*39
$GPVTG,286.3,T,286.3,M,1.6,N,3.0,K,A*27
$GPRMC,195614,A,3206.237406,N,03512.394843,E,1.6,286.3,050416,3.0,E,A*1F
$GPGGA,195614,3206.237406,N,03512.394843,E,1,11,0.7,657.0,M,19.0,M,,*40
$GPGSV,4,1,13,04,00,000,33,10,08,195,15,16,12,320,20,18,39,175,29*76
$GPGSV,4,2,13,20,53,080,25,21,66,285,32,25,34,157,24,26,38,310,32*72
$GPGSV,4,3,13,29,51,059,24,31,20,247,33,05,14,042,,12,02,147,*7D
$GPGSV,4,4,13,15,05,116,*4C
$GLGSV,3,1,09,78,42,250,22,66,16,160,26,77,14,195,15,79,30,306,27*65
$GLGSV,3,2,09,65,40,102,28,88,46,007,15,87,21,060,22,81,26,299,33*67
$GLGSV,3,3,09,72,23,043,16*58
$GPGSA,A,3,04,10,16,18,20,21,25,26,29,31,,,1.0,0.6,0.8*3D
$GPVTG,304.3,T,304.3,M,1.4,N,2.6,K,A*22
$GPRMC,195615,A,3206.237370,N,03512.393974,E,1.4,304.3,050416,3.0,E,A*13
$GPGGA,195615,3206.237370,N,03512.393974,E,1,10,0.6,657.0,M,19.0,M,,*45
$GPGSV,4,1,13,04,00,000,34,05,14,042,21,10,08,195,18,16,12,320,19*78
$GPGSV,4,2,13,18,39,175,28,20,53,080,25,21,66,285,33,25,34,157,27*76
$GPGSV,4,3,13,26,38,310,31,29,51,059,21,31,20,247,37,12,02,147,*75
$GPGSV,4,4,13,15,05,116,*4C
$GLGSV,3,1,09,78,42,250,28,66,16,160,23,77,14,195,15,79,30,306,25*68
$GLGSV,3,2,09,65,40,102,27,88,46,007,15,87,21,060,22,81,26,299,31*6A
$GLGSV,3,3,09,72,23,043,16*58
$GPGSA,A,3,04,05,10,16,18,20,21,25,26,29,31,,1.1,0.7,0.8*38
$GPVTG,304.3,T,304.3,M,1.0,N,1.9,K,A*2A
$GPRMC,195616,A,3206.237425,N,03512.393538,E,1.0,304.3,050416,3.0,E,A*17
$GPGGA,195616,3206.237425,N,03512.393538,E,1,11,0.7,656.0,M,19.0,M,,*44
$GPGSV,3,1,12,18,62,165,39,10,29,196,,13,02,063,,15,15,097,*72
$GPGSV,3,2,12,16,30,313,,20,40,052,,21,66,344,,25,12,161,*7D
$GPGSV,3,3,12,26,53,285,,27,04,303,,29,40,090,,31,07,229,*7C
$GLGSV,3,1,10,81,37,326,33,78,22,227,,66,40,150,,82,01,292,*66
$GLGSV,3,2,10,79,30,277,,65,45,064,,88,42,043,,87,09,084,*61
$GLGSV,3,3,10,67,01,184,,72,08,026,*60
$GPGSA,A,1,,,,,,,,,,,,,,,*1E
$GPVTG,,T,,M,,N,,K,N*2C
$GPRMC,,V,,,,,,,,,,N*53
$GPGGA,,,,,,0,,,,,,,,*66
$GPGSV,3,1,12,18,62,165,40,21,66,344,32,25,12,161,29,26,53,285,29*7D
$GPGSV,3,2,12,10,29,196,,13,02,063,,15,15,097,,16,30,313,*71
$GPGSV,3,3,12,20,40,052,,27,04,303,,29,40,090,,31,07,229,*70
$GLGSV,3,1,10,66,40,150,28,81,37,326,33,78,22,227,,82,01,292,*6C
$GLGSV,3,2,10,79,30,277,,65,45,064,,88,42,043,,87,09,084,*61
$GLGSV,3,3,10,67,01,184,,72,08,026,*60
$GPGSA,A,1,,,,,,,,,,,,,,,*1E
$GPVTG,,T,,M,,N,,K,N*2C
$GPRMC,,V,,,,,,,,,,N*53
$GPGGA,,,,,,0,,,,,,,,*66
$GPGSV,3,1,12,18,62,165,40,21,66,344,32,25,12,161,29,26,53,285,29*7D
$GPGSV,3,2,12,10,29,196,,13,02,063,,15,15,097,,16,30,313,*71
$GPGSV,3,3,12,20,40,052,,27,04,303,,29,40,090,,31,07,229,*70
$GLGSV,3,1,10,66,40,150,28,81,37,326,33,78,22,227,,82,01,292,*6C
$GLGSV,3,2,10,79,30,277,,65,45,064,,88,42,043,,87,09,084,*61
$GLGSV,3,3,10,67,01,184,,72,08,026,*60
$GPGSA,A,1,,,,,,,,,,,,,,,*1E
$GPVTG,,T,,M,,N,,K,N*2C
$GPRMC,,V,,,,,,,,,,N*53
$GPGGA,,,,,,0,,,,,,,,*66
$GPGSV,3,1,12,10,29,196,30,13,02,063,31,16,30,313,29,18,62,165,38*72
$GPGSV,3,2,12,20,40,052,31,21,66,344,37,25,12,161,33,26,53,285,26*77
$GPGSV,3,3,12,31,07,229,30,15,15,097,,27,04,303,,29,40,090,*7C
$GLGSV,3,1,10,66,40,150,31,81,37,326,34,78,22,227,,82,01,292,*63
$GLGSV,3,2,10,79,30,277,,65,45,064,,88,42,043,,87,09,084,*61
$GLGSV,3,3,10,67,01,184,,72,08,026,*60
$GPGSA,A,3,10,13,16,18,20,21,25,26,31,,,,1.4,0.8,1.2*31
$GPVTG,238.3,T,238.3,M,57.8,N,107.0,K,A*1F
$GPRMC,204409,A,3205.925133,N,03507.097728,E,57.8,238.3,050416,3.0,E,A*2C
$GPGGA,204409,3205.925133,N,03507.097728,E,1,09,0.8,364.0,M,19.0,M,,*48
$GPGSV,4,1,13,04,00,000,36,10,29,196,34,13,02,063,31,15,15,097,23*74
$GPGSV,4,2,13,16,30,313,26,18,62,165,40,20,40,052,24,21,66,344,37*74
$GPGSV,4,3,13,25,12,161,27,26,53,285,30,31,07,229,30,27,04,303,*7B
$GPGSV,4,4,13,29,40,090,*4D
$GLGSV,3,1,10,78,22,227,21,66,40,150,30,79,30,277,27,65,45,064,31*66
$GLGSV,3,2,10,88,42,043,22,87,09,084,21,81,37,326,33,82,01,292,*65
$GLGSV,3,3,10,67,01,184,,72,08,026,*60
$GPGSA,A,3,10,13,15,16,18,20,21,25,26,31,,,1.4,0.8,1.2*35
$GPVTG,238.3,T,238.3,M,57.6,N,106.6,K,A*16
$GPRMC,204410,A,3205.914442,N,03507.084108,E,57.6,238.3,050416,3.0,E,A*2D
$GPGGA,204410,3205.914442,N,03507.084108,E,1,10,0.8,372.0,M,19.0,M,,*48
$GPGSV,4,1,13,04,00,000,40,10,29,196,36,13,02,063,32,15,15,097,26*71
$GPGSV,4,2,13,16,30,313,30,18,62,165,42,20,40,052,17,21,66,344,37*71
$GPGSV,4,3,13,26,53,285,31,29,40,090,31,31,07,229,30,25,12,161,*7A
$GPGSV,4,4,13,27,04,303,*4A
$GLGSV,3,1,10,78,22,227,25,66,40,150,35,79,30,277,31,65,45,064,30*61
$GLGSV,3,2,10,88,42,043,27,87,09,084,25,81,37,326,34,82,01,292,*63
$GLGSV,3,3,10,67,01,184,,72,08,026,*60
$GPGSA,A,3,04,10,13,15,16,18,20,21,26,29,31,,1.0,0.7,0.8*3D
$GPVTG,238.4,T,238.4,M,57.5,N,106.4,K,A*17
$GPRMC,204411,A,3205.906331,N,03507.060960,E,57.5,238.4,050416,3.0,E,A*24
$GPGGA,204411,3205.906331,N,03507.060960,E,1,11,0.7,382.0,M,19.0,M,,*44
$GPGSV,4,1,13,04,00,000,37,10,29,196,32,13,02,063,28,15,15,097,26*7E
$GPGSV,4,2,13,16,30,313,29,18,62,165,38,20,40,052,31,21,66,344,37*70
$GPGSV,4,3,13,26,53,285,31,29,40,090,34,31,07,229,26,25,12,161,*78
$GPGSV,4,4,13,27,04,303,*4A
$GLGSV,3,1,10,78,22,227,18,66,40,150,31,79,30,277,30,65,45,064,31*6B
$GLGSV,3,2,10,88,42,043,27,87,09,084,28,81,37,326,29,82,01,292,*62
$GLGSV,3,3,10,67,01,184,,72,08,026,*60
$GPGSA,A,3,04,10,13,15,16,18,20,21,26,29,31,,1.0,0.7,0.8*3D
$GPVTG,238.5,T,238.5,M,57.6,N,106.7,K,A*17
$GPRMC,204412,A,3205.899177,N,03507.046950,E,57.6,238.5,050416,3.0,E,A*25
$GPGGA,204412,3205.899177,N,03507.046950,E,1,11,0.7,376.0,M,19.0,M,,*4C
$GPGSV,4,1,13,04,00,000,29,10,29,196,26,13,02,063,28,15,15,097,27*75
$GPGSV,4,2,13,16,30,313,27,18,62,165,39,20,40,052,32,21,66,344,32*79
$GPGSV,4,3,13,25,12,161,31,26,53,285,26,29,40,090,31,31,07,229,24*7B
$GPGSV,4,4,13,27,04,303,*4A
$GLGSV,3,1,10,78,22,227,18,66,40,150,30,79,30,277,30,65,45,064,30*6B
$GLGSV,3,2,10,88,42,043,26,87,09,084,26,81,37,326,19,82,01,292,*6E
$GLGSV,3,3,10,67,01,184,,72,08,026,*60
$GPGSA,A,3,04,10,13,15,16,18,20,21,25,26,29,31,1.1,0.8,0.8*34
$GPVTG,238.2,T,238.2,M,57.2,N,105.9,K,A*1E
$GPRMC,204413,A,3205.890643,N,03507.031410,E,57.2,238.2,050416,3.0,E,A*27
$GPGGA,204413,3205.890643,N,03507.031410,E,1,12,0.8,373.0,M,19.0,M,,*44
$GPGSV,4,1,13,04,00,000,29,10,29,196,28,13,02,063,15,15,15,097,27*75
$GPGSV,4,2,13,16,30,313,26,18,62,165,36,20,40,052,30,21,66,344,34*73
$GPGSV,4,3,13,25,12,161,31,26,53,285,26,29,40,090,31,31,07,229,25*7A
$GPGSV,4,4,13,27,04,303,*4A
$GLGSV,3,1,10,78,22,227,18,66,40,150,27,79,30,277,16,65,45,064,29*61
$GLGSV,3,2,10,88,42,043,26,87,09,084,27,81,37,326,23,82,01,292,*66
$GLGSV,3,3,10,67,01,184,,72,08,026,*60
$GPGSA,A,3,04,10,13,15,16,18,20,21,25,26,29,31,1.0,0.7,0.8*3A
$GPVTG,238.1,T,238.1,M,57.2,N,105.9,K,A*1E
$GPRMC,204414,A,3205.882265,N,03507.015667,E,57.2,238.1,050416,3.0,E,A*24
$GPGGA,204414,3205.882265,N,03507.015667,E,1,12,0.7,371.0,M,19.0,M,,*49
$GPGSV,4,1,13,04,00,000,36,10,29,196,37,13,02,063,26,15,15,097,25*77
$GPGSV,4,2,13,16,30,313,28,18,62,165,40,20,40,052,26,21,66,344,35*7A
$GPGSV,4,3,13,25,12,161,25,26,53,285,26,29,40,090,34,31,07,229,26*79
$GPGSV,4,4,13,27,04,303,*4A
$GLGSV,3,1,10,78,22,227,23,66,40,150,32,79,30,277,27,65,45,064,29*6F
$GLGSV,3,2,10,88,42,043,18,87,09,084,30,81,37,326,31,82,01,292,*6E
$GLGSV,3,3,10,67,01,184,,72,08,026,*60
$GPGSA,A,3,04,10,13,15,16,18,20,21,25,26,29,31,1.0,0.7,0.8*3A
$GPVTG,238.1,T,238.1,M,57.3,N,106.1,K,A*14
$GPRMC,204415,A,3205.874169,N,03506.999407,E,57.3,238.1,050416,3.0,E,A*2A
$GPGGA,204415,3205.874169,N,03506.999407,E,1,12,0.7,370.0,M,19.0,M,,*47
$GPGSV,4,1,13,04,00,000,36,10,29,196,37,13,02,063,26,15,15,097,25*77
$GPGSV,4,2,13,16,30,313,28,18,62,165,40,20,40,052,26,21,66,344,35*7A
$GPGSV,4,3,13,25,12,161,25,26,53,285,26,29,40,090,34,31,07,229,26*79
$GPGSV,4,4,13,27,04,303,*4A
$GLGSV,3,1,10,78,22,227,23,66,40,150,32,79,30,277,27,65,45,064,29*6F
$GLGSV,3,2,10,88,42,043,18,87,09,084,30,81,37,326,31,82,01,292,*6E
$GLGSV,3,3,10,67,01,184,,72,08,026,*60
$GPGSA,A,1,,,,,,,,,,,,,,,*1E
$GPVTG,,T,,M,,N,,K,N*2C
$GPRMC,,V,,,,,,,,,,N*53
$GPGGA,,,,,,0,,,,,,,,*66
$GPGSV,4,1,13,04,00,000,34,10,29,196,36,18,62,165,42,13,02,063,*70
$GPGSV,4,2,13,15,15,097,,16,30,313,,20,40,052,,21,66,344,*77
$GPGSV,4,3,13,25,12,161,,26,53,285,,27,04,303,,29,40,090,*74
$GPGSV,4,4,13,31,07,229,*47
$GLGSV,3,1,10,66,41,150,34,79,30,275,23,65,45,064,28,88,42,043,23*66
$GLGSV,3,2,10,87,09,084,28,81,37,326,33,78,22,227,,82,01,292,*65
$GLGSV,3,3,10,67,01,184,,72,08,026,*60
$GPGSA,A,2,10,18,,,,,,,,,,,1.4,1.0,0.9*36
$GPVTG,238.3,T,238.3,M,57.3,N,106.2,K,A*17
$GPRMC,204416,A,3205.864624,N,03506.979759,E,57.3,238.3,050416,3.0,E,A*22
$GPGGA,204416,3205.864624,N,03506.979759,E,1,02,1.0,368.0,M,19.0,M,,*43
$GPGSV,4,1,13,04,00,000,34,10,29,196,39,13,02,063,26,15,15,097,28*76
$GPGSV,4,2,13,16,30,313,27,18,62,165,42,20,40,052,27,21,66,344,30*73
$GPGSV,4,3,13,25,12,161,27,26,53,285,31,29,40,090,31,31,07,229,27*79
$GPGSV,4,4,13,27,04,303,*4A
$GLGSV,3,1,10,66,41,150,36,79,30,275,23,65,45,064,29,88,42,043,23*65
$GLGSV,3,2,10,87,09,084,27,81,37,326,30,78,22,227,,82,01,292,*69
$GLGSV,3,3,10,67,01,184,,72,08,026,*60
$GPGSA,A,3,10,13,15,16,18,20,21,25,26,29,31,,1.0,0.7,0.8*3E
$GPVTG,238.1,T,238.1,M,57.4,N,106.3,K,A*11
$GPRMC,204417,A,3205.857072,N,03506.967170,E,57.4,238.1,050416,3.0,E,A*21
$GPGGA,204417,3205.857072,N,03506.967170,E,1,11,0.7,369.0,M,19.0,M,,*40
$GPGSV,3,1,12,04,00,000,34,10,29,196,36,13,02,063,29,15,15,097,28*70
$GPGSV,3,2,12,16,30,313,26,18,62,165,42,20,40,052,32,21,66,344,28*79
$GPGSV,3,3,12,26,53,285,32,29,40,090,31,31,07,229,30,27,04,303,*7C
$GLGSV,1,1,0,*79
$GPGSA,A,3,04,10,13,15,16,18,20,21,26,29,31,,1.2,0.9,0.8*31
$GPVTG,238.6,T,238.6,M,57.3,N,106.1,K,A*14
$GPRMC,204418,A,3205.849230,N,03506.952308,E,57.3,238.6,050416,3.0,E,A*2E
$GPGGA,204418,3205.849230,N,03506.952308,E,1,11,0.9,367.0,M,19.0,M,,*4F
$GPGSV,3,1,11,04,00,000,25,10,29,196,35,13,02,063,30,16,30,313,31*7B
$GPGSV,3,2,11,18,62,165,37,21,66,344,33,25,12,161,31,26,53,285,25*79
$GPGSV,3,3,11,29,40,090,25,31,07,229,31,27,04,303,*47
$GLGSV,1,1,0,*79
$GPGSA,A,3,04,10,13,16,18,21,25,26,29,31,,,1.4,1.1,0.9*3E
$GPVTG,238.6,T,238.6,M,57.8,N,107.0,K,A*1F
$GPRMC,204419,A,3205.841179,N,03506.936183,E,57.8,238.6,050416,3.0,E,A*21
$GPGGA,204419,3205.841179,N,03506.936183,E,1,10,1.1,365.0,M,19.0,M,,*41
$GPGSV,3,1,11,10,29,196,34,13,02,063,31,15,15,097,24,16,30,313,31*70
$GPGSV,3,2,11,18,62,165,38,21,66,344,32,25,12,161,29,26,53,285,24*7F
$GPGSV,3,3,11,31,07,229,29,20,40,052,,27,04,303,*4E
$GLGSV,1,1,0,*79
$GPGSA,A,3,10,13,15,16,18,21,25,26,31,,,,1.3,1.0,0.8*32
$GPVTG,238.0,T,238.0,M,58.2,N,107.7,K,A*1D
$GPRMC,204420,A,3205.832487,N,03506.919825,E,58.2,238.0,050416,3.0,E,A*20
$GPGGA,204420,3205.832487,N,03506.919825,E,1,09,1.0,365.0,M,19.0,M,,*4A
$GPGSV,3,1,11,04,00,000,25,10,29,196,34,13,02,063,31,16,30,313,25*7E
$GPGSV,3,2,11,18,62,165,38,21,66,344,30,25,12,161,31,31,07,229,28*79
$GPGSV,3,3,11,20,40,052,,27,04,303,,29,40,090,*4F
$GLGSV,1,1,0,*79
$GPGSA,A,3,04,10,13,16,18,21,25,31,,,,,1.7,1.5,0.9*36
$GPVTG,238.0,T,238.0,M,57.6,N,106.7,K,A*17
$GPRMC,204421,A,3205.825120,N,03506.902991,E,57.6,238.0,050416,3.0,E,A*20
$GPGGA,204421,3205.825120,N,03506.902991,E,1,08,1.5,361.0,M,19.0,M,,*41
$GPGSV,3,1,12,04,00,000,25,10,29,196,33,13,02,063,30,15,15,097,23*76
$GPGSV,3,2,12,18,62,165,38,21,66,344,33,25,12,161,32,26,53,285,27*74
$GPGSV,3,3,12,31,07,229,29,20,40,052,,27,04,303,,29,40,090,*7B
$GLGSV,1,1,0,*79
$GPGSA,A,3,04,10,13,15,18,21,25,26,31,,,,1.4,1.2,0.9*35
$GPVTG,238.3,T,238.3,M,57.5,N,106.5,K,A*16
$GPRMC,204422,A,3205.816406,N,03506.886921,E,57.5,238.3,050416,3.0,E,A*24
$GPGGA,204422,3205.816406,N,03506.886921,E,1,09,1.2,362.0,M,19.0,M,,*40
$GPGSA,A,1,,,,,,,,,,,,,,,*1E
$GPVTG,,T,,M,,N,,K,N*2C
$GPRMC,,V,,,,,,,,,,N*53
$GPGGA,,,,,,0,,,,,,,,*66
$GPGSV,3,1,12,16,30,313,39,31,07,229,29,10,29,196,,13,02,063,*71
$GPGSV,3,2,12,15,15,097,,18,63,165,,20,40,052,,21,66,344,*7A
$GPGSV,3,3,12,25,12,161,,26,53,285,,27,04,303,,29,40,090,*72
$GLGSV,3,1,10,81,37,326,35,78,21,226,,66,41,150,,82,02,292,*60
$GLGSV,3,2,10,79,30,275,,65,45,064,,88,42,043,,87,09,084,*63
$GLGSV,3,3,10,67,01,184,,72,08,026,*60
$GPGSA,A,1,,,,,,,,,,,,,,,*1E
$GPVTG,,T,,M,,N,,K,N*2C
$GPRMC,,V,,,,,,,,,,N*53
$GPGGA,,,,,,0,,,,,,,,*66
$GPGSA,A,1,,,,,,,,,,,,,,,*1E
$GPVTG,,T,,M,,N,,K,N*2C
$GPRMC,,V,,,,,,,,,,N*53
$GPGGA,,,,,,0,,,,,,,,*66
$GPGSV,3,1,12,10,29,196,34,16,30,313,39,26,53,285,31,29,40,090,27*78
$GPGSV,3,2,12,31,07,229,29,13,02,063,,15,15,097,,18,63,165,*79
$GPGSV,3,3,12,20,40,052,,21,66,344,,25,12,161,,27,04,303,*78
$GLGSV,3,1,10,79,30,275,27,65,45,064,23,81,37,326,36,72,08,026,27*6C
$GLGSV,3,2,10,78,21,226,,66,41,150,,82,02,292,,88,42,043,*6E
$GLGSV,3,3,10,87,09,084,,67,01,184,*63
$GPGSA,A,1,,,,,,,,,,,,,,,*1E
$GPVTG,,T,,M,,N,,K,N*2C
$GPRMC,,V,,,,,,,,,,N*53
$GPGGA,,,,,,0,,,,,,,,*66
$GPGSA,A,1,,,,,,,,,,,,,,,*1E
$GPVTG,,T,,M,,N,,K,N*2C
$GPRMC,,V,,,,,,,,,,N*53
$GPGGA,,,,,,0,,,,,,,,*66
$GPGSV,3,1,12,10,29,196,34,16,30,313,39,26,53,285,31,29,40,090,27*78
$GPGSV,3,2,12,31,07,229,29,13,02,063,,15,15,097,,18,63,165,*79
$GPGSV,3,3,12,20,40,052,,21,66,344,,25,12,161,,27,04,303,*78
$GLGSV,3,1,10,79,30,275,27,65,45,064,23,81,37,326,36,72,08,026,27*6C
$GLGSV,3,2,10,78,21,226,,66,41,150,,82,02,292,,88,42,043,*6E
$GLGSV,3,3,10,87,09,084,,67,01,184,*63
$GPGSA,A,1,,,,,,,,,,,,,,,*1E
$GPVTG,,T,,M,,N,,K,N*2C
$GPRMC,,V,,,,,,,,,,N*53
$GPGGA,,,,,,0,,,,,,,,*66
$GPGSA,A,1,,,,,,,,,,,,,2.3,1.0,2.1*33
$GPVTG,257.5,T,257.5,M,54.6,N,101.2,K,A*16
$GPRMC,204455,A,3205.589103,N,03506.341527,E,54.6,257.5,050416,3.0,E,A*2A
$GPGGA,204455,3205.589103,N,03506.341527,E,1,00,1.0,327.0,M,19.0,M,,*4B
$GPGSV,4,1,13,04,00,000,27,10,29,196,31,13,02,063,22,16,30,313,41*7C
$GPGSV,4,2,13,20,40,052,24,26,53,285,30,29,40,090,27,31,07,229,30*78
$GPGSV,4,3,13,15,15,097,,18,63,165,,21,66,344,,25,12,161,*7E
$GPGSV,4,4,13,27,04,303,*4A
$GLGSV,3,1,10,79,30,275,30,65,45,064,22,88,42,043,21,81,37,326,36*65
$GLGSV,3,2,10,72,08,026,25,78,21,226,,66,41,150,,82,02,292,*61
$GLGSV,3,3,10,87,09,084,,67,01,184,*63
$GPGSA,A,3,13,16,20,31,,,,,,,,,1.5,0.9,1.2*39
$GPVTG,258.2,T,258.2,M,55.1,N,102.1,K,A*10
$GPRMC,204456,A,3205.584680,N,03506.319450,E,55.1,258.2,050416,3.0,E,A*2A
$GPGGA,204456,3205.584680,N,03506.319450,E,1,04,0.9,335.0,M,19.0,M,,*4A
$GPGSV,4,1,13,04,00,000,29,10,29,196,31,13,02,063,24,15,15,097,20*78
$GPGSV,4,2,13,16,30,313,41,18,63,165,18,20,40,052,25,21,66,344,18*75
$GPGSV,4,3,13,26,53,285,28,29,40,090,25,31,07,229,33,25,12,161,*74
$GPGSV,4,4,13,27,04,303,*4A
$GLGSV,3,1,10,66,41,150,20,79,30,275,31,65,45,064,20,88,42,043,22*69
$GLGSV,3,2,10,87,09,084,21,81,37,326,34,72,08,026,27,78,21,226,*67
$GLGSV,3,3,10,82,02,292,,67,01,184,*68
$GPGSA,A,3,04,10,13,15,16,18,20,21,26,29,31,,1.1,0.8,0.8*33
$GPVTG,260.2,T,260.2,M,55.4,N,102.6,K,A*12
$GPRMC,204457,A,3205.581090,N,03506.294589,E,55.4,260.2,050416,3.0,E,A*26
$GPGGA,204457,3205.581090,N,03506.294589,E,1,11,0.8,351.0,M,19.0,M,,*4F
$GPGSV,4,1,13,04,00,000,30,10,29,196,27,13,02,063,20,15,15,097,22*71
$GPGSV,4,2,13,16,31,313,39,18,63,165,18,20,40,052,26,21,66,344,18*78
$GPGSV,4,3,13,25,12,161,17,26,53,285,30,29,40,090,25,31,07,229,33*7B
$GPGSV,4,4,13,27,04,303,*4A
$GLGSV,3,1,10,66,41,150,21,79,30,275,30,65,45,064,20,88,42,043,24*6F
$GLGSV,3,2,10,87,09,084,22,81,37,326,32,72,08,026,28,78,21,226,*6D
$GLGSV,3,3,10,82,02,292,,67,01,184,*68
$GPGSA,A,3,04,10,13,15,16,18,20,21,25,26,29,31,1.1,0.7,0.8*3B
$GPVTG,261.2,T,261.2,M,55.0,N,101.8,K,A*1B
$GPRMC,204458,A,3205.580739,N,03506.285217,E,55.0,261.2,050416,3.0,E,A*29
$GPGGA,204458,3205.580739,N,03506.285217,E,1,12,0.7,334.0,M,19.0,M,,*4A
$GPGSV,4,1,13,04,00,000,29,10,29,196,27,13,02,063,19,15,15,097,24*75
$GPGSV,4,2,13,16,31,313,38,18,63,165,18,20,40,052,26,21,66,344,20*72
$GPGSV,4,3,13,25,12,161,17,26,53,285,30,29,40,090,25,31,07,229,33*7B
$GPGSV,4,4,13,27,04,303,*4A
$GLGSV,3,1,10,78,21,226,17,66,41,150,26,79,30,275,29,65,45,064,19*61
$GLGSV,3,2,10,88,42,043,25,87,09,084,22,81,37,326,33,72,08,026,22*6A
$GLGSV,3,3,10,82,02,292,,67,01,184,*68
$GPGSA,A,3,04,10,13,15,16,18,20,21,25,26,29,31,1.0,0.7,0.8*3A
$GPVTG,262.0,T,262.0,M,54.8,N,101.6,K,A*1C
$GPRMC,204459,A,3205.579210,N,03506.269109,E,54.8,262.0,050416,3.0,E,A*26
$GPGGA,204459,3205.579210,N,03506.269109,E,1,12,0.7,330.0,M,19.0,M,,*49
$GPGSV,4,1,13,04,00,000,29,10,29,196,26,13,02,063,23,15,15,097,25*7C
$GPGSV,4,2,13,16,31,313,32,18,63,165,19,20,40,052,22,25,12,161,17*7B
$GPGSV,4,3,13,26,53,285,32,29,40,090,23,31,07,229,29,21,66,344,*70
$GPGSV,4,4,13,27,04,303,*4A
$GLGSV,3,1,10,78,21,226,18,66,41,150,26,79,30,275,27,65,45,064,18*61
$GLGSV,3,2,10,88,42,043,23,87,09,084,21,81,37,326,29,72,08,026,22*64
$GLGSV,3,3,10,82,02,292,,67,01,184,*68
$GPGSA,A,3,04,10,13,15,16,18,20,25,26,29,31,,1.0,0.7,0.8*39
$GPVTG,263.4,T,263.4,M,56.6,N,104.8,K,A*1B
$GPRMC,204500,A,3205.578028,N,03506.247853,E,56.6,263.4,050416,3.0,E,A*20
$GPGGA,204500,3205.578028,N,03506.247853,E,1,11,0.7,328.0,M,19.0,M,,*4C
$GPGSV,4,1,13,04,00,000,29,10,29,196,25,13,02,063,20,15,15,097,25*7C
$GPGSV,4,2,13,16,31,313,30,18,63,165,20,20,40,052,22,21,66,344,33*77
$GPGSV,4,3,13,25,12,161,17,26,53,285,33,29,40,090,25,31,07,229,29*73
$GPGSV,4,4,13,27,04,303,*4A
$GLGSV,3,1,10,78,21,226,19,66,41,150,25,79,30,275,22,65,45,064,18*66
$GLGSV,3,2,10,88,42,043,19,87,09,084,21,81,37,326,26,72,08,026,22*62
$GLGSV,3,3,10,82,02,292,,67,01,184,*68
$GPGSA,A,3,04,10,13,15,16,18,20,21,25,26,29,31,1.0,0.6,0.8*3B
$GPVTG,264.9,T,264.9,M,56.2,N,104.1,K,A*16
$GPRMC,204501,A,3205.576117,N,03506.228697,E,56.2,264.9,050416,3.0,E,A*23
$GPGGA,204501,3205.576117,N,03506.228697,E,1,12,0.6,331.0,M,19.0,M,,*4B
$GPGSV,3,1,12,20,36,049,34,10,33,196,,13,03,059,,15,16,092,*7F
$GPGSV,3,2,12,16,34,310,,18,67,160,,21,64,354,,25,08,161,*7C
$GPGSV,3,3,12,26,54,278,,27,07,305,,29,37,095,,31,04,226,*75
$GLGSV,3,1,10,82,04,296,32,65,43,057,29,78,18,223,,66,46,147,*6C
$GLGSV,3,2,10,79,28,270,,88,41,050,,87,07,088,,81,39,331,*6E
$GLGSV,3,3,10,67,05,184,,72,04,023,*6D
$GPGSA,A,1,,,,,,,,,,,,,,,*1E
$GPVTG,,T,,M,,N,,K,N*2C
$GPRMC,,V,,,,,,,,,,N*53
$GPGGA,,,,,,0,,,,,,,,*66
$GPGSV,3,1,12,16,34,310,31,20,36,049,35,21,64,354,29,26,54,278,27*71
$GPGSV,3,2,12,27,07,305,33,29,37,095,24,31,04,226,26,10,33,196,*71
$GPGSV,3,3,12,13,03,059,,15,16,092,,18,67,160,,25,08,161,*79
$GLGSV,3,1,10,82,04,296,34,65,43,057,30,78,18,223,,66,46,147,*62
$GLGSV,3,2,10,79,28,270,,88,41,050,,87,07,088,,81,39,331,*6E
$GLGSV,3,3,10,67,05,184,,72,04,023,*6D
$GPGSA,A,1,,,,,,,,,,,,,,,*1E
$GPVTG,,T,,M,,N,,K,N*2C
$GPRMC,,V,,,,,,,,,,N*53
$GPGGA,,,,,,0,,,,,,,,*66
$GPGSV,3,1,12,16,34,310,31,20,36,049,35,21,64,354,29,26,54,278,27*71
$GPGSV,3,2,12,27,07,305,33,29,37,095,24,31,04,226,26,10,33,196,*71
$GPGSV,3,3,12,13,03,059,,15,16,092,,18,67,160,,25,08,161,*79
$GLGSV,3,1,10,82,04,296,34,65,43,057,30,78,18,223,,66,46,147,*62
$GLGSV,3,2,10,79,28,270,,88,41,050,,87,07,088,,81,39,331,*6E
$GLGSV,3,3,10,67,05,184,,72,04,023,*6D
$GPGSA,A,1,,,,,,,,,,,,,,,*1E
$GPVTG,,T,,M,,N,,K,N*2C
$GPRMC,,V,,,,,,,,,,N*53
$GPGGA,,,,,,0,,,,,,,,*66
$GPGSV,3,1,12,10,33,196,23,13,03,059,24,15,16,092,28,16,34,310,33*7D
$GPGSV,3,2,12,18,67,160,31,20,36,049,35,21,64,354,31,25,08,161,23*73
$GPGSV,3,3,12,26,54,278,31,27,07,305,36,29,37,095,28,31,04,224,27*7F
$GLGSV,3,1,10,82,04,296,34,65,43,057,33,78,18,223,,66,46,146,*60
