$GPGGA,190849.2,,,,,0,,,,,,,,*77
$GPVTG,,T,,M,,N,,K,N*2C
$GPRMC,,V,,,,,,,,,,N*53
$GPGSA,A,1,,,,,,,,,,,,,,,*1E
$GNGSA,A,1,,,,,,,,,,,,,,,*00
$GLGSV,3,1,09,73,25,314,,66,24,047,,82,46,004,,80,43,247,*6C
$GLGSV,3,2,09,79,14,191,,83,25,296,,81,20,059,,67,37,109,*64
$GLGSV,3,3,09,68,12,163,*55
$GPGSV,3,1,12,05,15,043,,10,06,195,,12,04,146,,15,03,118,*7F
$GPGSV,3,2,12,16,09,320,,18,37,175,,20,53,084,,21,65,281,*79
$GPGSV,3,3,12,25,37,154,,26,36,313,,29,51,054,,31,22,248,*7B
$GPGGA,190850.2,,,,,0,,,,,,,,*7F
$GPVTG,,T,,M,,N,,K,N*2C
$GPRMC,,V,,,,,,,,,,N*53
$GPGSA,A,1,,,,,,,,,,,,,,,*1E
$GNGSA,A,1,,,,,,,,,,,,,,,*00
$GLGSV,3,1,09,73,25,314,32,66,24,047,,82,46,004,,80,43,247,*6D
$GLGSV,3,2,09,79,14,191,,83,25,296,,81,20,059,,67,37,109,*64
$GLGSV,3,3,09,68,12,163,*55
$GPGSV,3,1,12,05,15,043,,10,06,195,,12,04,146,,15,03,118,*7F
$GPGSV,3,2,12,16,09,320,,18,37,175,,20,53,084,,21,65,281,*79
$GPGSV,3,3,12,25,37,154,,26,36,313,,29,51,054,,31,22,248,*7B
$GPGGA,190851.2,,,,,0,,,,,,,,*7E
$GPVTG,,T,,M,,N,,K,N*2C
$GPRMC,,V,,,,,,,,,,N*53
$GPGSA,A,1,,,,,,,,,,,,,,,*1E
$GNGSA,A,1,,,,,,,,,,,,,,,*00
$GLGSV,3,1,09,73,25,314,30,66,24,047,26,83,25,296,33,82,46,004,*64
$GLGSV,3,2,09,80,43,247,,79,14,191,,81,20,059,,67,37,109,*6B
$GLGSV,3,3,09,68,12,163,*55
$GPGSV,3,1,12,15,03,118,28,05,15,043,,10,06,195,,12,04,146,*75
$GPGSV,3,2,12,16,09,320,,18,37,175,,20,53,084,,21,65,281,*79
$GPGSV,3,3,12,25,37,154,,26,36,313,,29,51,054,,31,22,248,*7B
$GPGGA,190852.2,,,,,0,,,,,,,,*7D
$GPVTG,,T,,M,,N,,K,N*2C
$GPRMC,,V,,,,,,,,,,N*53
$GPGSA,A,1,,,,,,,,,,,,,,,*1E
$GNGSA,A,1,,,,,,,,,,,,,,,*00
$GLGSV,3,1,09,73,25,314,33,66,24,047,33,82,46,004,28,83,25,296,32*68
$GLGSV,3,2,09,80,43,247,,79,14,191,,81,20,059,,67,37,109,*6B
$GLGSV,3,3,09,68,12,163,*55
$GPGSV,3,1,12,05,15,043,28,15,03,118,28,20,53,084,27,26,36,313,28*76
$GPGSV,3,2,12,29,51,054,26,10,06,195,,12,04,146,,16,09,320,*70
$GPGSV,3,3,12,18,37,175,,21,65,281,,25,37,154,,31,22,248,*70
$GPGGA,190852.3,,,,,0,,,,,,,,*7C
$GPVTG,,T,,M,,N,,K,N*2C
$GPRMC,,V,,,,,,,,,,N*53
$GPGSA,A,1,,,,,,,,,,,,,,,*1E
$GNGSA,A,1,,,,,,,,,,,,,,,*00
$GLGSV,3,1,09,73,25,314,33,66,24,047,33,82,46,004,28,83,25,296,32*68
$GLGSV,3,2,09,80,43,247,,79,14,191,,81,20,059,,67,37,109,*6B
$GLGSV,3,3,09,68,12,163,*55
$GPGSV,3,1,12,05,15,043,28,15,03,118,28,20,53,084,27,26,36,313,28*76
$GPGSV,3,2,12,29,51,054,26,10,06,195,,12,04,146,,16,09,320,*70
$GPGSV,3,3,12,18,37,175,,21,65,281,,25,37,154,,31,22,248,*70
$GPGGA,190853.2,,,,,0,,,,,,,,*7C
$GPVTG,,T,,M,,N,,K,N*2C
$GPRMC,,V,,,,,,,,,,N*53
$GPGSA,A,1,,,,,,,,,,,,,,,*1E
$GNGSA,A,1,,,,,,,,,,,,,,,*00
$GLGSV,3,1,09,73,25,314,33,66,24,047,33,82,46,004,30,80,42,247,31*6C
$GLGSV,3,2,09,83,25,296,35,81,21,059,29,67,37,109,28,68,12,163,35*6F
$GLGSV,3,3,09,79,13,191,*59
$GPGSV,3,1,12,05,15,043,27,10,05,195,27,12,04,146,29,15,03,118,25*70
$GPGSV,3,2,12,16,09,320,33,18,36,175,33,20,53,084,35,25,37,156,30*77
$GPGSV,3,3,12,26,36,312,34,29,51,054,30,31,22,248,32,21,65,279,*70
$GPGGA,190853.9,3159.710005,N,03445.491082,E,1,11,0.6,15.4,M,19.0,M,,*60
$GPVTG,185.8,T,182.9,M,42.2,N,78.1,K,A*2F
$GPRMC,190853.9,A,3159.710005,N,03445.491082,E,42.2,185.8,150416,3.0,E,A*33
$GPGSA,A,3,05,10,12,15,16,18,20,25,26,29,31,,1.2,0.6,1.1*32
$GNGSA,A,3,05,10,12,15,16,18,20,25,26,29,31,,1.2,0.6,1.1*2C
$GNGSA,A,3,73,66,82,83,81,67,68,,,,,,1.2,0.6,1.1*2A
$GLGSV,3,1,09,73,25,314,32,66,24,047,30,82,46,004,28,80,42,247,25*62
$GLGSV,3,2,09,79,13,191,24,83,25,296,34,81,21,059,30,67,37,109,26*64
$GLGSV,3,3,09,68,12,163,33*55
$GPGSV,3,1,12,05,15,043,29,10,05,195,26,12,04,146,29,15,03,118,22*78
$GPGSV,3,2,12,16,09,320,25,18,36,175,29,20,53,084,32,21,65,279,23*73
$GPGSV,3,3,12,25,37,156,26,26,36,312,33,29,51,054,31,31,22,248,27*7B
$GPGGA,190854.8,3159.697956,N,03445.486434,E,1,12,0.6,15.2,M,19.0,M,,*6D
$GPVTG,186.2,T,183.2,M,42.6,N,79.0,K,A*28
$GPRMC,190854.8,A,3159.697956,N,03445.486434,E,42.6,186.2,150416,3.0,E,A*36
$GPGSA,A,3,05,10,12,15,16,18,20,21,25,26,29,31,1.1,0.6,1.0*33
$GNGSA,A,3,05,10,12,15,16,18,20,21,25,26,29,31,1.1,0.6,1.0*2D
$GNGSA,A,3,73,66,82,79,83,81,67,68,,,,,1.1,0.6,1.0*26
$GLGSV,3,1,09,73,25,314,31,66,24,047,30,82,46,004,28,80,42,247,21*65
$GLGSV,3,2,09,79,13,191,24,83,25,296,33,81,21,059,32,67,37,109,26*61
$GLGSV,3,3,09,68,12,163,32*54
$GPGSV,3,1,12,05,15,043,27,10,05,195,26,12,04,146,29,15,03,118,21*75
$GPGSV,3,2,12,16,09,320,28,18,36,175,27,20,53,084,33,21,65,279,23*71
$GPGSV,3,3,12,25,37,156,26,26,36,312,30,29,51,054,31,31,22,248,30*7E
$GPGGA,190855.8,3159.685873,N,03445.485313,E,1,12,0.6,20.5,M,19.0,M,,*69
$GPVTG,186.1,T,183.1,M,43.7,N,81.0,K,A*2F
$GPRMC,190855.8,A,3159.685873,N,03445.485313,E,43.7,186.1,150416,3.0,E,A*30
$GPGSA,A,3,05,10,12,15,16,18,20,21,25,26,29,31,1.1,0.6,1.0*33
$GNGSA,A,3,05,10,12,15,16,18,20,21,25,26,29,31,1.1,0.6,1.0*2D
$GNGSA,A,3,73,66,82,79,83,81,67,68,,,,,1.1,0.6,1.0*26
$GLGSV,3,1,09,73,25,314,30,66,24,047,28,82,46,004,20,80,42,247,23*67
$GLGSV,3,2,09,79,13,191,24,83,25,296,27,81,21,059,33,67,37,109,24*67
$GLGSV,3,3,09,68,12,163,31*57
$GPGSV,3,1,12,05,15,043,29,10,05,195,27,12,04,146,29,15,03,118,21*7A
$GPGSV,3,2,12,16,09,320,26,18,36,175,23,20,53,084,31,21,65,279,25*7F
$GPGSV,3,3,12,25,37,156,26,26,36,312,30,29,51,054,32,31,22,248,28*74
$GPGGA,190856.8,3159.675853,N,03445.485667,E,1,12,0.5,27.2,M,19.0,M,,*62
$GPVTG,185.9,T,183.0,M,44.4,N,82.2,K,A*20
$GPRMC,190856.8,A,3159.675853,N,03445.485667,E,44.4,185.9,150416,3.0,E,A*37
$GPGSA,A,3,05,10,12,15,16,18,20,21,25,26,29,31,1.1,0.5,1.0*30
$GNGSA,A,3,05,10,12,15,16,18,20,21,25,26,29,31,1.1,0.5,1.0*2E
$GNGSA,A,3,73,66,82,79,83,81,67,68,,,,,1.1,0.5,1.0*25
$GLGSV,3,1,09,73,25,314,33,66,24,047,28,82,46,004,20,80,42,247,28*6F
$GLGSV,3,2,09,79,13,191,28,83,25,296,28,81,21,059,35,67,37,109,27*61
$GLGSV,3,3,09,68,12,163,33*55
$GPGSV,3,1,12,05,15,043,29,10,05,195,28,12,04,146,29,15,03,118,21*75
$GPGSV,3,2,12,16,09,320,25,18,36,175,24,20,53,084,31,21,65,279,23*7D
$GPGSV,3,3,12,25,37,156,20,26,36,312,32,29,51,054,27,31,22,248,25*79
$GPGGA,190857.0,3159.675770,N,03445.485141,E,1,11,0.6,-27.6,M,19.0,M,,*4F
$GPVTG,186.2,T,183.2,M,45.0,N,83.3,K,A*2F
$GPRMC,190857.0,A,3159.675770,N,03445.485141,E,45.0,186.2,150416,3.0,E,A*3E
$GPGSA,A,2,05,10,12,16,18,20,21,25,26,29,31,,0.9,0.6,0.7*39
$GNGSA,A,2,05,10,12,16,18,20,21,25,26,29,31,,0.9,0.6,0.7*27
$GNGSA,A,2,66,67,68,73,79,81,82,83,,,,,0.9,0.6,0.7*28
$GLGSV,3,1,09,73,25,314,30,66,24,047,29,82,46,004,20,80,42,247,29*6C
$GLGSV,3,2,09,79,13,191,25,83,25,296,28,81,21,059,32,67,37,109,27*6B
$GLGSV,3,3,09,68,12,163,33*55
$GPGSV,3,1,12,05,15,043,25,10,05,195,27,12,04,146,29,15,03,118,21*76
$GPGSV,3,2,12,16,09,320,23,18,36,175,27,20,53,084,31,21,65,279,23*78
$GPGSV,3,3,12,25,37,156,25,26,36,312,29,29,51,054,26,31,22,248,29*7B
$GPGGA,190858.0,3159.659860,N,03445.487495,E,1,11,0.6,-3.2,M,19.0,M,,*7C
$GPVTG,185.6,T,182.6,M,45.6,N,84.4,K,A*2B
$GPRMC,190858.0,A,3159.659860,N,03445.487495,E,45.6,185.6,150416,3.0,E,A*3E
$GPGSA,A,2,05,10,12,16,18,20,21,25,26,29,31,,0.9,0.6,0.7*39
$GNGSA,A,2,05,10,12,16,18,20,21,25,26,29,31,,0.9,0.6,0.7*27
$GNGSA,A,2,66,67,68,73,79,81,82,83,,,,,0.9,0.6,0.7*28
$GLGSV,3,1,09,73,25,314,29,66,24,047,28,82,46,004,19,80,42,247,28*6E
$GLGSV,3,2,09,79,13,191,25,83,25,296,27,81,21,059,30,67,37,109,24*65
$GLGSV,3,3,09,68,12,163,32*54
$GPGSV,3,1,12,05,15,043,27,10,05,195,26,12,04,146,17,15,03,118,21*78
$GPGSV,3,2,12,16,09,320,31,18,36,175,27,20,53,084,31,21,65,279,23*7B
$GPGSV,3,3,12,25,37,156,24,26,36,312,28,29,51,054,27,31,22,248,25*76
$GPGGA,190859.0,3159.646030,N,03445.484676,E,1,11,0.6,5.3,M,19.0,M,,*58
$GPVTG,186.1,T,183.1,M,45.4,N,84.1,K,A*2E
$GPRMC,190859.0,A,3159.646030,N,03445.484676,E,45.4,186.1,150416,3.0,E,A*36
$GPGSA,A,2,05,10,12,16,18,20,21,25,26,29,31,,0.9,0.6,0.7*39
$GNGSA,A,2,05,10,12,16,18,20,21,25,26,29,31,,0.9,0.6,0.7*27
$GNGSA,A,2,66,67,68,73,79,81,82,83,,,,,0.9,0.6,0.7*28
$GLGSV,3,1,09,73,25,314,29,66,24,047,29,82,46,004,26,80,42,247,20*6B
$GLGSV,3,2,09,79,13,191,28,83,25,296,27,81,21,059,35,67,37,109,32*6A
$GLGSV,3,3,09,68,12,163,34*52
$GPGSV,3,1,12,05,15,043,32,10,05,195,28,12,04,146,26,15,03,118,21*70
$GPGSV,3,2,12,16,09,320,22,18,36,175,23,20,53,084,30,21,65,279,23*7C
$GPGSV,3,3,12,25,37,156,27,26,36,312,33,29,51,054,34,31,22,248,33*7A
$GPGGA,190900.0,3159.633429,N,03445.483101,E,1,11,0.6,8.4,M,19.0,M,,*51
$GPVTG,186.0,T,183.0,M,46.5,N,86.1,K,A*2E
$GPRMC,190900.0,A,3159.633429,N,03445.483101,E,46.5,186.0,150416,3.0,E,A*36
$GPGSA,A,2,05,10,12,16,18,20,21,25,26,29,31,,0.9,0.6,0.7*39
$GNGSA,A,2,05,10,12,16,18,20,21,25,26,29,31,,0.9,0.6,0.7*27
$GNGSA,A,2,66,67,68,73,79,81,82,83,,,,,0.9,0.6,0.7*28
$GLGSV,3,1,09,73,25,314,34,66,24,047,28,82,46,004,29,80,42,247,20*69
$GLGSV,3,2,09,79,13,191,26,83,25,296,25,81,21,059,33,67,37,109,27*64
$GLGSV,3,3,09,68,12,163,33*55
$GPGSV,3,1,12,05,15,043,32,10,05,195,29,12,04,146,31,15,03,118,21*77
$GPGSV,3,2,12,16,09,320,20,18,36,175,24,20,53,084,30,21,65,279,28*72
$GPGSV,3,3,12,25,37,156,24,26,36,312,30,29,51,054,32,31,22,248,28*76
$GPGGA,190901.0,3159.620880,N,03445.480948,E,1,11,0.6,15.0,M,19.0,M,,*63
$GPVTG,186.3,T,183.3,M,46.9,N,87.0,K,A*22
$GPRMC,190901.0,A,3159.620880,N,03445.480948,E,46.9,186.3,150416,3.0,E,A*33
$GPGSA,A,2,05,10,12,16,18,20,21,25,26,29,31,,0.9,0.6,0.7*39
$GNGSA,A,2,05,10,12,16,18,20,21,25,26,29,31,,0.9,0.6,0.7*27
$GNGSA,A,2,66,67,68,73,79,81,82,83,,,,,0.9,0.6,0.7*28
$GLGSV,3,1,09,73,25,314,34,66,24,047,28,82,46,004,22,80,42,247,20*62
$GLGSV,3,2,09,79,13,191,23,83,25,296,32,81,21,059,29,67,37,109,20*6B
$GLGSV,3,3,09,68,12,163,33*55
$GPGSV,3,1,12,05,15,043,26,10,05,195,23,12,04,146,32,15,03,118,21*7B
$GPGSV,3,2,12,16,09,320,24,18,36,175,26,20,53,084,29,21,65,279,27*73
$GPGSV,3,3,12,25,37,156,26,26,36,312,31,29,51,054,28,31,22,248,30*77
$GPGGA,190902.0,3159.607862,N,03445.479597,E,1,11,0.6,17.1,M,19.0,M,,*62
$GPVTG,186.3,T,183.3,M,46.9,N,86.8,K,A*2B
$GPRMC,190902.0,A,3159.607862,N,03445.479597,E,46.9,186.3,150416,3.0,E,A*31
$GPGSA,A,2,05,10,12,16,18,20,21,25,26,29,31,,0.9,0.6,0.7*39
$GNGSA,A,2,05,10,12,16,18,20,21,25,26,29,31,,0.9,0.6,0.7*27
$GNGSA,A,2,66,67,68,73,79,81,82,83,,,,,0.9,0.6,0.7*28
$GLGSV,3,1,09,73,25,314,33,66,24,047,28,82,46,004,23,80,42,247,18*6F
$GLGSV,3,2,09,79,13,191,23,83,25,296,32,81,21,059,25,67,37,109,20*67
$GLGSV,3,3,09,68,12,163,32*54
$GPGSV,3,1,12,05,15,043,23,10,05,195,22,12,04,146,29,15,03,118,21*75
$GPGSV,3,2,12,16,09,320,28,18,36,175,28,20,53,084,29,21,65,279,22*74
$GPGSV,3,3,12,25,37,156,30,26,36,312,29,29,51,054,23,31,22,248,32*70
$GPGGA,190903.0,3159.595014,N,03445.477788,E,1,11,0.6,17.1,M,19.0,M,,*60
$GPVTG,187.1,T,184.2,M,47.3,N,87.6,K,A*2A
$GPRMC,190903.0,A,3159.595014,N,03445.477788,E,47.3,187.1,150416,3.0,E,A*3B
$GPGSA,A,2,05,10,12,16,18,20,21,25,26,29,31,,0.9,0.6,0.7*39
$GNGSA,A,2,05,10,12,16,18,20,21,25,26,29,31,,0.9,0.6,0.7*27
$GNGSA,A,2,66,67,68,73,79,81,82,83,,,,,0.9,0.6,0.7*28
$GLGSV,3,1,09,73,25,314,34,66,24,047,30,82,46,004,23,80,42,247,23*69
$GLGSV,3,2,09,79,13,191,24,83,25,296,30,81,21,059,23,67,37,109,20*64
$GLGSV,3,3,09,68,12,163,31*57
$GPGSV,3,1,12,05,15,043,27,10,05,195,22,12,04,146,31,15,03,118,21*78
$GPGSV,3,2,12,16,09,320,32,18,36,175,30,20,53,084,28,21,65,279,22*77
$GPGSV,3,3,12,25,37,156,28,26,36,312,29,29,51,054,25,31,22,248,33*7E
$GPGGA,190904.0,3159.581552,N,03445.475781,E,1,11,0.6,16.7,M,19.0,M,,*69
$GPVTG,187.4,T,184.5,M,47.7,N,88.4,K,A*21
$GPRMC,190904.0,A,3159.581552,N,03445.475781,E,47.7,187.4,150416,3.0,E,A*34
$GPGSA,A,2,05,10,12,16,18,20,21,25,26,29,31,,0.9,0.6,0.7*39
$GNGSA,A,2,05,10,12,16,18,20,21,25,26,29,31,,0.9,0.6,0.7*27
$GNGSA,A,2,66,67,68,73,79,81,82,83,,,,,0.9,0.6,0.7*28
$GLGSV,3,1,09,73,25,314,34,66,24,047,29,82,46,004,23,80,42,247,24*66
$GLGSV,3,2,09,79,13,191,26,83,25,296,31,81,21,059,20,67,37,109,22*66
$GLGSV,3,3,09,68,12,163,31*57
$GPGSV,3,1,12,05,15,043,26,10,05,195,19,12,04,146,26,15,03,118,21*77
$GPGSV,3,2,12,16,09,320,33,18,36,175,29,20,53,084,28,21,65,279,22*7E
$GPGSV,3,3,12,25,37,156,26,26,36,312,29,29,51,054,25,31,22,248,33*70
$GPGGA,190905.0,3159.568335,N,03445.473721,E,1,11,0.6,16.4,M,19.0,M,,*67
$GPVTG,187.7,T,184.7,M,47.7,N,88.4,K,A*20
$GPRMC,190905.0,A,3159.568335,N,03445.473721,E,47.7,187.7,150416,3.0,E,A*3A
$GPGSA,A,2,05,10,12,16,18,20,21,25,26,29,31,,0.9,0.6,0.7*39
$GNGSA,A,2,05,10,12,16,18,20,21,25,26,29,31,,0.9,0.6,0.7*27
$GNGSA,A,2,66,67,68,73,79,81,82,83,,,,,0.9,0.6,0.7*28
$GLGSV,3,1,09,73,25,314,35,66,24,047,30,82,46,004,20,80,42,247,25*6D
$GLGSV,3,2,09,79,13,191,24,83,25,296,30,81,21,059,24,67,37,109,22*61
$GLGSV,3,3,09,68,12,163,31*57
$GPGSV,3,1,12,05,15,043,27,10,05,195,21,12,04,146,26,15,03,118,21*7D
$GPGSV,3,2,12,16,09,320,32,18,36,175,27,20,53,084,29,21,65,279,18*79
$GPGSV,3,3,12,25,37,156,25,26,36,312,29,29,51,054,25,31,22,248,31*71
$GPGGA,190906.0,3159.554527,N,03445.471716,E,1,11,0.6,17.0,M,19.0,M,,*6D
$GPVTG,187.6,T,184.7,M,47.9,N,88.8,K,A*23
$GPRMC,190906.0,A,3159.554527,N,03445.471716,E,47.9,187.6,150416,3.0,E,A*3A
$GPGSA,A,2,05,10,12,16,18,20,21,25,26,29,31,,0.9,0.6,0.7*39
$GNGSA,A,2,05,10,12,16,18,20,21,25,26,29,31,,0.9,0.6,0.7*27
$GNGSA,A,2,66,67,68,73,79,81,82,83,,,,,0.9,0.6,0.7*28
$GLGSV,3,1,09,73,25,314,34,66,24,047,29,82,46,004,26,80,42,247,21*66
$GLGSV,3,2,09,79,13,191,24,83,25,296,33,81,21,059,26,67,37,109,21*63
$GLGSV,3,3,09,68,12,163,29*5E
$GPGSV,3,1,12,05,15,043,28,10,05,195,21,12,04,146,21,15,03,118,21*75
$GPGSV,3,2,12,16,09,320,30,18,36,175,27,20,53,084,28,21,65,279,21*70
$GPGSV,3,3,12,25,37,156,28,26,36,312,30,29,51,054,26,31,22,248,33*75
$GPGGA,190907.0,3159.541257,N,03445.469625,E,1,11,0.6,17.2,M,19.0,M,,*62
$GPVTG,188.0,T,185.0,M,48.0,N,88.9,K,A*2B
$GPRMC,190907.0,A,3159.541257,N,03445.469625,E,48.0,188.0,150416,3.0,E,A*38
$GPGSA,A,2,05,10,12,16,18,20,21,25,26,29,31,,0.9,0.6,0.7*39
$GNGSA,A,2,05,10,12,16,18,20,21,25,26,29,31,,0.9,0.6,0.7*27
$GNGSA,A,2,66,67,68,73,79,81,82,83,,,,,0.9,0.6,0.7*28
$GLGSV,3,1,09,73,25,314,34,66,24,047,29,82,46,004,26,80,42,247,23*64
$GLGSV,3,2,09,79,13,191,20,83,25,296,31,81,21,059,29,67,37,109,21*6A
$GLGSV,3,3,09,68,12,163,26*51
$GPGSV,3,1,12,05,15,043,32,10,05,195,19,12,04,146,21,15,03,118,21*75
$GPGSV,3,2,12,16,09,320,31,18,36,175,29,20,53,084,28,21,65,279,20*7E
$GPGSV,3,3,12,25,37,156,29,26,36,312,31,29,51,054,24,31,22,248,32*76
$GPGGA,190908.0,3159.527729,N,03445.467327,E,1,11,0.6,17.4,M,19.0,M,,*6E
$GPVTG,188.5,T,185.5,M,48.2,N,89.2,K,A*23
$GPRMC,190908.0,A,3159.527729,N,03445.467327,E,48.2,188.5,150416,3.0,E,A*35
$GPGSA,A,2,05,10,12,16,18,20,21,25,26,29,31,,0.9,0.6,0.7*39
$GNGSA,A,2,05,10,12,16,18,20,21,25,26,29,31,,0.9,0.6,0.7*27
$GNGSA,A,2,66,67,68,73,79,81,82,83,,,,,0.9,0.6,0.7*28
$GLGSV,3,1,09,73,25,314,30,66,24,047,28,82,46,004,26,80,42,247,22*60
$GLGSV,3,2,09,79,13,191,24,83,25,296,28,81,21,059,28,67,37,109,20*66
$GLGSV,3,3,09,68,12,163,25*52
$GPGSV,3,1,12,05,15,043,33,10,05,195,25,12,04,146,21,15,03,118,18*71
$GPGSV,3,2,12,16,09,320,30,18,36,175,26,20,53,084,24,21,65,279,20*7C
$GPGSV,3,3,12,25,37,156,25,26,36,312,27,29,51,054,23,31,22,248,27*7E
$GPGGA,190909.0,3159.514596,N,03445.465456,E,1,11,0.6,18.0,M,19.0,M,,*61
$GPVTG,188.5,T,185.6,M,47.8,N,88.6,K,A*20
$GPRMC,190909.0,A,3159.514596,N,03445.465456,E,47.8,188.5,150416,3.0,E,A*34
$GPGSA,A,2,05,10,12,16,18,20,21,25,26,29,31,,0.9,0.6,0.7*39
$GNGSA,A,2,05,10,12,16,18,20,21,25,26,29,31,,0.9,0.6,0.7*27
$GNGSA,A,2,66,67,68,73,79,81,82,83,,,,,0.9,0.6,0.7*28
$GLGSV,3,1,09,73,25,314,32,66,24,047,29,82,46,004,26,80,42,247,22*63
$GLGSV,3,2,09,79,13,191,24,83,25,296,30,81,21,059,24,67,37,109,25*66
$GLGSV,3,3,09,68,12,163,27*50
$GPGSV,3,1,12,05,15,043,22,10,05,195,25,12,04,146,21,15,03,118,18*71
$GPGSV,3,2,12,16,09,320,27,18,36,175,29,20,53,084,27,21,65,279,20*76
$GPGSV,3,3,12,25,37,156,27,26,36,312,31,29,51,054,26,31,22,248,32*7A
$GPGGA,190910.0,3159.501395,N,03445.463623,E,1,11,0.6,19.0,M,19.0,M,,*6F
$GPVTG,188.8,T,185.8,M,48.6,N,89.9,K,A*2C
$GPRMC,190910.0,A,3159.501395,N,03445.463623,E,48.6,188.8,150416,3.0,E,A*37
$GPGSA,A,2,05,10,12,16,18,20,21,25,26,29,31,,0.9,0.6,0.7*39
$GNGSA,A,2,05,10,12,16,18,20,21,25,26,29,31,,0.9,0.6,0.7*27
$GNGSA,A,2,66,67,68,73,79,81,82,83,,,,,0.9,0.6,0.7*28
$GLGSV,3,1,09,73,25,314,34,66,24,047,32,82,46,004,27,80,42,247,27*6B
$GLGSV,3,2,09,79,13,191,25,83,25,296,30,81,21,059,28,67,37,109,26*68
$GLGSV,3,3,09,68,12,163,29*5E
$GPGSV,3,1,12,05,15,043,33,10,05,195,26,12,04,146,21,15,03,118,18*72
$GPGSV,3,2,12,16,09,320,30,18,36,175,28,20,53,084,28,21,65,279,18*75
$GPGSV,3,3,12,25,37,156,27,26,36,312,30,29,51,054,27,31,22,248,33*7B
$GPGGA,190911.0,3159.487339,N,03445.460907,E,1,11,0.6,19.9,M,19.0,M,,*64
$GPVTG,188.4,T,185.4,M,48.7,N,90.3,K,A*2F
$GPRMC,190911.0,A,3159.487339,N,03445.460907,E,48.7,188.4,150416,3.0,E,A*38
$GPGSA,A,2,05,10,12,16,18,20,21,25,26,29,31,,0.9,0.6,0.7*39
$GNGSA,A,2,05,10,12,16,18,20,21,25,26,29,31,,0.9,0.6,0.7*27
$GNGSA,A,2,66,67,68,73,79,81,82,83,,,,,0.9,0.6,0.7*28
$GLGSV,3,1,09,73,25,314,33,66,24,047,31,82,46,004,26,80,42,247,25*6C
$GLGSV,3,2,09,79,13,191,24,83,25,296,29,81,21,059,28,67,37,109,24*63
$GLGSV,3,3,09,68,12,163,28*5F
$GPGSV,3,1,12,05,15,043,32,10,05,195,23,12,04,146,23,15,03,118,18*74
$GPGSV,3,2,12,16,09,320,32,18,36,175,28,20,53,084,27,21,65,279,18*78
$GPGSV,3,3,12,25,37,156,23,26,36,312,30,29,51,054,27,31,22,248,32*7E
$GPGGA,190912.0,3159.473601,N,03445.458410,E,1,11,0.6,20.1,M,19.0,M,,*60
$GPVTG,188.3,T,185.4,M,48.8,N,90.4,K,A*20
$GPRMC,190912.0,A,3159.473601,N,03445.458410,E,48.8,188.3,150416,3.0,E,A*36
$GPGSA,A,2,05,10,12,16,18,20,21,25,26,29,31,,0.9,0.6,0.7*39
$GNGSA,A,2,05,10,12,16,18,20,21,25,26,29,31,,0.9,0.6,0.7*27
$GNGSA,A,2,66,67,68,73,79,81,82,83,,,,,0.9,0.6,0.7*28
$GLGSV,3,1,09,73,25,314,34,66,24,047,29,82,46,004,26,80,42,247,25*62
$GLGSV,3,2,09,79,13,191,23,83,25,296,29,81,21,059,27,67,37,109,25*6A
$GLGSV,3,3,09,68,12,163,29*5E
$GPGSV,3,1,12,05,15,043,30,10,05,195,21,12,04,146,21,15,03,118,18*76
$GPGSV,3,2,12,16,09,320,29,18,36,175,26,20,53,084,28,21,65,279,20*78
$GPGSV,3,3,12,25,37,156,25,26,36,312,30,29,51,054,27,31,22,248,32*78
$GPGGA,190913.0,3159.460273,N,03445.456174,E,1,11,0.6,20.8,M,19.0,M,,*62
$GPVTG,188.4,T,185.5,M,48.9,N,90.7,K,A*24
$GPRMC,190913.0,A,3159.460273,N,03445.456174,E,48.9,188.4,150416,3.0,E,A*3B
$GPGSA,A,2,05,10,12,16,18,20,21,25,26,29,31,,0.9,0.6,0.7*39
$GNGSA,A,2,05,10,12,16,18,20,21,25,26,29,31,,0.9,0.6,0.7*27
$GNGSA,A,2,66,67,68,73,79,81,82,83,,,,,0.9,0.6,0.7*28
$GLGSV,3,1,09,73,25,314,23,66,24,047,35,82,46,004,27,80,42,247,24*69
$GLGSV,3,2,09,79,13,191,21,83,25,296,31,81,21,059,30,67,37,109,25*67
$GLGSV,3,3,09,68,12,163,30*56
$GPGSV,4,1,13,04,,,32,05,15,043,31,10,05,195,28,12,04,146,31*4A
$GPGSV,4,2,13,15,03,118,18,16,09,320,27,18,36,175,29,20,53,084,21*7E
$GPGSV,4,3,13,21,65,279,29,25,37,156,22,26,36,312,31,29,51,054,33*77
$GPGSV,4,4,13,31,22,248,24*41
$GPGGA,190916.0,3159.419371,N,03445.448732,E,1,11,0.5,19.7,M,19.0,M,,*67
$GPVTG,188.6,T,185.6,M,49.3,N,91.3,K,A*2B
$GPRMC,190916.0,A,3159.419371,N,03445.448732,E,49.3,188.6,150416,3.0,E,A*31
$GPGSA,A,2,05,10,12,16,18,20,21,25,26,29,31,,0.9,0.5,0.7*3A
$GNGSA,A,2,05,10,12,16,18,20,21,25,26,29,31,,0.9,0.5,0.7*24
$GNGSA,A,2,66,67,68,73,79,81,82,83,,,,,0.9,0.5,0.7*2B
$GLGSV,3,1,09,73,25,314,25,66,24,047,35,82,46,004,20,80,42,247,22*6E
$GLGSV,3,2,09,79,13,191,21,83,25,296,27,81,21,059,30,67,37,109,24*61
$GLGSV,3,3,09,68,12,163,29*5E
$GPGSV,4,1,13,04,,,31,05,15,043,30,10,05,195,27,12,04,146,30*46
$GPGSV,4,2,13,15,03,118,18,16,09,320,24,18,36,175,24,20,53,084,24*75
$GPGSV,4,3,13,21,65,279,30,25,37,156,19,26,36,312,32,29,51,054,33*74
$GPGSV,4,4,13,31,22,248,23*46
$GPGGA,190917.0,3159.405956,N,03445.445994,E,1,11,0.5,21.0,M,19.0,M,,*67
$GPVTG,188.5,T,185.6,M,49.5,N,91.6,K,A*2B
$GPRMC,190917.0,A,3159.405956,N,03445.445994,E,49.5,188.5,150416,3.0,E,A*38
$GPGSA,A,2,05,10,12,16,18,20,21,25,26,29,31,,0.9,0.5,0.7*3A
$GNGSA,A,2,05,10,12,16,18,20,21,25,26,29,31,,0.9,0.5,0.7*24
$GNGSA,A,2,66,67,68,73,79,81,82,83,,,,,0.9,0.5,0.7*2B
$GLGSV,3,1,09,73,25,314,29,66,24,047,34,82,46,004,21,80,42,247,25*65
$GLGSV,3,2,09,79,13,191,19,83,25,296,21,81,21,059,32,67,37,109,21*6B
$GLGSV,3,3,09,68,12,163,29*5E
$GPGSV,4,1,13,04,,,30,05,15,043,33,10,05,195,25,12,04,146,30*46
$GPGSV,4,2,13,15,03,118,18,16,09,320,24,18,36,175,24,20,53,084,26*77
$GPGSV,4,3,13,21,65,279,31,25,37,156,21,26,36,312,33,29,51,054,34*78
$GPGSV,4,4,13,31,22,248,25*40
$GPGGA,190918.0,3159.392386,N,03445.443554,E,1,11,0.5,21.1,M,19.0,M,,*61
$GPVTG,188.8,T,185.9,M,49.4,N,91.5,K,A*2B
$GPRMC,190918.0,A,3159.392386,N,03445.443554,E,49.4,188.8,150416,3.0,E,A*33
$GPGSA,A,2,05,10,12,16,18,20,21,25,26,29,31,,0.9,0.5,0.7*3A
$GNGSA,A,2,05,10,12,16,18,20,21,25,26,29,31,,0.9,0.5,0.7*24
$GNGSA,A,2,66,67,68,73,79,81,82,83,,,,,0.9,0.5,0.7*2B
$GLGSV,3,1,09,73,25,314,26,66,24,047,36,82,46,004,25,80,42,247,26*6F
$GLGSV,3,2,09,79,13,191,19,83,25,296,23,81,21,059,33,67,37,109,21*68
$GLGSV,3,3,09,68,12,163,26*51
$GPGSV,4,1,13,04,,,30,05,15,043,32,10,05,195,26,12,04,146,31*45
$GPGSV,4,2,13,15,03,118,18,16,09,320,24,18,36,175,24,20,53,084,26*77
$GPGSV,4,3,13,21,65,279,31,25,37,156,21,26,36,312,33,29,51,054,35*79
$GPGSV,4,4,13,31,22,248,24*41
$GPGGA,190919.0,3159.378912,N,03445.441359,E,1,11,0.5,21.2,M,19.0,M,,*69
$GPVTG,188.8,T,185.8,M,49.5,N,91.7,K,A*29
$GPRMC,190919.0,A,3159.378912,N,03445.441359,E,49.5,188.8,150416,3.0,E,A*39
$GPGSA,A,2,05,10,12,16,18,20,21,25,26,29,31,,0.9,0.5,0.7*3A
$GNGSA,A,2,05,10,12,16,18,20,21,25,26,29,31,,0.9,0.5,0.7*24
$GNGSA,A,2,66,67,68,73,79,81,82,83,,,,,0.9,0.5,0.7*2B
$GLGSV,3,1,09,73,25,314,27,66,24,047,35,82,46,004,22,80,42,247,25*69
$GLGSV,3,2,09,79,13,191,21,83,25,296,30,81,21,059,30,67,37,109,25*66
$GLGSV,3,3,09,68,12,163,31*57
$GPGSV,4,1,13,04,,,31,05,15,043,31,10,05,195,27,12,04,146,31*46
$GPGSV,4,2,13,15,03,118,18,16,09,320,17,18,36,175,23,20,53,084,24*72
$GPGSV,4,3,13,21,65,279,31,25,37,156,22,26,36,312,34,29,51,054,35*7D
$GPGSV,4,4,13,31,22,248,26*43
$GPGGA,190920.0,3159.365467,N,03445.439071,E,1,11,0.5,21.5,M,19.0,M,,*61
$GPVTG,188.6,T,185.7,M,49.6,N,91.8,K,A*24
$GPRMC,190920.0,A,3159.365467,N,03445.439071,E,49.6,188.6,150416,3.0,E,A*3B
$GPGSA,A,2,05,10,12,16,18,20,21,25,26,29,31,,0.9,0.5,0.7*3A
$GNGSA,A,2,05,10,12,16,18,20,21,25,26,29,31,,0.9,0.5,0.7*24
$GNGSA,A,2,66,67,68,73,79,81,82,83,,,,,0.9,0.5,0.7*2B
$GLGSV,3,1,09,73,25,314,27,66,24,047,36,82,46,004,23,80,42,247,28*66
$GLGSV,3,2,09,79,13,191,26,83,25,296,32,81,21,059,32,67,37,109,26*62
$GLGSV,3,3,09,68,12,163,30*56
$GPGSV,4,1,13,04,,,31,05,15,043,32,10,05,195,31,12,04,146,32*41
$GPGSV,4,2,13,15,03,118,18,16,09,320,24,18,36,175,26,20,53,084,22*71
$GPGSV,4,3,13,21,65,279,32,25,37,156,25,26,36,312,35,29,51,054,36*7B
$GPGSV,4,4,13,31,22,248,29*4C
$GPGGA,190921.0,3159.352052,N,03445.436728,E,1,11,0.5,21.0,M,19.0,M,,*67
$GPVTG,188.4,T,185.4,M,49.6,N,91.9,K,A*24
$GPRMC,190921.0,A,3159.352052,N,03445.436728,E,49.6,188.4,150416,3.0,E,A*3A
$GPGSA,A,2,05,10,12,16,18,20,21,25,26,29,31,,0.9,0.5,0.7*3A
$GNGSA,A,2,05,10,12,16,18,20,21,25,26,29,31,,0.9,0.5,0.7*24
$GNGSA,A,2,66,67,68,73,79,81,82,83,,,,,0.9,0.5,0.7*2B
$GLGSV,3,1,09,73,25,314,33,66,24,047,34,82,46,004,24,80,42,247,23*6D
$GLGSV,3,2,09,79,13,191,20,83,25,296,32,81,21,059,29,67,37,109,27*6F
$GLGSV,3,3,09,68,12,163,31*57
$GPGSV,4,1,13,04,,,29,05,15,043,32,10,05,195,28,12,04,146,31*43
$GPGSV,4,2,13,15,03,118,18,16,09,320,27,18,36,175,24,20,53,084,27*75
$GPGSV,4,3,13,21,65,279,29,25,37,156,27,26,36,312,35,29,51,054,34*71
$GPGSV,4,4,13,31,22,248,31*45
$GPGGA,190922.0,3159.338506,N,03445.434448,E,1,11,0.5,21.6,M,19.0,M,,*6D
$GPVTG,188.2,T,185.2,M,49.6,N,91.9,K,A*24
$GPRMC,190922.0,A,3159.338506,N,03445.434448,E,49.6,188.2,150416,3.0,E,A*30
$GPGSA,A,2,05,10,12,16,18,20,21,25,26,29,31,,0.9,0.5,0.7*3A
$GNGSA,A,2,05,10,12,16,18,20,21,25,26,29,31,,0.9,0.5,0.7*24
$GNGSA,A,2,66,67,68,73,79,81,82,83,,,,,0.9,0.5,0.7*2B
$GLGSV,3,1,09,73,25,314,32,66,24,047,31,82,46,004,29,80,42,247,24*63
$GLGSV,3,2,09,79,13,191,22,83,25,296,35,81,21,059,26,67,37,109,34*67
$GLGSV,3,3,09,68,12,163,31*57
$GPGSV,4,1,13,04,,,30,05,15,043,34,10,05,195,28,12,04,146,30*4C
$GPGSV,4,2,13,15,03,118,29,16,09,320,28,18,36,175,21,20,53,084,28*72
$GPGSV,4,3,13,21,65,279,24,25,37,156,35,26,36,312,34,29,51,054,23*78
$GPGSV,4,4,13,31,22,248,25*40
$GPGGA,190923.0,3159.324878,N,03445.432235,E,1,12,0.5,21.0,M,19.0,M,,*6A
$GPVTG,188.1,T,185.1,M,49.7,N,92.1,K,A*2E
$GPRMC,190923.0,A,3159.324878,N,03445.432235,E,49.7,188.1,150416,3.0,E,A*30
$GPGSA,A,2,05,10,12,15,16,18,20,21,25,26,29,31,0.9,0.5,0.7*3E
$GNGSA,A,2,05,10,12,15,16,18,20,21,25,26,29,31,0.9,0.5,0.7*20
$GNGSA,A,2,66,67,68,73,79,81,82,83,,,,,0.9,0.5,0.7*2B
$GLGSV,3,1,09,73,25,314,28,66,24,047,30,82,46,004,31,80,42,247,24*60
$GLGSV,3,2,09,79,13,191,22,83,25,296,36,81,21,059,27,67,37,109,33*62
$GLGSV,3,3,09,68,12,163,30*56
$GPGSV,4,1,13,04,,,29,05,15,043,33,10,05,195,20,12,04,146,27*4D
$GPGSV,4,2,13,15,03,118,24,16,09,320,26,18,36,175,21,20,53,084,28*71
$GPGSV,4,3,13,21,65,279,24,25,37,156,34,26,36,312,33,29,51,054,21*7C
$GPGSV,4,4,13,31,22,248,25*40
$GPGGA,190924.0,3159.311299,N,03445.429862,E,1,12,0.5,20.8,M,19.0,M,,*65
$GPVTG,187.8,T,184.9,M,49.8,N,92.2,K,A*2D
$GPRMC,190924.0,A,3159.311299,N,03445.429862,E,49.8,187.8,150416,3.0,E,A*3F
$GPGSA,A,2,05,10,12,15,16,18,20,21,25,26,29,31,0.9,0.5,0.7*3E
$GNGSA,A,2,05,10,12,15,16,18,20,21,25,26,29,31,0.9,0.5,0.7*20
$GNGSA,A,2,66,67,68,73,79,81,82,83,,,,,0.9,0.5,0.7*2B
$GLGSV,3,1,09,73,25,314,26,66,24,047,29,82,46,004,31,80,42,247,23*61
$GLGSV,3,2,09,79,13,191,20,83,25,296,31,81,21,059,25,67,37,109,30*66
$GLGSV,3,3,09,68,12,163,20*57
$GPGSV,4,1,13,04,,,24,05,15,043,30,10,05,195,20,12,04,146,27*43
$GPGSV,4,2,13,15,03,118,24,16,09,320,22,18,36,175,21,20,53,084,22*7F
$GPGSV,4,3,13,21,65,279,27,25,37,156,33,26,36,312,31,29,51,054,21*7A
$GPGSV,4,4,13,31,22,248,24*41
$GPGGA,190925.0,3159.297514,N,03445.427469,E,1,12,0.5,20.8,M,19.0,M,,*60
$GPVTG,188.0,T,185.1,M,50.0,N,92.6,K,A*27
$GPRMC,190925.0,A,3159.297514,N,03445.427469,E,50.0,188.0,150416,3.0,E,A*3D
$GPGSA,A,2,05,10,12,15,16,18,20,21,25,26,29,31,0.9,0.5,0.7*3E
$GNGSA,A,2,05,10,12,15,16,18,20,21,25,26,29,31,0.9,0.5,0.7*20
$GNGSA,A,2,66,67,68,73,79,81,82,83,,,,,0.9,0.5,0.7*2B
$GLGSV,3,1,09,73,25,314,25,66,24,047,30,82,46,004,30,80,42,247,21*69
$GLGSV,3,2,09,79,13,191,20,83,25,296,32,81,21,059,26,67,37,109,31*67
$GLGSV,3,3,09,68,12,163,21*56
$GPGSV,4,1,13,04,,,27,05,15,043,26,10,05,195,20,12,04,146,27*47
$GPGSV,4,2,13,15,03,118,24,16,09,320,22,18,36,175,19,20,53,084,22*74
$GPGSV,4,3,13,21,65,279,27,25,37,156,33,26,36,312,29,29,51,054,21*73
$GPGSV,4,4,13,31,22,248,25*40
$GPGGA,190926.0,3159.283797,N,03445.425651,E,1,12,0.5,20.5,M,19.0,M,,*69
$GPVTG,187.5,T,184.5,M,50.0,N,92.6,K,A*28
$GPRMC,190926.0,A,3159.283797,N,03445.425651,E,50.0,187.5,150416,3.0,E,A*33
$GPGSA,A,2,05,10,12,15,16,18,20,21,25,26,29,31,0.9,0.5,0.7*3E
$GNGSA,A,2,05,10,12,15,16,18,20,21,25,26,29,31,0.9,0.5,0.7*20
$GNGSA,A,2,66,67,68,73,79,81,82,83,,,,,0.9,0.5,0.7*2B
$GLGSV,3,1,09,73,25,314,30,66,24,047,31,82,46,004,28,80,42,247,21*65
$GLGSV,3,2,09,79,13,191,20,83,25,296,30,81,21,059,21,67,37,109,25*67
$GLGSV,3,3,09,68,12,163,22*55
$GPGSV,4,1,13,04,,,27,05,15,043,25,10,05,195,20,12,04,146,27*44
$GPGSV,4,2,13,15,03,118,24,16,09,320,23,18,36,175,19,20,53,084,20*77
$GPGSV,4,3,13,21,65,279,27,25,37,156,29,26,36,312,30,29,51,054,18*7A
$GPGSV,4,4,13,31,22,248,28*4D
$GPGGA,190927.0,3159.269833,N,03445.423789,E,1,12,0.5,21.2,M,19.0,M,,*69
$GPVTG,187.5,T,184.5,M,49.9,N,92.5,K,A*2A
$GPRMC,190927.0,A,3159.269833,N,03445.423789,E,49.9,187.5,150416,3.0,E,A*34
$GPGSA,A,2,05,10,12,15,16,18,20,21,25,26,29,31,0.9,0.5,0.7*3E
$GNGSA,A,2,05,10,12,15,16,18,20,21,25,26,29,31,0.9,0.5,0.7*20
$GNGSA,A,2,66,67,68,73,79,81,82,83,,,,,0.9,0.5,0.7*2B
$GLGSV,3,1,09,73,25,314,33,66,24,047,27,82,46,004,24,80,42,247,21*6D
$GLGSV,3,2,09,79,13,191,16,83,25,296,31,81,21,059,21,67,37,109,25*63
$GLGSV,3,3,09,68,12,163,22*55
$GPGSV,4,1,13,04,,,29,05,15,043,25,10,05,195,17,12,04,146,27*4E
$GPGSV,4,2,13,15,03,118,24,16,09,320,29,18,36,175,20,20,53,084,26*71
$GPGSV,4,3,13,21,65,279,24,25,37,156,25,26,36,312,31,29,51,054,24*7B
$GPGSV,4,4,13,31,22,248,26*43
$GPGGA,190928.0,3159.256332,N,03445.421774,E,1,12,0.5,21.3,M,19.0,M,,*61
$GPVTG,187.8,T,184.8,M,48.4,N,89.6,K,A*2F
$GPRMC,190928.0,A,3159.256332,N,03445.421774,E,48.4,187.8,150416,3.0,E,A*3C
$GPGSA,A,2,05,10,12,15,16,18,20,21,25,26,29,31,0.9,0.5,0.7*3E
$GNGSA,A,2,05,10,12,15,16,18,20,21,25,26,29,31,0.9,0.5,0.7*20
$GNGSA,A,2,66,67,68,73,79,81,82,83,,,,,0.9,0.5,0.7*2B
$GLGSV,3,1,09,73,25,314,28,66,24,047,20,82,46,004,24,80,42,247,21*60
$GLGSV,3,2,09,79,13,191,21,83,25,296,19,81,21,059,21,67,37,109,25*6D
$GLGSV,3,3,09,68,12,163,22*55
$GPGSV,4,1,13,04,,,29,05,15,043,20,10,05,195,22,12,04,146,27*4D
$GPGSV,4,2,13,15,03,118,24,16,09,320,25,18,36,175,20,20,53,084,26*7D
$GPGSV,4,3,13,21,65,279,24,25,37,156,25,26,36,312,22,29,51,054,24*79
$GPGSV,4,4,13,31,22,248,26*43
$GPGGA,190929.0,3159.242629,N,03445.418830,E,1,12,0.5,20.8,M,19.0,M,,*65
$GPVTG,189.6,T,186.6,M,49.8,N,92.2,K,A*20
$GPRMC,190929.0,A,3159.242629,N,03445.418830,E,49.8,189.6,150416,3.0,E,A*3F
$GPGSA,A,2,05,10,12,15,16,18,20,21,25,26,29,31,0.9,0.5,0.7*3E
$GNGSA,A,2,05,10,12,15,16,18,20,21,25,26,29,31,0.9,0.5,0.7*20
$GNGSA,A,2,66,67,68,73,79,81,82,83,,,,,0.9,0.5,0.7*2B
$GLGSV,3,1,09,73,25,314,20,66,24,047,20,82,46,004,24,80,42,247,21*68
$GLGSV,3,2,09,79,13,191,25,83,25,296,28,81,21,059,21,67,37,109,18*65
$GLGSV,3,3,09,68,12,163,23*54
$GPGSV,4,1,13,04,,,29,05,15,043,20,10,05,195,23,12,04,146,16*4E
$GPGSV,4,2,13,15,03,118,24,16,09,320,25,18,36,175,19,20,53,084,26*77
$GPGSV,4,3,13,21,65,279,24,25,37,156,25,26,36,312,22,29,51,054,24*79
$GPGSV,4,4,13,31,22,248,21*44
$GPGGA,190930.0,3159.229070,N,03445.416587,E,1,11,0.5,20.9,M,19.0,M,,*67
$GPVTG,189.2,T,186.2,M,49.2,N,91.2,K,A*29
$GPRMC,190930.0,A,3159.229070,N,03445.416587,E,49.2,189.2,150416,3.0,E,A*31
$GPGSA,A,2,05,10,12,16,18,20,21,25,26,29,31,,0.9,0.5,0.7*3A
$GNGSA,A,2,05,10,12,16,18,20,21,25,26,29,31,,0.9,0.5,0.7*24
$GNGSA,A,2,66,67,68,73,79,81,82,83,,,,,0.9,0.5,0.7*2B
$GLGSV,3,1,09,73,25,314,32,66,24,047,22,82,46,004,24,80,42,247,18*63
$GLGSV,3,2,09,79,13,191,30,83,25,296,32,81,21,059,21,67,37,109,30*60
$GLGSV,3,3,09,68,12,163,30*56
$GPGSV,4,1,13,04,,,25,05,15,043,20,10,05,195,23,12,04,146,30*46
$GPGSV,4,2,13,15,03,118,24,16,09,320,27,18,36,175,32,20,53,084,24*7E
$GPGSV,4,3,13,21,65,279,22,25,37,156,33,26,36,312,30,29,51,054,24*7B
$GPGSV,4,4,13,31,22,248,26*43
$GPGGA,190931.0,3159.214359,N,03445.413839,E,1,11,0.5,21.1,M,19.0,M,,*64
$GPVTG,188.2,T,185.3,M,51.3,N,95.0,K,A*24
$GPRMC,190931.0,A,3159.214359,N,03445.413839,E,51.3,188.2,150416,3.0,E,A*32
$GPGSA,A,2,05,10,12,16,18,20,21,25,26,29,31,,0.9,0.5,0.7*3A
$GNGSA,A,2,05,10,12,16,18,20,21,25,26,29,31,,0.9,0.5,0.7*24
$GNGSA,A,2,66,67,68,73,79,81,82,83,,,,,0.9,0.5,0.7*2B
$GLGSV,3,1,09,73,25,314,32,66,24,047,30,82,46,004,27,80,42,247,26*6E
$GLGSV,3,2,09,79,13,191,30,83,25,296,31,81,21,059,19,67,37,109,32*6A
$GLGSV,3,3,09,68,12,163,23*54
$GPGSV,4,1,13,04,,,31,05,15,043,27,10,05,195,23,12,04,146,29*4C
$GPGSV,4,2,13,15,03,118,24,16,09,320,35,18,36,175,32,20,53,084,30*78
$GPGSV,4,3,13,21,65,279,22,25,37,156,32,26,36,312,29,29,51,054,31*76
$GPGSV,4,4,13,31,22,248,32*46
$GPGGA,190932.0,3159.200355,N,03445.411655,E,1,11,0.5,20.9,M,19.0,M,,*61
$GPVTG,187.8,T,184.8,M,51.0,N,94.4,K,A*2D
$GPRMC,190932.0,A,3159.200355,N,03445.411655,E,51.0,187.8,150416,3.0,E,A*38
$GPGSA,A,2,05,10,12,16,18,20,21,25,26,29,31,,0.9,0.5,0.7*3A
$GNGSA,A,2,05,10,12,16,18,20,21,25,26,29,31,,0.9,0.5,0.7*24
$GNGSA,A,2,66,67,68,73,79,81,82,83,,,,,0.9,0.5,0.7*2B
$GLGSV,3,1,09,73,25,314,32,66,24,047,29,82,46,004,27,80,42,247,22*62
$GLGSV,3,2,09,79,13,191,27,83,25,296,31,81,21,059,24,67,37,109,31*61
$GLGSV,3,3,09,68,12,163,25*52
$GPGSV,4,1,13,04,,,29,05,15,043,31,10,05,195,23,12,04,146,31*4B
$GPGSV,4,2,13,15,03,118,15,16,09,320,34,18,36,175,29,20,53,084,30*71
$GPGSV,4,3,13,21,65,279,20,25,37,156,31,26,36,312,29,29,51,054,28*7F
$GPGSV,4,4,13,31,22,248,30*44
$GPGGA,190933.0,3159.186040,N,03445.409592,E,1,12,0.5,21.1,M,19.0,M,,*61
$GPVTG,187.9,T,184.9,M,51.3,N,94.9,K,A*23
$GPRMC,190933.0,A,3159.186040,N,03445.409592,E,51.3,187.9,150416,3.0,E,A*30
$GPGSA,A,2,05,10,12,15,16,18,20,21,25,26,29,31,0.9,0.5,0.7*3E
$GNGSA,A,2,05,10,12,15,16,18,20,21,25,26,29,31,0.9,0.5,0.7*20
$GNGSA,A,2,66,67,68,73,79,81,82,83,,,,,0.9,0.5,0.7*2B
$GLGSV,3,1,09,73,25,314,32,66,24,047,28,82,46,004,28,80,42,247,23*6D
$GLGSV,3,2,09,79,13,191,28,83,25,296,32,81,21,059,28,67,37,109,31*61
$GLGSV,3,3,09,68,12,163,27*50
$GPGSV,4,1,13,04,,,30,05,15,043,30,10,05,195,21,12,04,146,31*40
$GPGSV,4,2,13,15,03,118,24,16,09,320,34,18,36,175,32,20,53,084,30*79
$GPGSV,4,3,13,21,65,279,23,25,37,156,32,26,36,312,32,29,51,054,31*7D
$GPGSV,4,4,13,31,22,248,29*4C
$GPGGA,190934.0,3159.171475,N,03445.407031,E,1,12,0.5,21.6,M,19.0,M,,*69
$GPVTG,187.8,T,184.9,M,51.5,N,95.5,K,A*29
$GPRMC,190934.0,A,3159.171475,N,03445.407031,E,51.5,187.8,150416,3.0,E,A*38
$GPGSA,A,2,05,10,12,15,16,18,20,21,25,26,29,31,0.9,0.5,0.7*3E
$GNGSA,A,2,05,10,12,15,16,18,20,21,25,26,29,31,0.9,0.5,0.7*20
$GNGSA,A,2,66,67,68,73,79,81,82,83,,,,,0.9,0.5,0.7*2B
$GLGSV,3,1,09,73,25,314,33,66,24,047,29,82,46,004,26,80,42,247,25*65
$GLGSV,3,2,09,79,13,191,28,83,25,296,28,81,21,059,24,67,37,109,31*66
$GLGSV,3,3,09,68,12,163,24*53
$GPGSV,4,1,13,04,,,27,05,15,043,30,10,05,195,21,12,04,146,28*4E
$GPGSV,4,2,13,15,03,118,21,16,09,320,33,18,36,175,31,20,53,084,28*71
$GPGSV,4,3,13,21,65,279,20,25,37,156,28,26,36,312,31,29,51,054,29*7F
$GPGSV,4,4,13,31,22,248,28*4D
$GPGGA,190935.0,3159.156990,N,03445.404945,E,1,12,0.5,20.5,M,19.0,M,,*60
$GPVTG,187.8,T,184.8,M,51.8,N,96.0,K,A*23
$GPRMC,190935.0,A,3159.156990,N,03445.404945,E,51.8,187.8,150416,3.0,E,A*3E
$GPGSA,A,2,05,10,12,15,16,18,20,21,25,26,29,31,0.9,0.5,0.7*3E
$GNGSA,A,2,05,10,12,15,16,18,20,21,25,26,29,31,0.9,0.5,0.7*20
$GNGSA,A,2,66,67,68,73,79,81,82,83,,,,,0.9,0.5,0.7*2B
$GLGSV,3,1,09,73,25,314,32,66,24,047,28,82,46,004,26,80,42,247,22*62
$GLGSV,3,2,09,79,13,191,27,83,25,296,29,81,21,059,24,67,37,109,30*69
$GLGSV,3,3,09,68,12,163,25*52
$GPGSV,4,1,13,04,,,27,05,15,043,29,10,05,195,21,12,04,146,29*47
$GPGSV,4,2,13,15,03,118,21,16,09,320,32,18,36,175,30,20,53,084,29*70
$GPGSV,4,3,13,21,65,279,21,25,37,156,26,26,36,312,31,29,51,054,27*7E
$GPGSV,4,4,13,31,22,248,28*4D
$GPGGA,190936.0,3159.142313,N,03445.402887,E,1,12,0.5,19.3,M,19.0,M,,*62
$GPVTG,187.4,T,184.4,M,52.1,N,96.5,K,A*2C
$GPRMC,190936.0,A,3159.142313,N,03445.402887,E,52.1,187.4,150416,3.0,E,A*36
$GPGSA,A,2,05,10,12,15,16,18,20,21,25,26,29,31,0.9,0.5,0.7*3E
$GNGSA,A,2,05,10,12,15,16,18,20,21,25,26,29,31,0.9,0.5,0.7*20
$GNGSA,A,2,66,67,68,73,79,81,82,83,,,,,0.9,0.5,0.7*2B
$GLGSV,3,1,09,73,25,314,31,66,24,047,29,82,46,004,29,80,42,247,27*6A
$GLGSV,3,2,09,79,13,191,28,83,25,296,30,81,21,059,20,67,37,109,31*6B
$GLGSV,3,3,09,68,12,163,23*54
$GPGSV,4,1,13,04,,,32,05,15,043,29,10,05,195,21,12,04,146,30*4B
$GPGSV,4,2,13,15,03,118,21,16,09,320,35,18,36,175,32,20,53,084,29*75
$GPGSV,4,3,13,21,65,279,22,25,37,156,30,26,36,312,30,29,51,054,28*74
$GPGSV,4,4,13,31,22,248,31*45
$GPGGA,190937.0,3159.127628,N,03445.400862,E,1,12,0.5,19.7,M,19.0,M,,*60
$GPVTG,187.5,T,184.6,M,52.5,N,97.1,K,A*2E
$GPRMC,190937.0,A,3159.127628,N,03445.400862,E,52.5,187.5,150416,3.0,E,A*35
$GPGSA,A,2,05,10,12,15,16,18,20,21,25,26,29,31,0.9,0.5,0.7*3E
$GNGSA,A,2,05,10,12,15,16,18,20,21,25,26,29,31,0.9,0.5,0.7*20
$GNGSA,A,2,66,67,68,73,79,81,82,83,,,,,0.9,0.5,0.7*2B
$GLGSV,3,1,09,73,25,314,32,66,24,047,29,82,46,004,28,80,42,247,24*6B
$GLGSV,3,2,09,79,13,191,29,83,25,296,31,81,21,059,22,67,37,109,30*68
$GLGSV,3,3,09,68,12,163,25*52
$GPGSV,4,1,13,04,,,32,05,15,043,32,10,05,195,17,12,04,146,27*42
$GPGSV,4,2,13,15,03,118,21,16,09,320,30,18,36,175,33,20,53,084,30*79
$GPGSV,4,3,13,21,65,279,25,25,37,156,28,26,36,312,30,29,51,054,27*75
$GPGSV,4,4,13,31,22,248,30*44
$GPGGA,190938.0,3159.113004,N,03445.398175,E,1,12,0.5,20.2,M,19.0,M,,*66
$GPVTG,187.5,T,184.5,M,52.7,N,97.5,K,A*2B
$GPRMC,190938.0,A,3159.113004,N,03445.398175,E,52.7,187.5,150416,3.0,E,A*3E
$GPGSA,A,2,05,10,12,15,16,18,20,21,25,26,29,31,0.9,0.5,0.7*3E
$GNGSA,A,2,05,10,12,15,16,18,20,21,25,26,29,31,0.9,0.5,0.7*20
$GNGSA,A,2,66,67,68,73,79,81,82,83,,,,,0.9,0.5,0.7*2B
$GLGSV,3,1,09,73,25,314,32,66,24,047,30,82,46,004,29,80,42,247,27*61
$GLGSV,3,2,09,79,13,191,30,83,25,296,33,81,21,059,21,67,37,109,31*60
$GLGSV,3,3,09,68,12,163,26*51
$GPGSV,4,1,13,04,,,33,05,15,043,30,10,05,195,22,12,04,146,30*41
$GPGSV,4,2,13,15,03,118,21,16,09,320,31,18,36,175,33,20,53,084,31*79
$GPGSV,4,3,13,21,65,279,23,25,37,156,29,26,36,312,30,29,51,054,28*7D
$GPGSV,4,4,13,31,22,248,32*46
$GPGGA,190939.0,3159.098634,N,03445.396644,E,1,12,0.5,19.7,M,19.0,M,,*64
$GPVTG,187.2,T,184.3,M,52.9,N,98.0,K,A*2E
$GPRMC,190939.0,A,3159.098634,N,03445.396644,E,52.9,187.2,150416,3.0,E,A*3A
$GPGSA,A,2,05,10,12,15,16,18,20,21,25,26,29,31,0.9,0.5,0.7*3E
$GNGSA,A,2,05,10,12,15,16,18,20,21,25,26,29,31,0.9,0.5,0.7*20
$GNGSA,A,2,66,67,68,73,79,81,82,83,,,,,0.9,0.5,0.7*2B
$GLGSV,3,1,09,73,25,314,33,66,24,047,29,82,46,004,28,80,42,247,25*6B
$GLGSV,3,2,09,79,13,191,28,83,25,296,33,81,21,059,23,67,37,109,31*6B
$GLGSV,3,3,09,68,12,163,27*50
$GPGSV,4,1,13,04,,,29,05,15,043,28,10,05,195,22,12,04,146,29*4B
$GPGSV,4,2,13,15,03,118,21,16,09,320,28,18,36,175,32,20,53,084,30*71
$GPGSV,4,3,13,21,65,279,22,25,37,156,29,26,36,312,31,29,51,054,28*7D
$GPGSV,4,4,13,31,22,248,29*4C
$GPGGA,190940.0,3159.084063,N,03445.394261,E,1,12,0.5,20.6,M,19.0,M,,*69
$GPVTG,187.4,T,184.4,M,53.0,N,98.1,K,A*26
$GPRMC,190940.0,A,3159.084063,N,03445.394261,E,53.0,187.4,150416,3.0,E,A*32
$GPGSA,A,2,05,10,12,15,16,18,20,21,25,26,29,31,0.9,0.5,0.7*3E
$GNGSA,A,2,05,10,12,15,16,18,20,21,25,26,29,31,0.9,0.5,0.7*20
$GNGSA,A,2,66,67,68,73,79,81,82,83,,,,,0.9,0.5,0.7*2B
$GLGSV,3,1,09,73,25,314,34,66,24,047,31,82,46,005,29,80,42,247,23*63
$GLGSV,3,2,09,79,13,191,29,83,25,296,35,81,20,060,25,67,37,109,31*61
$GLGSV,3,3,09,68,12,163,29*5E
$GPGSV,4,1,13,04,,,29,05,15,043,29,10,05,195,20,12,04,146,30*40
$GPGSV,4,2,13,15,03,118,21,16,09,320,23,18,36,175,31,20,53,084,31*78
$GPGSV,4,3,13,21,65,279,19,25,37,156,30,26,36,312,34,29,51,054,31*70
$GPGSV,4,4,13,31,22,248,26*43
$GPGGA,190941.0,3159.069598,N,03445.392217,E,1,11,0.5,20.3,M,19.0,M,,*6B
$GPVTG,187.6,T,184.6,M,53.1,N,98.4,K,A*22
$GPRMC,190941.0,A,3159.069598,N,03445.392217,E,53.1,187.6,150416,3.0,E,A*35
$GPGSA,A,2,05,10,12,16,18,20,21,25,26,29,31,,0.9,0.5,0.7*3A
$GNGSA,A,2,05,10,12,16,18,20,21,25,26,29,31,,0.9,0.5,0.7*24
$GNGSA,A,2,66,67,68,73,79,81,82,83,,,,,0.9,0.5,0.7*2B
$GLGSV,3,1,09,73,25,314,33,66,24,047,30,82,46,005,27,80,42,247,19*62
$GLGSV,3,2,09,79,13,191,28,83,25,296,33,81,20,060,21,67,37,109,30*63
$GLGSV,3,3,09,68,12,163,27*50
$GPGSV,4,1,13,04,,,31,05,15,043,31,10,05,195,20,12,04,146,29*48
$GPGSV,4,2,13,15,03,118,21,16,09,320,22,18,36,175,32,20,53,084,31*7A
$GPGSV,4,3,13,21,65,279,23,25,37,156,30,26,36,312,33,29,51,054,29*77
$GPGSV,4,4,13,31,22,248,28*4D
$GPGGA,190942.0,3159.054935,N,03445.389850,E,1,11,0.5,19.8,M,19.0,M,,*6F
$GPVTG,187.7,T,184.7,M,53.4,N,98.9,K,A*2A
$GPRMC,190942.0,A,3159.054935,N,03445.389850,E,53.4,187.7,150416,3.0,E,A*34
$GPGSA,A,2,05,10,12,16,18,20,21,25,26,29,31,,0.9,0.5,0.7*3A
$GNGSA,A,2,05,10,12,16,18,20,21,25,26,29,31,,0.9,0.5,0.7*24
$GNGSA,A,2,66,67,68,73,79,81,82,83,,,,,0.9,0.5,0.7*2B
$GLGSV,3,1,09,73,25,314,33,66,24,047,29,82,46,005,32,80,42,247,25*61
$GLGSV,3,2,09,79,13,191,29,83,25,296,35,81,20,060,23,67,37,109,32*64
$GLGSV,3,3,09,68,12,163,28*5F
$GPGSV,4,1,13,04,,,32,05,15,043,26,10,05,195,22,12,04,146,32*45
$GPGSV,4,2,13,15,03,118,21,16,09,320,27,18,36,175,31,20,53,084,31*7C
$GPGSV,4,3,13,21,65,279,25,25,37,156,33,26,36,312,34,29,51,054,26*7A
$GPGSV,4,4,13,31,22,248,31*45
$GPGGA,190943.0,3159.040171,N,03445.387872,E,1,11,0.5,18.9,M,19.0,M,,*6D
$GPVTG,187.4,T,184.4,M,53.5,N,99.0,K,A*23
$GPRMC,190943.0,A,3159.040171,N,03445.387872,E,53.5,187.4,150416,3.0,E,A*34
$GPGSA,A,2,05,10,12,16,18,20,21,25,26,29,31,,0.9,0.5,0.7*3A
$GNGSA,A,2,05,10,12,16,18,20,21,25,26,29,31,,0.9,0.5,0.7*24
$GNGSA,A,2,66,67,68,73,79,81,82,83,,,,,0.9,0.5,0.7*2B
$GLGSV,3,1,09,73,25,314,32,66,24,047,28,82,46,005,28,80,42,247,23*6C
$GLGSV,3,2,09,79,13,191,28,83,25,296,31,81,20,060,23,67,37,109,29*6B
$GLGSV,3,3,09,68,12,163,26*51
$GPGSV,4,1,13,04,,,28,05,15,043,29,10,05,195,20,12,04,146,30*41
$GPGSV,4,2,13,15,03,118,21,16,09,320,30,18,36,175,30,20,53,084,29*72
$GPGSV,4,3,13,21,65,279,25,25,37,156,27,26,36,312,31,29,51,054,26*7A
$GPGSV,4,4,13,31,22,248,30*44
$GPGGA,190944.0,3159.025322,N,03445.385487,E,1,11,0.5,19.3,M,19.0,M,,*62
$GPVTG,187.6,T,184.6,M,53.5,N,99.0,K,A*23
$GPRMC,190944.0,A,3159.025322,N,03445.385487,E,53.5,187.6,150416,3.0,E,A*32
$GPGSA,A,2,05,10,12,16,18,20,21,25,26,29,31,,0.9,0.5,0.7*3A
$GNGSA,A,2,05,10,12,16,18,20,21,25,26,29,31,,0.9,0.5,0.7*24
$GNGSA,A,2,66,67,68,73,79,81,82,83,,,,,0.9,0.5,0.7*2B
$GLGSV,3,1,09,73,25,314,34,66,24,047,29,82,46,005,28,80,42,247,22*6A
$GLGSV,3,2,09,79,13,191,27,83,25,296,31,81,20,060,20,67,37,109,30*6F
$GLGSV,3,3,09,68,12,163,28*5F
$GPGSV,4,1,13,04,,,30,05,15,043,32,10,05,195,20,12,04,146,29*4A
$GPGSV,4,2,13,15,03,118,21,16,09,320,34,18,36,175,32,20,53,084,31*7D
$GPGSV,4,3,13,21,65,279,25,25,37,156,27,26,36,312,33,29,51,054,30*7F
$GPGSV,4,4,13,31,22,248,32*46
$GPGGA,190945.0,3159.010400,N,03445.383056,E,1,11,0.5,19.2,M,19.0,M,,*6D
$GPVTG,187.4,T,184.5,M,53.5,N,99.0,K,A*22
$GPRMC,190945.0,A,3159.010400,N,03445.383056,E,53.5,187.4,150416,3.0,E,A*3E
$GPGSA,A,2,05,10,12,16,18,20,21,25,26,29,31,,0.9,0.5,0.7*3A
$GNGSA,A,2,05,10,12,16,18,20,21,25,26,29,31,,0.9,0.5,0.7*24
$GNGSA,A,2,66,67,68,73,79,81,82,83,,,,,0.9,0.5,0.7*2B
$GLGSV,3,1,09,73,25,314,33,66,24,047,30,82,46,005,28,80,42,247,24*63
$GLGSV,3,2,09,79,13,191,29,83,25,296,30,81,20,060,19,67,37,109,30*6A
$GLGSV,3,3,09,68,12,163,29*5E
$GPGSV,4,1,13,04,,,28,05,15,043,30,10,05,195,20,12,04,146,30*49
$GPGSV,4,2,13,15,03,118,21,16,09,320,35,18,36,175,32,20,53,084,31*7C
$GPGSV,4,3,13,21,65,279,25,25,37,156,23,26,36,312,31,29,51,054,28*70
$GPGSV,4,4,13,31,22,248,32*46
$GPGGA,190946.0,3158.995694,N,03445.380996,E,1,11,0.5,18.8,M,19.0,M,,*69
$GPVTG,187.3,T,184.3,M,53.2,N,98.4,K,A*21
$GPRMC,190946.0,A,3158.995694,N,03445.380996,E,53.2,187.3,150416,3.0,E,A*31
$GPGSA,A,2,05,10,12,16,18,20,21,25,26,29,31,,0.9,0.5,0.7*3A
$GNGSA,A,2,05,10,12,16,18,20,21,25,26,29,31,,0.9,0.5,0.7*24
$GNGSA,A,2,66,67,68,73,79,81,82,83,,,,,0.9,0.5,0.7*2B
$GLGSV,3,1,09,73,25,314,34,66,24,047,31,82,46,005,27,80,42,247,25*6B
$GLGSV,3,2,09,79,13,191,28,83,25,296,31,81,20,060,19,67,37,109,28*63
$GLGSV,3,3,09,68,12,163,30*56
$GPGSV,4,1,13,04,,,29,05,15,043,29,10,05,195,20,12,04,146,31*41
$GPGSV,4,2,13,16,09,320,36,18,36,175,31,20,53,084,30,21,65,279,21*7E
$GPGSV,4,3,13,25,37,156,26,26,36,312,31,29,51,054,29,31,22,248,33*73
$GPGSV,4,4,13,15,03,118,*44
$GPGGA,190947.0,3158.980962,N,03445.378727,E,1,11,0.5,18.8,M,19.0,M,,*69
$GPVTG,187.4,T,184.4,M,52.8,N,97.8,K,A*29
$GPRMC,190947.0,A,3158.980962,N,03445.378727,E,52.8,187.4,150416,3.0,E,A*3D
$GPGSA,A,2,05,10,12,16,18,20,21,25,26,29,31,,0.9,0.5,0.7*3A
$GNGSA,A,2,05,10,12,16,18,20,21,25,26,29,31,,0.9,0.5,0.7*24
$GNGSA,A,2,66,67,68,73,79,81,82,83,,,,,0.9,0.5,0.7*2B
$GLGSV,3,1,09,73,25,314,32,66,24,047,31,82,46,005,29,80,42,247,27*61
$GLGSV,3,2,09,79,13,191,27,83,25,296,30,81,20,060,23,67,37,109,27*6B
$GLGSV,3,3,09,68,12,163,30*56
$GPGSV,4,1,13,04,,,31,05,15,043,30,10,05,195,20,12,04,146,30*41
$GPGSV,4,2,13,16,09,320,36,18,36,175,32,20,53,084,30,21,65,279,23*7F
$GPGSV,4,3,13,25,37,156,26,26,36,312,31,29,51,054,28,31,22,248,33*72
$GPGSV,4,4,13,15,03,118,*44
$GPGGA,190948.0,3158.966258,N,03445.376694,E,1,11,0.5,18.9,M,19.0,M,,*6A
$GPVTG,187.0,T,184.0,M,52.6,N,97.4,K,A*2B
$GPRMC,190948.0,A,3158.966258,N,03445.376694,E,52.6,187.0,150416,3.0,E,A*35
$GPGSA,A,2,05,10,12,16,18,20,21,25,26,29,31,,0.9,0.5,0.7*3A
$GNGSA,A,2,05,10,12,16,18,20,21,25,26,29,31,,0.9,0.5,0.7*24
$GNGSA,A,2,66,67,68,73,79,81,82,83,,,,,0.9,0.5,0.7*2B
$GLGSV,3,1,09,73,25,314,33,66,24,047,30,82,46,005,27,80,42,247,25*6D
$GLGSV,3,2,09,79,13,191,27,83,25,296,30,81,20,060,21,67,37,109,28*66
$GLGSV,3,3,09,68,12,163,29*5E
$GPGSV,4,1,13,04,,,30,05,15,043,29,10,05,195,17,12,04,146,30*4C
$GPGSV,4,2,13,16,09,320,35,18,36,175,30,20,53,084,29,21,65,279,24*71
$GPGSV,4,3,13,25,37,156,25,26,36,312,32,29,51,054,27,31,22,248,32*7C
$GPGSV,4,4,13,15,03,118,*44
$GPGGA,190949.0,3158.951932,N,03445.374570,E,1,11,0.5,19.4,M,19.0,M,,*6F
$GPVTG,187.0,T,184.1,M,52.4,N,97.0,K,A*2C
$GPRMC,190949.0,A,3158.951932,N,03445.374570,E,52.4,187.0,150416,3.0,E,A*3E
$GPGSA,A,2,05,10,12,16,18,20,21,25,26,29,31,,0.9,0.5,0.7*3A
$GNGSA,A,2,05,10,12,16,18,20,21,25,26,29,31,,0.9,0.5,0.7*24
$GNGSA,A,2,66,67,68,73,79,81,82,83,,,,,0.9,0.5,0.7*2B
$GLGSV,3,1,09,73,25,314,29,66,24,047,30,82,46,005,30,80,42,247,26*63
$GLGSV,3,2,09,79,13,191,28,83,25,296,32,81,20,060,25,67,37,109,27*60
$GLGSV,3,3,09,68,12,163,27*50
$GPGSV,4,1,13,04,,,32,05,15,043,31,10,05,195,17,12,04,146,30*47
$GPGSV,4,2,13,16,09,320,33,18,36,175,32,20,53,084,30,21,65,279,25*7C
$GPGSV,4,3,13,25,37,156,28,26,36,312,33,29,51,054,28,31,22,248,32*7F
$GPGSV,4,4,13,15,03,118,*44
$GPGGA,190950.0,3158.937333,N,03445.372424,E,1,11,0.5,19.7,M,19.0,M,,*69
$GPVTG,186.9,T,184.0,M,52.3,N,96.8,K,A*2B
$GPRMC,190950.0,A,3158.937333,N,03445.372424,E,52.3,186.9,150416,3.0,E,A*34
$GPGSA,A,2,05,10,12,16,18,20,21,25,26,29,31,,0.9,0.5,0.7*3A
$GNGSA,A,2,05,10,12,16,18,20,21,25,26,29,31,,0.9,0.5,0.7*24
$GNGSA,A,2,66,67,68,73,79,81,82,83,,,,,0.9,0.5,0.7*2B
$GLGSV,3,1,09,73,25,314,31,66,24,047,31,82,46,005,31,80,42,247,28*64
$GLGSV,3,2,09,79,13,191,29,83,25,296,30,81,20,060,25,67,37,109,28*6C
$GLGSV,3,3,09,68,12,163,27*50
$GPGSV,4,1,13,04,,,32,05,15,043,31,10,05,195,17,12,04,146,29*4F
$GPGSV,4,2,13,16,09,320,37,18,36,175,33,20,53,084,30,21,65,279,24*78
$GPGSV,4,3,13,25,37,156,28,26,36,312,32,29,51,054,28,31,22,248,31*7D
$GPGSV,4,4,13,15,03,118,*44
$GPGGA,190951.0,3158.923362,N,03445.370529,E,1,11,0.5,19.2,M,19.0,M,,*62
$GPVTG,186.7,T,183.7,M,51.8,N,96.0,K,A*25
$GPRMC,190951.0,A,3158.923362,N,03445.370529,E,51.8,186.7,150416,3.0,E,A*3C
$GPGSA,A,2,05,10,12,16,18,20,21,25,26,29,31,,0.9,0.5,0.7*3A
$GNGSA,A,2,05,10,12,16,18,20,21,25,26,29,31,,0.9,0.5,0.7*24
$GNGSA,A,2,66,67,68,73,79,81,82,83,,,,,0.9,0.5,0.7*2B
$GLGSV,3,1,09,73,25,314,32,66,24,047,31,82,46,005,29,80,42,247,26*60
$GLGSV,3,2,09,79,13,191,28,83,25,296,31,81,20,060,28,67,37,109,28*61
$GLGSV,3,3,09,68,12,163,27*50
$GPGSV,4,1,13,04,,,32,05,15,043,30,10,05,195,18,12,04,146,30*49
$GPGSV,4,2,13,16,09,320,37,18,36,175,31,20,53,084,31,21,65,279,25*7A
$GPGSV,4,3,13,25,37,156,27,26,36,312,34,29,51,054,28,31,22,248,32*77
$GPGSV,4,4,13,15,03,118,*44
$GPGGA,190952.0,3158.908734,N,03445.368994,E,1,11,0.5,19.3,M,19.0,M,,*6D
$GPVTG,186.8,T,183.9,M,51.6,N,95.6,K,A*2F
$GPRMC,190952.0,A,3158.908734,N,03445.368994,E,51.6,186.8,150416,3.0,E,A*33
$GPGSA,A,2,05,10,12,16,18,20,21,25,26,29,31,,0.9,0.5,0.7*3A
$GNGSA,A,2,05,10,12,16,18,20,21,25,26,29,31,,0.9,0.5,0.7*24
$GNGSA,A,2,66,67,68,73,79,81,82,83,,,,,0.9,0.5,0.7*2B
$GLGSV,3,1,09,73,25,314,29,66,24,047,30,82,46,005,29,80,42,247,25*68
$GLGSV,3,2,09,79,13,191,27,83,25,296,28,81,20,060,29,67,37,109,26*69
$GLGSV,3,3,09,68,12,163,27*50
$GPGSV,4,1,13,04,,,32,05,15,043,29,10,05,195,18,12,04,146,27*47
$GPGSV,4,2,13,16,09,320,35,18,36,175,31,20,53,084,29,21,65,279,26*72
$GPGSV,4,3,13,25,37,156,25,26,36,312,32,29,51,054,27,31,22,248,30*7E
$GPGSV,4,4,13,15,03,118,*44
$GPGGA,190953.0,3158.894388,N,03445.367225,E,1,11,0.5,18.4,M,19.0,M,,*63
$GPVTG,186.5,T,183.5,M,51.4,N,95.2,K,A*28
$GPRMC,190953.0,A,3158.894388,N,03445.367225,E,51.4,186.5,150416,3.0,E,A*34
$GPGSA,A,2,05,10,12,16,18,20,21,25,26,29,31,,0.9,0.5,0.7*3A
$GNGSA,A,2,05,10,12,16,18,20,21,25,26,29,31,,0.9,0.5,0.7*24
$GNGSA,A,2,66,67,68,73,79,81,82,83,,,,,0.9,0.5,0.7*2B
$GLGSV,3,1,09,73,25,314,30,66,24,047,29,82,46,005,28,80,42,247,26*6A
$GLGSV,3,2,09,79,13,191,26,83,25,296,30,81,20,060,28,67,37,109,26*60
$GLGSV,3,3,09,68,12,163,29*5E
$GPGSV,4,1,13,04,,,30,05,15,043,25,10,05,195,18,12,04,146,28*46
$GPGSV,4,2,13,16,09,320,35,18,36,175,29,20,53,084,29,21,65,279,24*79
$GPGSV,4,3,13,25,37,156,25,26,36,312,30,29,51,054,28,31,22,248,30*73
$GPGSV,4,4,13,15,03,118,*44
$GPGGA,190954.0,3158.880301,N,03445.365585,E,1,11,0.5,18.6,M,19.0,M,,*6D
$GPVTG,186.2,T,183.3,M,51.3,N,94.9,K,A*24
$GPRMC,190954.0,A,3158.880301,N,03445.365585,E,51.3,186.2,150416,3.0,E,A*38
$GPGSA,A,2,05,10,12,16,18,20,21,25,26,29,31,,0.9,0.5,0.7*3A
$GNGSA,A,2,05,10,12,16,18,20,21,25,26,29,31,,0.9,0.5,0.7*24
$GNGSA,A,2,66,67,68,73,79,81,82,83,,,,,0.9,0.5,0.7*2B
$GLGSV,3,1,09,73,25,314,34,66,24,047,29,82,46,005,27,80,42,247,27*60
$GLGSV,3,2,09,79,13,191,28,83,25,296,32,81,20,060,26,67,37,109,28*6C
$GLGSV,3,3,09,68,12,163,29*5E
$GPGSV,4,1,13,04,,,30,05,15,043,28,10,05,195,18,12,04,146,29*4A
$GPGSV,4,2,13,16,09,320,36,18,36,175,30,20,53,084,31,21,65,279,24*7B
$GPGSV,4,3,13,25,37,156,25,26,36,312,32,29,51,054,28,31,22,248,31*70
$GPGSV,4,4,13,15,03,118,*44
$GPGGA,190955.0,3158.866144,N,03445.363400,E,1,11,0.5,18.6,M,19.0,M,,*6D
$GPVTG,186.7,T,183.8,M,51.0,N,94.4,K,A*24
$GPRMC,190955.0,A,3158.866144,N,03445.363400,E,51.0,186.7,150416,3.0,E,A*3E
$GPGSA,A,2,05,10,12,16,18,20,21,25,26,29,31,,0.9,0.5,0.7*3A
$GNGSA,A,2,05,10,12,16,18,20,21,25,26,29,31,,0.9,0.5,0.7*24
$GNGSA,A,2,66,67,68,73,79,81,82,83,,,,,0.9,0.5,0.7*2B
$GLGSV,3,1,09,73,25,314,30,66,24,047,29,82,46,005,28,80,42,247,27*6B
$GLGSV,3,2,09,79,13,191,28,83,25,296,30,81,20,060,25,67,37,109,29*6C
$GLGSV,3,3,09,68,12,163,27*50
$GPGSV,4,1,13,04,,,28,05,15,043,27,10,05,195,18,12,04,146,27*42
$GPGSV,4,2,13,16,09,320,34,18,36,175,32,20,53,084,29,21,65,279,21*77
$GPGSV,4,3,13,25,37,156,27,26,36,312,30,29,51,054,26,31,22,248,31*7E
$GPGSV,4,4,13,15,03,118,*44
$GPGGA,190956.0,3158.852133,N,03445.361636,E,1,11,0.5,19.3,M,19.0,M,,*68
$GPVTG,187.0,T,184.0,M,50.6,N,93.7,K,A*2E
$GPRMC,190956.0,A,3158.852133,N,03445.361636,E,50.6,187.0,150416,3.0,E,A*3E
$GPGSA,A,2,05,10,12,16,18,20,21,25,26,29,31,,0.9,0.5,0.7*3A
$GNGSA,A,2,05,10,12,16,18,20,21,25,26,29,31,,0.9,0.5,0.7*24
$GNGSA,A,2,66,67,68,73,79,81,82,83,,,,,0.9,0.5,0.7*2B
$GLGSV,3,1,09,73,25,314,30,66,24,047,30,82,46,005,30,80,42,247,28*65
$GLGSV,3,2,09,79,13,191,28,83,25,296,31,81,20,060,28,67,37,109,28*61
$GLGSV,3,3,09,68,12,163,26*51
$GPGSV,4,1,13,04,,,30,05,15,043,28,10,05,195,18,12,04,146,25*46
$GPGSV,4,2,13,16,09,320,36,18,36,175,34,20,53,084,30,21,65,279,25*7F
$GPGSV,4,3,13,25,37,156,27,26,36,312,30,29,51,054,24,31,22,248,32*7F
$GPGSV,4,4,13,15,03,118,*44
$GPGGA,190957.0,3158.838101,N,03445.359505,E,1,11,0.5,19.3,M,19.0,M,,*6C
$GPVTG,186.8,T,183.8,M,50.7,N,94.0,K,A*29
$GPRMC,190957.0,A,3158.838101,N,03445.359505,E,50.7,186.8,150416,3.0,E,A*32
$GPGSA,A,2,05,10,12,16,18,20,21,25,26,29,31,,0.9,0.5,0.7*3A
$GNGSA,A,2,05,10,12,16,18,20,21,25,26,29,31,,0.9,0.5,0.7*24
$GNGSA,A,2,66,67,68,73,79,81,82,83,,,,,0.9,0.5,0.7*2B
$GLGSV,3,1,09,73,25,314,28,66,24,047,31,82,46,005,30,80,42,247,29*6C
$GLGSV,3,2,09,79,13,191,28,83,25,296,28,81,20,060,29,67,37,109,27*67
$GLGSV,3,3,09,68,12,163,28*5F
$GPGSV,4,1,13,04,,,31,05,15,043,28,10,05,195,18,12,04,146,25*47
$GPGSV,4,2,13,16,09,320,34,18,36,175,34,20,53,084,29,21,65,279,28*78
$GPGSV,4,3,13,25,37,156,27,26,36,312,30,29,51,054,24,31,22,248,33*7E
$GPGSV,4,4,13,15,03,118,*44
$GPGGA,190958.0,3158.824066,N,03445.357699,E,1,10,0.6,19.2,M,19.0,M,,*65
$GPVTG,186.3,T,183.4,M,50.6,N,93.8,K,A*20
$GPRMC,190958.0,A,3158.824066,N,03445.357699,E,50.6,186.3,150416,3.0,E,A*32
$GPGSA,A,2,05,12,16,18,20,21,25,26,29,31,,,0.9,0.6,0.7*38
$GNGSA,A,2,05,12,16,18,20,21,25,26,29,31,,,0.9,0.6,0.7*26
$GNGSA,A,2,66,67,68,73,79,81,82,83,,,,,0.9,0.6,0.7*28
$GLGSV,3,1,09,73,25,314,30,66,24,047,30,82,46,005,28,80,42,247,29*6D
$GLGSV,3,2,09,79,13,191,21,83,25,296,31,81,20,060,27,67,37,109,25*6A
$GLGSV,3,3,09,68,12,163,29*5E
$GPGSV,4,1,13,04,,,30,05,15,043,22,10,05,195,17,12,04,146,28*4E
$GPGSV,4,2,13,16,09,320,37,18,36,175,34,20,53,084,28,21,65,279,29*7B
$GPGSV,4,3,13,25,37,156,28,26,36,312,27,29,51,054,20,31,22,248,31*71
$GPGSV,4,4,13,15,03,118,*44
$GPGGA,190959.0,3158.810272,N,03445.355826,E,1,11,0.5,19.6,M,19.0,M,,*6A
$GPVTG,186.2,T,183.2,M,50.6,N,93.7,K,A*28
$GPRMC,190959.0,A,3158.810272,N,03445.355826,E,50.6,186.2,150416,3.0,E,A*3A
$GPGSA,A,2,05,10,12,16,18,20,21,25,26,29,31,,0.9,0.5,0.7*3A
$GNGSA,A,2,05,10,12,16,18,20,21,25,26,29,31,,0.9,0.5,0.7*24
$GNGSA,A,2,66,67,68,73,79,81,82,83,,,,,0.9,0.5,0.7*2B
$GLGSV,3,1,09,73,25,314,29,66,24,047,30,82,46,005,26,80,42,247,26*64
$GLGSV,3,2,09,79,13,191,21,83,25,296,32,81,20,060,30,67,37,109,22*68
$GLGSV,3,3,09,68,12,163,32*54
$GPGSV,4,1,13,04,,,24,05,15,043,20,10,05,195,21,12,04,146,23*47
$GPGSV,4,2,13,16,09,320,34,18,36,175,31,20,53,084,24,21,65,279,27*7F
$GPGSV,4,3,13,25,37,156,26,26,36,312,30,29,51,054,25,31,22,248,24*78
$GPGSV,4,4,13,15,03,118,*44
$GPGGA,191000.0,3158.796165,N,03445.354394,E,1,11,0.5,19.8,M,19.0,M,,*67
$GPVTG,185.9,T,182.9,M,50.5,N,93.6,K,A*28
$GPRMC,191000.0,A,3158.796165,N,03445.354394,E,50.5,185.9,150416,3.0,E,A*32
$GPGSA,A,2,05,10,12,16,18,20,21,25,26,29,31,,0.9,0.5,0.7*3A
$GNGSA,A,2,05,10,12,16,18,20,21,25,26,29,31,,0.9,0.5,0.7*24
$GNGSA,A,2,66,67,68,73,79,81,82,83,,,,,0.9,0.5,0.7*2B
$GLGSV,3,1,09,73,25,314,30,66,24,047,23,82,46,005,25,80,42,247,23*68
$GLGSV,3,2,09,79,13,191,22,83,25,296,31,81,20,060,25,67,37,109,27*69
$GLGSV,3,3,09,68,12,163,23*54
$GPGSV,4,1,13,04,,,24,05,15,043,20,10,05,195,22,12,04,146,25*42
$GPGSV,4,2,13,16,09,320,30,18,36,175,31,20,53,084,28,21,65,279,25*75
$GPGSV,4,3,13,25,37,156,26,26,36,312,29,29,51,054,24,31,22,248,25*70
$GPGSV,4,4,13,15,03,118,*44
$GPGGA,191001.0,3158.782188,N,03445.352554,E,1,11,0.5,19.8,M,19.0,M,,*6C
$GPVTG,185.9,T,182.9,M,50.5,N,93.6,K,A*28
$GPRMC,191001.0,A,3158.782188,N,03445.352554,E,50.5,185.9,150416,3.0,E,A*39
$GPGSA,A,2,05,10,12,16,18,20,21,25,26,29,31,,0.9,0.5,0.7*3A
$GNGSA,A,2,05,10,12,16,18,20,21,25,26,29,31,,0.9,0.5,0.7*24
$GNGSA,A,2,66,67,68,73,79,81,82,83,,,,,0.9,0.5,0.7*2B
$GLGSV,3,1,09,73,25,314,29,66,24,047,25,82,46,005,23,80,42,247,23*60
$GLGSV,3,2,09,79,13,191,31,83,25,296,25,81,20,060,24,67,37,109,22*6A
$GLGSV,3,3,09,68,12,163,34*52
$GPGSV,4,1,14,04,,,22,05,15,043,22,10,05,195,23,12,04,146,32*46
$GPGSV,4,2,14,16,10,320,30,18,36,175,32,20,53,084,25,21,65,279,25*74
$GPGSV,4,3,14,25,37,156,25,26,36,312,29,29,51,054,22,31,22,248,25*72
$GPGSV,4,4,14,,,,27,15,03,118,*46
$GPGGA,191002.0,3158.768255,N,03445.350378,E,1,11,0.5,19.9,M,19.0,M,,*63
$GPVTG,186.7,T,183.7,M,51.2,N,94.8,K,A*25
$GPRMC,191002.0,A,3158.768255,N,03445.350378,E,51.2,186.7,150416,3.0,E,A*3C
$GPGSA,A,2,05,10,12,16,18,20,21,25,26,29,31,,0.9,0.5,0.7*3A
$GNGSA,A,2,05,10,12,16,18,20,21,25,26,29,31,,0.9,0.5,0.7*24
$GNGSA,A,2,66,67,68,73,79,81,82,83,,,,,0.9,0.5,0.7*2B
$GLGSV,3,1,09,73,25,314,28,66,24,047,28,82,46,005,28,80,42,247,19*6E
$GLGSV,3,2,09,79,13,191,31,83,25,296,33,81,20,060,21,67,37,109,29*63
$GLGSV,3,3,09,68,12,163,34*52
$GPGSV,4,1,14,04,,,26,05,15,043,21,10,05,195,21,12,04,146,32*43
$GPGSV,4,2,14,16,10,320,23,18,36,175,35,20,53,084,30,21,65,279,25*75
$GPGSV,4,3,14,25,37,156,28,26,36,312,33,29,51,054,21,31,22,248,25*77
$GPGSV,4,4,14,,,,27,15,03,118,*46
$GPGGA,191003.0,3158.754346,N,03445.348513,E,1,11,0.5,20.0,M,19.0,M,,*6F
$GPVTG,186.6,T,183.6,M,50.5,N,93.5,K,A*29
$GPRMC,191003.0,A,3158.754346,N,03445.348513,E,50.5,186.6,150416,3.0,E,A*34
$GPGSA,A,2,05,10,12,16,18,20,21,25,26,29,31,,0.9,0.5,0.7*3A
$GNGSA,A,2,05,10,12,16,18,20,21,25,26,29,31,,0.9,0.5,0.7*24
$GNGSA,A,2,66,67,68,73,79,81,82,83,,,,,0.9,0.5,0.7*2B
$GLGSV,3,1,09,73,25,314,29,66,24,047,25,82,46,005,31,80,42,247,19*6A
$GLGSV,3,2,09,79,13,191,30,83,25,296,36,81,20,060,29,67,37,109,29*6F
$GLGSV,3,3,09,68,12,163,34*52
$GPGSV,4,1,14,04,,,26,05,15,043,21,10,05,195,25,12,04,146,33*46
$GPGSV,4,2,14,15,03,118,19,16,10,320,32,18,36,175,34,20,53,084,26*7F
$GPGSV,4,3,14,21,65,279,19,25,37,156,29,26,36,312,33,29,51,054,23*7B
$GPGSV,4,4,14,31,22,248,21,,,,27*46
$GPGGA,191004.0,3158.740427,N,03445.346579,E,1,12,0.5,20.6,M,19.0,M,,*6A
$GPVTG,186.5,T,183.5,M,50.3,N,93.2,K,A*28
$GPRMC,191004.0,A,3158.740427,N,03445.346579,E,50.3,186.5,150416,3.0,E,A*31
$GPGSA,A,2,05,10,12,15,16,18,20,21,25,26,29,31,0.9,0.5,0.7*3E
$GNGSA,A,2,05,10,12,15,16,18,20,21,25,26,29,31,0.9,0.5,0.7*20
$GNGSA,A,2,66,67,68,73,79,81,82,83,,,,,0.9,0.5,0.7*2B
$GLGSV,3,1,09,73,25,314,28,66,24,047,29,82,46,005,25,80,42,247,19*62
$GLGSV,3,2,09,79,13,191,27,83,25,296,36,81,20,060,33,67,37,109,29*62
$GLGSV,3,3,09,68,12,163,33*55
$GPGSV,4,1,14,04,,,29,05,15,043,20,10,05,195,30,12,04,146,33*4C
$GPGSV,4,2,14,15,03,118,19,16,10,320,30,18,36,175,31,20,53,084,26*78
$GPGSV,4,3,14,21,65,279,24,25,37,156,28,26,36,312,32,29,51,054,25*73
$GPGSV,4,4,14,31,22,248,26,,,,27*41
$GPGGA,191005.0,3158.726857,N,03445.345019,E,1,12,0.5,22.6,M,19.0,M,,*62
$GPVTG,185.9,T,182.9,M,50.3,N,93.2,K,A*2A
$GPRMC,191005.0,A,3158.726857,N,03445.345019,E,50.3,185.9,150416,3.0,E,A*34
$GPGSA,A,2,05,10,12,15,16,18,20,21,25,26,29,31,0.9,0.5,0.7*3E
$GNGSA,A,2,05,10,12,15,16,18,20,21,25,26,29,31,0.9,0.5,0.7*20
$GNGSA,A,2,66,67,68,73,79,81,82,83,,,,,0.9,0.5,0.7*2B
$GLGSV,3,1,09,73,25,314,30,66,24,047,25,82,46,005,23,80,42,247,16*6E
$GLGSV,3,2,09,79,13,191,27,83,25,296,37,81,20,060,36,67,37,109,30*6E
$GLGSV,3,3,09,68,12,163,34*52
$GPGSV,4,1,14,04,,,29,05,15,043,27,10,05,195,30,12,04,146,33*4B
$GPGSV,4,2,14,15,03,118,19,16,10,320,33,18,36,175,30,20,53,084,30*7D
$GPGSV,4,3,14,21,65,279,25,25,37,156,27,26,36,312,31,29,51,054,28*73
$GPGSV,4,4,14,31,22,248,24,,,,31*44
$GPGGA,191006.0,3158.713286,N,03445.343407,E,1,12,0.5,23.4,M,19.0,M,,*6F
$GPVTG,185.6,T,182.6,M,50.0,N,92.6,K,A*2C
$GPRMC,191006.0,A,3158.713286,N,03445.343407,E,50.0,185.6,150416,3.0,E,A*36
$GPGSA,A,2,05,10,12,15,16,18,20,21,25,26,29,31,0.9,0.5,0.7*3E
$GNGSA,A,2,05,10,12,15,16,18,20,21,25,26,29,31,0.9,0.5,0.7*20
$GNGSA,A,2,66,67,68,73,79,81,82,83,,,,,0.9,0.5,0.7*2B
$GLGSV,3,1,09,73,25,314,26,66,24,047,27,82,46,005,26,80,42,247,20*6B
$GLGSV,3,2,09,79,13,191,23,83,25,296,34,81,20,060,35,67,37,109,31*6B
$GLGSV,3,3,09,68,12,163,32*54
$GPGSV,4,1,14,04,,,23,05,15,043,27,10,05,195,27,12,04,146,29*4C
$GPGSV,4,2,14,15,03,118,19,16,10,320,30,18,36,175,27,20,53,084,28*71
$GPGSV,4,3,14,21,65,279,26,25,37,156,29,26,36,312,28,29,51,054,25*7B
$GPGSV,4,4,14,31,22,248,24,,,,31*44
$GPGGA,191007.0,3158.699519,N,03445.341764,E,1,12,0.5,23.9,M,19.0,M,,*65
$GPVTG,184.8,T,181.8,M,49.8,N,92.3,K,A*2B
$GPRMC,191007.0,A,3158.699519,N,03445.341764,E,49.8,184.8,150416,3.0,E,A*3E
$GPGSA,A,2,05,10,12,15,16,18,20,21,25,26,29,31,0.9,0.5,0.7*3E
$GNGSA,A,2,05,10,12,15,16,18,20,21,25,26,29,31,0.9,0.5,0.7*20
$GNGSA,A,2,66,67,68,73,79,81,82,83,,,,,0.9,0.5,0.7*2B
$GLGSV,3,1,09,73,25,314,27,66,24,047,29,82,46,005,26,80,42,247,20*64
$GLGSV,3,2,09,79,13,191,23,83,25,296,33,81,20,060,36,67,37,109,33*6D
$GLGSV,3,3,09,68,12,163,32*54
$GPGSV,4,1,14,04,,,23,05,15,043,27,10,05,195,28,12,04,146,32*49
$GPGSV,4,2,14,15,03,118,20,16,10,320,32,18,36,175,31,20,53,084,32*75
$GPGSV,4,3,14,21,65,279,28,25,37,156,31,26,36,312,23,29,51,054,30*73
$GPGSV,4,4,14,31,22,248,26,,,,31*46
$GPGGA,191008.0,3158.686273,N,03445.340688,E,1,12,0.5,24.8,M,19.0,M,,*6B
$GPVTG,183.9,T,180.9,M,49.4,N,91.5,K,A*24
$GPRMC,191008.0,A,3158.686273,N,03445.340688,E,49.4,183.9,150416,3.0,E,A*3C
$GPGSA,A,2,05,10,12,15,16,18,20,21,25,26,29,31,0.9,0.5,0.7*3E
$GNGSA,A,2,05,10,12,15,16,18,20,21,25,26,29,31,0.9,0.5,0.7*20
$GNGSA,A,2,66,67,68,73,79,81,82,83,,,,,0.9,0.5,0.7*2B
$GLGSV,3,1,09,73,25,314,31,66,24,047,24,82,46,005,27,80,42,247,20*6F
$GLGSV,3,2,09,79,13,191,23,83,25,296,29,81,20,060,36,67,37,109,34*61
$GLGSV,3,3,09,68,12,163,30*56
$GPGSV,4,1,14,04,,,24,05,15,043,30,10,05,195,27,12,04,146,33*46
