$GPRMC,082054.305,V,3854.931,N,07702.499,W,90.3,3.35,190416,,E*4D
$GPGGA,082055.305,3854.931,N,07702.499,W,0,00,,,M,,M,,*5A
$GPGLL,3854.931,N,07702.499,W,082056.305,V*39
$GPVTG,3.35,T,,M,90.3,N,167.2,K*6D
$GPRMC,082058.305,V,3854.931,N,07702.500,W,44.6,3.31,190416,,E*48
$GPGGA,082059.305,3854.931,N,07702.500,W,0,00,,,M,,M,,*57
$GPGLL,3854.931,N,07702.500,W,082100.305,V*3A
$GPVTG,3.31,T,,M,44.6,N,82.5,K*58
$GPRMC,082102.305,V,3854.932,N,07702.502,W,74.3,3.32,190416,,E*42
$GPGGA,082103.305,3854.932,N,07702.502,W,0,00,,,M,,M,,*58
$GPGLL,3854.932,N,07702.502,W,082104.305,V*3F
$GPVTG,3.32,T,,M,74.3,N,137.7,K*60
$GPRMC,082106.305,V,3854.933,N,07702.503,W,13.6,3.38,190416,,E*48
$GPGGA,082107.305,3854.933,N,07702.503,W,0,00,,,M,,M,,*5C
$GPGLL,3854.933,N,07702.503,W,082108.305,V*33
$GPVTG,3.38,T,,M,13.6,N,25.1,K*5A
$GPRMC,082110.305,V,3854.935,N,07702.505,W,31.4,3.46,190416,,E*44
$GPGGA,082111.305,3854.935,N,07702.505,W,0,00,,,M,,M,,*5B
$GPGLL,3854.935,N,07702.505,W,082112.305,V*38
$GPVTG,3.46,T,,M,31.4,N,58.1,K*5B
$GPRMC,082114.305,V,3854.936,N,07702.506,W,57.3,3.45,190416,,E*44
$GPGGA,082115.305,3854.936,N,07702.506,W,0,00,,,M,,M,,*5F
$GPGLL,3854.936,N,07702.506,W,082116.305,V*3C
$GPVTG,3.45,T,,M,57.3,N,106.1,K*65
$GPRMC,082118.305,V,3854.937,N,07702.507,W,16.2,3.54,190416,,E*4C
$GPGGA,082119.305,3854.937,N,07702.507,W,0,00,,,M,,M,,*53
$GPGLL,3854.937,N,07702.507,W,082120.305,V*39
$GPVTG,3.54,T,,M,16.2,N,29.9,K*55
$GPRMC,082122.305,V,3854.938,N,07702.509,W,38.2,3.47,190416,,E*4A
$GPGGA,082123.305,3854.938,N,07702.509,W,0,00,,,M,,M,,*5B
$GPGLL,3854.938,N,07702.509,W,082124.305,V*3C
$GPVTG,3.47,T,,M,38.2,N,70.8,K*56
$GPRMC,082126.305,V,3854.939,N,07702.510,W,37.7,3.22,190416,,E*4E
$GPGGA,082127.305,3854.939,N,07702.510,W,0,00,,,M,,M,,*56
$GPGLL,3854.939,N,07702.510,W,082128.305,V*39
$GPVTG,3.22,T,,M,37.7,N,69.9,K*56
$GPRMC,082130.305,V,3854.940,N,07702.512,W,52.7,3.21,190416,,E*45
$GPGGA,082131.305,3854.940,N,07702.512,W,0,00,,,M,,M,,*5D
$GPGLL,3854.940,N,07702.512,W,082132.305,V*3E
$GPVTG,3.21,T,,M,52.7,N,97.7,K*59
$GPRMC,082134.305,V,3854.940,N,07702.514,W,50.6,3.23,190416,,E*46
$GPGGA,082135.305,3854.940,N,07702.514,W,0,00,,,M,,M,,*5F
$GPGLL,3854.940,N,07702.514,W,082136.305,V*3C
$GPVTG,3.23,T,,M,50.6,N,93.8,K*53
$GPRMC,082138.305,V,3854.941,N,07702.515,W,22.8,3.17,190416,,E*46
$GPGGA,082139.305,3854.941,N,07702.515,W,0,00,,,M,,M,,*53
$GPGLL,3854.941,N,07702.515,W,082140.305,V*3D
$GPVTG,3.17,T,,M,22.8,N,42.2,K*59
$GPRMC,082142.305,V,3854.941,N,07702.517,W,66.5,3.24,190416,,E*44
$GPGGA,082143.305,3854.941,N,07702.517,W,0,00,,,M,,M,,*5C
$GPGLL,3854.941,N,07702.517,W,082144.305,V*3B
$GPVTG,3.24,T,,M,66.5,N,123.2,K*62
$GPRMC,082146.305,V,3854.943,N,07702.518,W,56.3,3.63,190416,,E*4B
$GPGGA,082147.305,3854.943,N,07702.518,W,0,00,,,M,,M,,*55
$GPGLL,3854.943,N,07702.518,W,082148.305,V*3A
$GPVTG,3.63,T,,M,56.3,N,104.3,K*60
$GPRMC,082150.305,V,3854.944,N,07702.519,W,84.8,3.66,190416,,E*4B
$GPGGA,082151.305,3854.944,N,07702.519,W,0,00,,,M,,M,,*54
$GPGLL,3854.944,N,07702.519,W,082152.305,V*37
$GPVTG,3.66,T,,M,84.8,N,157.0,K*64
$GPRMC,082154.305,V,3854.946,N,07702.520,W,17.2,3.57,190416,,E*45
$GPGGA,082155.305,3854.946,N,07702.520,W,0,00,,,M,,M,,*58
$GPGLL,3854.946,N,07702.520,W,082156.305,V*3B
$GPVTG,3.57,T,,M,17.2,N,31.9,K*5E
$GPRMC,082158.305,V,3854.947,N,07702.521,W,54.9,3.60,190416,,E*41
$GPGGA,082159.305,3854.947,N,07702.521,W,0,00,,,M,,M,,*54
$GPGLL,3854.947,N,07702.521,W,082200.305,V*3B
$GPVTG,3.60,T,,M,54.9,N,101.7,K*6A
$GPRMC,082202.305,V,3854.949,N,07702.522,W,67.8,3.69,190416,,E*48
$GPGGA,082203.305,3854.949,N,07702.522,W,0,00,,,M,,M,,*55
$GPGLL,3854.949,N,07702.522,W,082204.305,V*32
$GPVTG,3.69,T,,M,67.8,N,125.6,K*65
$GPRMC,082206.305,V,3854.950,N,07702.523,W,76.3,3.69,190416,,E*4E
$GPGGA,082207.305,3854.950,N,07702.523,W,0,00,,,M,,M,,*58
$GPGLL,3854.950,N,07702.523,W,082208.305,V*37
$GPVTG,3.69,T,,M,76.3,N,141.4,K*6E
$GPRMC,082210.305,V,3854.952,N,07702.524,W,85.6,3.71,190416,,E*4C
$GPGGA,082211.305,3854.952,N,07702.524,W,0,00,,,M,,M,,*5A
$GPGLL,3854.952,N,07702.524,W,082212.305,V*39
$GPVTG,3.71,T,,M,85.6,N,158.5,K*67
$GPRMC,082214.305,V,3854.954,N,07702.524,W,62.4,3.73,190416,,E*47
$GPGGA,082215.305,3854.954,N,07702.524,W,0,00,,,M,,M,,*58
$GPGLL,3854.954,N,07702.524,W,082216.305,V*3B
$GPVTG,3.73,T,,M,62.4,N,115.6,K*64
$GPRMC,082218.305,V,3854.955,N,07702.525,W,65.5,3.67,190416,,E*48
$GPGGA,082219.305,3854.955,N,07702.525,W,0,00,,,M,,M,,*54
$GPGLL,3854.955,N,07702.525,W,082220.305,V*3E
$GPVTG,3.67,T,,M,65.5,N,121.2,K*64
$GPRMC,082222.305,V,3854.957,N,07702.525,W,99.0,4.06,190416,,E*45
$GPGGA,082223.305,3854.957,N,07702.525,W,0,00,,,M,,M,,*5F
$GPGLL,3854.957,N,07702.525,W,082224.305,V*38
$GPVTG,4.06,T,,M,99.0,N,183.4,K*6C
$GPRMC,082226.305,V,3854.959,N,07702.525,W,70.6,4.12,190416,,E*4B
$GPGGA,082227.305,3854.959,N,07702.525,W,0,00,,,M,,M,,*55
$GPGLL,3854.959,N,07702.525,W,082228.305,V*3A
$GPVTG,4.12,T,,M,70.6,N,130.8,K*6C
$GPRMC,082230.305,V,3854.961,N,07702.525,W,24.1,4.04,190416,,E*46
$GPGGA,082231.305,3854.961,N,07702.525,W,0,00,,,M,,M,,*59
$GPGLL,3854.961,N,07702.525,W,082232.305,V*3A
$GPVTG,4.04,T,,M,24.1,N,44.6,K*51
$GPRMC,082234.305,V,3854.962,N,07702.525,W,9.4,4.00,190416,,E*7F
$GPGGA,082235.305,3854.962,N,07702.525,W,0,00,,,M,,M,,*5E
$GPGLL,3854.962,N,07702.525,W,082236.305,V*3D
$GPVTG,4.00,T,,M,9.4,N,17.4,K*6B
$GPRMC,082238.305,V,3854.964,N,07702.525,W,9.2,3.95,190416,,E*78
$GPGGA,082239.305,3854.964,N,07702.525,W,0,00,,,M,,M,,*54
$GPGLL,3854.964,N,07702.525,W,082240.305,V*3A
$GPVTG,3.95,T,,M,9.2,N,17.0,K*62
$GPRMC,082242.305,V,3854.966,N,07702.525,W,47.4,3.87,190416,,E*48
$GPGGA,082243.305,3854.966,N,07702.525,W,0,00,,,M,,M,,*5B
$GPGLL,3854.966,N,07702.525,W,082244.305,V*3C
$GPVTG,3.87,T,,M,47.4,N,87.8,K*5C
$GPRMC,082246.305,V,3854.968,N,07702.526,W,13.5,3.83,190416,,E*45
$GPGGA,082247.305,3854.968,N,07702.526,W,0,00,,,M,,M,,*52
$GPGLL,3854.968,N,07702.526,W,082248.305,V*3D
$GPVTG,3.83,T,,M,13.5,N,24.9,K*50
$GPRMC,082250.305,V,3854.969,N,07702.526,W,27.7,3.72,190416,,E*48
$GPGGA,082251.305,3854.969,N,07702.526,W,0,00,,,M,,M,,*54
$GPGLL,3854.969,N,07702.526,W,082252.305,V*37
$GPVTG,3.72,T,,M,27.7,N,51.4,K*54
$GPRMC,082254.305,V,3854.971,N,07702.527,W,1.4,3.74,190416,,E*75
$GPGGA,082255.305,3854.971,N,07702.527,W,0,00,,,M,,M,,*58
$GPGLL,3854.971,N,07702.527,W,082256.305,V*3B
$GPVTG,3.74,T,,M,1.4,N,2.6,K*51
$GPRMC,082258.305,V,3854.973,N,07702.528,W,26.6,3.76,190416,,E*41
$GPGGA,082259.305,3854.973,N,07702.528,W,0,00,,,M,,M,,*59
$GPGLL,3854.973,N,07702.528,W,082300.305,V*34
$GPVTG,3.76,T,,M,26.6,N,49.2,K*5F
$GPGSA,A,2,05,19,12,18,02,14,,,,,,,0.4,0.2,0.7*32
$GPGSV,2,1,06,05,72,298,63,19,88,234,35,12,66,065,16,18,27,206,50*7B
$GPGSV,2,2,06,02,46,015,82,14,12,302,37*72
$GPRMC,082305.305,V,3854.974,N,07702.528,W,24.5,3.86,190416,,E*41
$GPGGA,082306.305,3854.974,N,07702.528,W,0,04,0.2,,M,,M,,*7D
$GPGLL,3854.974,N,07702.528,W,082307.305,V*34
$GPVTG,3.86,T,,M,24.5,N,45.4,K*5B
$GPGSA,A,3,05,19,12,18,02,14,,,,,,,0.7,0.6,0.9*3A
$GPGSV,2,1,06,05,70,296,81,19,41,011,15,12,83,122,70,18,08,253,85*75
$GPGSV,2,2,06,02,89,041,54,14,25,092,39*7B
$GPRMC,082312.305,V,3854.976,N,07702.529,W,91.3,3.79,190416,,E*4C
$GPGGA,082313.305,3854.976,N,07702.529,W,0,04,0.6,,M,,M,,*7E
$GPGLL,3854.976,N,07702.529,W,082314.305,V*35
$GPVTG,3.79,T,,M,91.3,N,169.0,K*68
$GPGSA,A,3,05,19,12,18,02,14,,,,,,,0.4,1.0,0.4*33
$GPGSV,2,1,06,05,20,219,38,19,83,119,21,12,21,154,82,18,79,013,69*73
$GPGSV,2,2,06,02,32,187,23,14,87,191,83*7B
$GPRMC,082319.305,V,3854.978,N,07702.529,W,64.3,3.77,190416,,E*4D
$GPGGA,082320.305,3854.978,N,07702.529,W,0,04,1.0,,M,,M,,*77
$GPGLL,3854.978,N,07702.529,W,082321.305,V*3D
$GPVTG,3.77,T,,M,64.3,N,119.0,K*6B
$GPRMC,082323.305,V,3854.980,N,07702.530,W,45.1,3.86,190416,,E*44
$GPGGA,082324.305,3854.980,N,07702.530,W,0,04,1.0,,M,,M,,*7C
$GPGLL,3854.980,N,07702.530,W,082325.305,V*36
$GPVTG,3.86,T,,M,45.1,N,83.5,K*53
$GPRMC,082327.305,V,3854.981,N,07702.530,W,86.1,3.86,190416,,E*4E
$GPGGA,082328.305,3854.981,N,07702.530,W,0,04,1.0,,M,,M,,*71
$GPGLL,3854.981,N,07702.530,W,082329.305,V*3B
$GPVTG,3.86,T,,M,86.1,N,159.5,K*6A
$GPRMC,082331.305,V,3854.983,N,07702.531,W,34.9,3.76,190416,,E*44
$GPGGA,082332.305,3854.983,N,07702.531,W,0,04,1.0,,M,,M,,*79
$GPGLL,3854.983,N,07702.531,W,082333.305,V*33
$GPVTG,3.76,T,,M,34.9,N,64.6,K*58
$GPRMC,082335.305,V,3854.985,N,07702.531,W,31.0,3.81,190416,,E*42
$GPGGA,082336.305,3854.985,N,07702.531,W,0,04,1.0,,M,,M,,*7B
$GPGLL,3854.985,N,07702.531,W,082337.305,V*31
$GPVTG,3.81,T,,M,31.0,N,57.3,K*59
$GPRMC,082339.305,V,3854.986,N,07702.532,W,63.1,3.85,190416,,E*4C
$GPGGA,082340.305,3854.986,N,07702.532,W,0,04,1.0,,M,,M,,*7A
$GPGLL,3854.986,N,07702.532,W,082341.305,V*30
$GPVTG,3.85,T,,M,63.1,N,116.9,K*65
$GPRMC,082343.305,V,3854.988,N,07702.533,W,6.5,3.51,190416,,E*70
$GPGGA,082344.305,3854.988,N,07702.533,W,0,04,1.0,,M,,M,,*71
$GPGLL,3854.988,N,07702.533,W,082345.305,V*3B
$GPVTG,3.51,T,,M,6.5,N,12.0,K*67
$GPGSA,A,2,05,19,12,18,02,14,,,,,,,0.8,0.4,0.5*3A
$GPGSV,2,1,06,05,52,137,68,19,19,002,64,12,84,148,80,18,85,194,32*76
$GPGSV,2,2,06,02,68,254,82,14,78,147,40*76
$GPRMC,082350.305,V,3854.989,N,07702.534,W,28.2,3.49,190416,,E*46
$GPGGA,082351.305,3854.989,N,07702.534,W,0,04,0.4,,M,,M,,*76
$GPGLL,3854.989,N,07702.534,W,082352.305,V*3B
$GPVTG,3.49,T,,M,28.2,N,52.3,K*52
$GPRMC,082354.305,V,3854.990,N,07702.536,W,47.4,3.60,190416,,E*4C
$GPGGA,082355.305,3854.990,N,07702.536,W,0,04,0.4,,M,,M,,*78
$GPGLL,3854.990,N,07702.536,W,082356.305,V*35
$GPVTG,3.60,T,,M,47.4,N,87.8,K*55
$GPRMC,082358.305,V,3854.992,N,07702.537,W,15.1,3.61,190416,,E*40
$GPGGA,082359.305,3854.992,N,07702.537,W,0,04,0.4,,M,,M,,*77
$GPGLL,3854.992,N,07702.537,W,082400.305,V*32
$GPVTG,3.61,T,,M,15.1,N,28.0,K*5B
$GPRMC,082402.305,V,3854.993,N,07702.537,W,27.4,3.69,190416,,E*45
$GPGGA,082403.305,3854.993,N,07702.537,W,0,04,0.4,,M,,M,,*7E
$GPGLL,3854.993,N,07702.537,W,082404.305,V*37
$GPVTG,3.69,T,,M,27.4,N,50.7,K*5F
$GPRMC,082406.305,V,3854.995,N,07702.538,W,98.9,3.60,190416,,E*48
$GPGGA,082407.305,3854.995,N,07702.538,W,0,04,0.4,,M,,M,,*73
$GPGLL,3854.995,N,07702.538,W,082408.305,V*32
$GPVTG,3.60,T,,M,98.9,N,183.1,K*66
$GPRMC,082410.305,V,3854.996,N,07702.540,W,41.6,3.59,190416,,E*42
$GPGGA,082411.305,3854.996,N,07702.540,W,0,04,0.4,,M,,M,,*78
$GPGLL,3854.996,N,07702.540,W,082412.305,V*35
$GPVTG,3.59,T,,M,41.6,N,77.1,K*5D
$GPRMC,082414.305,V,3854.998,N,07702.541,W,71.4,3.60,190416,,E*42
$GPGGA,082415.305,3854.998,N,07702.541,W,0,04,0.4,,M,,M,,*73
$GPGLL,3854.998,N,07702.541,W,082416.305,V*3E
$GPVTG,3.60,T,,M,71.4,N,132.2,K*65
$GPRMC,082418.305,V,3854.999,N,07702.542,W,86.7,3.61,190416,,E*46
$GPGGA,082419.305,3854.999,N,07702.542,W,0,04,0.4,,M,,M,,*7D
$GPGLL,3854.999,N,07702.542,W,082420.305,V*39
$GPVTG,3.61,T,,M,86.7,N,160.5,K*6F
$GPRMC,082422.305,V,3855.001,N,07702.542,W,26.9,3.71,190416,,E*43
$GPGGA,082423.305,3855.001,N,07702.542,W,0,04,0.4,,M,,M,,*7D
$GPGLL,3855.001,N,07702.542,W,082424.305,V*34
$GPVTG,3.71,T,,M,26.9,N,49.7,K*52
$GPGSA,A,2,05,19,12,18,02,14,,,,,,,0.5,0.9,1.0*3E
$GPGSV,2,1,06,05,69,042,49,19,49,075,62,12,65,142,76,18,33,029,77*7A
$GPGSV,2,2,06,02,34,153,16,14,18,232,55*75
$GPRMC,082429.305,V,3855.003,N,07702.543,W,47.7,3.78,190416,,E*4B
$GPGGA,082430.305,3855.003,N,07702.543,W,0,04,0.9,,M,,M,,*71
$GPGLL,3855.003,N,07702.543,W,082431.305,V*33
$GPVTG,3.78,T,,M,47.7,N,88.4,K*5C
$GPRMC,082433.305,V,3855.004,N,07702.543,W,63.3,3.86,190416,,E*44
$GPGGA,082434.305,3855.004,N,07702.543,W,0,04,0.9,,M,,M,,*72
$GPGLL,3855.004,N,07702.543,W,082435.305,V*30
$GPVTG,3.86,T,,M,63.3,N,117.3,K*6F
$GPRMC,082437.305,V,3855.006,N,07702.544,W,7.6,3.82,190416,,E*76
$GPGGA,082438.305,3855.006,N,07702.544,W,0,04,0.9,,M,,M,,*7B
$GPGLL,3855.006,N,07702.544,W,082439.305,V*39
$GPVTG,3.82,T,,M,7.6,N,14.2,K*6F
$GPRMC,082441.305,V,3855.008,N,07702.545,W,76.9,3.76,190416,,E*4A
$GPGGA,082442.305,3855.008,N,07702.545,W,0,04,0.9,,M,,M,,*79
$GPGLL,3855.008,N,07702.545,W,082443.305,V*3B
$GPVTG,3.76,T,,M,76.9,N,142.5,K*68
$GPRMC,082445.305,V,3855.009,N,07702.545,W,37.0,3.86,190416,,E*4C
$GPGGA,082446.305,3855.009,N,07702.545,W,0,04,0.9,,M,,M,,*7C
$GPGLL,3855.009,N,07702.545,W,082447.305,V*3E
$GPVTG,3.86,T,,M,37.0,N,68.4,K*53
$GPRMC,082449.305,V,3855.011,N,07702.545,W,99.9,3.90,190416,,E*43
$GPGGA,082450.305,3855.011,N,07702.545,W,0,04,0.9,,M,,M,,*72
$GPGLL,3855.011,N,07702.545,W,082451.305,V*30
$GPVTG,3.90,T,,M,99.9,N,185.1,K*6E
$GPRMC,082453.305,V,3855.013,N,07702.546,W,95.6,3.82,190416,,E*49
$GPGGA,082454.305,3855.013,N,07702.546,W,0,04,0.9,,M,,M,,*77
$GPGLL,3855.013,N,07702.546,W,082455.305,V*35
$GPVTG,3.82,T,,M,95.6,N,177.0,K*62
$GPRMC,082457.305,V,3855.015,N,07702.546,W,72.9,3.77,190416,,E*47
$GPGGA,082458.305,3855.015,N,07702.546,W,0,04,0.9,,M,,M,,*7D
$GPGLL,3855.015,N,07702.546,W,082459.305,V*3F
$GPVTG,3.77,T,,M,72.9,N,135.0,K*68
$GPRMC,082501.305,V,3855.016,N,07702.547,W,12.4,3.82,190416,,E*46
$GPGGA,082502.305,3855.016,N,07702.547,W,0,04,0.9,,M,,M,,*71
$GPGLL,3855.016,N,07702.547,W,082503.305,V*33
$GPVTG,3.82,T,,M,12.4,N,23.0,K*5F
$GPRMC,082505.305,V,3855.018,N,07702.548,W,45.7,3.71,190416,,E*4E
$GPGGA,082506.305,3855.018,N,07702.548,W,0,04,0.9,,M,,M,,*74
$GPGLL,3855.018,N,07702.548,W,082507.305,V*36
$GPVTG,3.71,T,,M,45.7,N,84.6,K*59
$GPRMC,082509.305,V,3855.020,N,07702.548,W,25.2,3.79,190416,,E*42
$GPGGA,082510.305,3855.020,N,07702.548,W,0,04,0.9,,M,,M,,*78
$GPGLL,3855.020,N,07702.548,W,082511.305,V*3A
$GPVTG,3.79,T,,M,25.2,N,46.7,K*5D
$GPRMC,082513.305,V,3855.021,N,07702.549,W,43.9,3.70,190416,,E*4B
$GPGGA,082514.305,3855.021,N,07702.549,W,0,04,0.9,,M,,M,,*7C
$GPGLL,3855.021,N,07702.549,W,082515.305,V*3E
$GPVTG,3.70,T,,M,43.9,N,81.4,K*57
$GPRMC,082517.305,V,3855.023,N,07702.550,W,54.5,3.64,190416,,E*4A
$GPGGA,082518.305,3855.023,N,07702.550,W,0,04,0.9,,M,,M,,*7A
$GPGLL,3855.023,N,07702.550,W,082519.305,V*38
$GPVTG,3.64,T,,M,54.5,N,100.9,K*6D
$GPRMC,082521.305,V,3855.024,N,07702.551,W,52.8,3.52,190416,,E*47
$GPGGA,082522.305,3855.024,N,07702.551,W,0,04,0.9,,M,,M,,*75
$GPGLL,3855.024,N,07702.551,W,082523.305,V*37
$GPVTG,3.52,T,,M,52.8,N,97.8,K*5D
$GPRMC,082525.305,V,3855.025,N,07702.553,W,49.9,3.43,190416,,E*4B
$GPGGA,082526.305,3855.025,N,07702.553,W,0,04,0.9,,M,,M,,*72
$GPGLL,3855.025,N,07702.553,W,082527.305,V*30
$GPVTG,3.43,T,,M,49.9,N,92.4,K*5F
$GPRMC,082529.305,V,3855.027,N,07702.554,W,19.4,3.53,190416,,E*4B
$GPGGA,082530.305,3855.027,N,07702.554,W,0,04,0.9,,M,,M,,*70
$GPGLL,3855.027,N,07702.554,W,082531.305,V*32
$GPVTG,3.53,T,,M,19.4,N,36.0,K*5C
$GPGSA,A,2,05,19,12,18,02,14,,,,,,,0.3,0.1,0.2*33
$GPGSV,2,1,06,05,61,041,16,19,50,180,72,12,24,111,33,18,87,323,46*7F
$GPGSV,2,2,06,02,71,178,75,14,56,066,28*7B
$GPRMC,082536.305,V,3855.028,N,07702.555,W,75.1,3.49,190416,,E*4F
$GPGGA,082537.305,3855.028,N,07702.555,W,0,04,0.1,,M,,M,,*71
$GPGLL,3855.028,N,07702.555,W,082538.305,V*35
$GPVTG,3.49,T,,M,75.1,N,139.2,K*64
$GPRMC,082540.305,V,3855.029,N,07702.556,W,80.3,3.54,190416,,E*48
$GPGGA,082541.305,3855.029,N,07702.556,W,0,04,0.1,,M,,M,,*72
$GPGLL,3855.029,N,07702.556,W,082542.305,V*3A
$GPVTG,3.54,T,,M,80.3,N,148.7,K*63
$GPRMC,082544.305,V,3855.030,N,07702.558,W,28.8,3.50,190416,,E*47
$GPGGA,082545.305,3855.030,N,07702.558,W,0,04,0.1,,M,,M,,*70
$GPGLL,3855.030,N,07702.558,W,082546.305,V*38
$GPVTG,3.50,T,,M,28.8,N,53.3,K*51
$GPRMC,082548.305,V,3855.032,N,07702.559,W,65.1,3.47,190416,,E*4E
$GPGGA,082549.305,3855.032,N,07702.559,W,0,04,0.1,,M,,M,,*7F
$GPGLL,3855.032,N,07702.559,W,082550.305,V*3C
$GPVTG,3.47,T,,M,65.1,N,120.6,K*67
$GPRMC,082552.305,V,3855.033,N,07702.560,W,48.3,3.45,190416,,E*41
$GPGGA,082553.305,3855.033,N,07702.560,W,0,04,0.1,,M,,M,,*7F
$GPGLL,3855.033,N,07702.560,W,082554.305,V*33
$GPVTG,3.45,T,,M,48.3,N,89.5,K*59
$GPGSA,A,2,05,19,12,18,02,14,,,,,,,0.7,0.4,0.9*39
$GPGSV,2,1,06,05,89,288,69,19,43,126,15,12,59,282,86,18,32,044,67*7B
$GPGSV,2,2,06,02,56,180,52,14,69,183,29*7B
$GPRMC,082559.305,V,3855.034,N,07702.562,W,81.7,3.49,190416,,E*42
$GPGGA,082600.305,3855.034,N,07702.562,W,0,04,0.4,,M,,M,,*7A
$GPGLL,3855.034,N,07702.562,W,082601.305,V*35
$GPVTG,3.49,T,,M,81.7,N,151.4,K*61
$GPRMC,082603.305,V,3855.035,N,07702.563,W,25.3,3.40,190416,,E*4D
$GPGGA,082604.305,3855.035,N,07702.563,W,0,04,0.4,,M,,M,,*7E
$GPGLL,3855.035,N,07702.563,W,082605.305,V*31
$GPVTG,3.40,T,,M,25.3,N,46.9,K*58
$GPRMC,082607.305,V,3855.036,N,07702.565,W,4.7,3.42,190416,,E*79
$GPGGA,082608.305,3855.036,N,07702.565,W,0,04,0.4,,M,,M,,*77
$GPGLL,3855.036,N,07702.565,W,082609.305,V*38
$GPVTG,3.42,T,,M,4.7,N,8.7,K*59
$GPGSA,A,2,05,19,12,18,02,14,,,,,,,0.2,0.7,0.3*35
$GPGSV,2,1,06,05,50,251,16,19,50,283,26,12,08,212,55,18,31,109,28*7E
$GPGSV,2,2,06,02,35,247,75,14,58,046,31*70
$GPRMC,082614.305,V,3855.038,N,07702.565,W,43.8,3.83,190416,,E*44
$GPGGA,082615.305,3855.038,N,07702.565,W,0,04,0.7,,M,,M,,*76
$GPGLL,3855.038,N,07702.565,W,082616.305,V*38
$GPVTG,3.83,T,,M,43.8,N,81.2,K*5C
$GPRMC,082618.305,V,3855.040,N,07702.566,W,99.4,3.79,190416,,E*4A
$GPGGA,082619.305,3855.040,N,07702.566,W,0,04,0.7,,M,,M,,*76
$GPGLL,3855.040,N,07702.566,W,082620.305,V*31
$GPVTG,3.79,T,,M,99.4,N,184.1,K*65
$GPGSA,A,3,05,19,12,18,02,14,,,,,,,0.1,0.1,0.1*33
$GPGSV,2,1,06,05,45,311,60,19,68,039,38,12,12,298,52,18,32,287,87*74
$GPGSV,2,2,06,02,87,136,32,14,10,162,46*74
$GPRMC,082625.305,V,3855.041,N,07702.567,W,34.5,3.41,190416,,E*49
$GPGGA,082626.305,3855.041,N,07702.567,W,0,04,0.1,,M,,M,,*7C
$GPGLL,3855.041,N,07702.567,W,082627.305,V*36
$GPVTG,3.41,T,,M,34.5,N,63.9,K*58
$GPRMC,082629.305,V,3855.043,N,07702.568,W,36.4,3.83,190416,,E*45
$GPGGA,082630.305,3855.043,N,07702.568,W,0,04,0.1,,M,,M,,*76
$GPGLL,3855.043,N,07702.568,W,082631.305,V*3C
$GPVTG,3.83,T,,M,36.4,N,67.4,K*5C
$GPGSA,A,2,05,19,12,18,02,14,,,,,,,0.8,0.5,0.0*3E
$GPGSV,2,1,06,05,10,256,65,19,31,239,53,12,15,066,23,18,58,034,74*78
$GPGSV,2,2,06,02,17,198,86,14,78,053,25*7E
$GPRMC,082636.305,V,3855.044,N,07702.568,W,85.2,3.92,190416,,E*42
$GPGGA,082637.305,3855.044,N,07702.568,W,0,04,0.5,,M,,M,,*72
$GPGLL,3855.044,N,07702.568,W,082638.305,V*32
$GPVTG,3.92,T,,M,85.2,N,157.7,K*63
$GPGSA,A,2,05,19,12,18,02,14,,,,,,,0.1,0.6,0.4*30
$GPGSV,2,1,06,05,14,136,66,19,19,341,21,12,89,264,52,18,75,281,41*7D
$GPGSV,2,2,06,02,64,156,81,14,36,009,35*7B
$GPRMC,082643.305,V,3855.046,N,07702.568,W,11.5,3.84,190416,,E*4F
$GPGGA,082644.305,3855.046,N,07702.568,W,0,04,0.6,,M,,M,,*77
$GPGLL,3855.046,N,07702.568,W,082645.305,V*3A
$GPVTG,3.84,T,,M,11.5,N,21.4,K*5D
$GPRMC,082647.305,V,3855.048,N,07702.568,W,46.4,3.93,190416,,E*40
$GPGGA,082648.305,3855.048,N,07702.568,W,0,04,0.6,,M,,M,,*75
$GPGLL,3855.048,N,07702.568,W,082649.305,V*38
$GPVTG,3.93,T,,M,46.4,N,85.9,K*5B
$GPRMC,082651.305,V,3855.050,N,07702.569,W,32.2,3.96,190416,,E*4F
$GPGGA,082652.305,3855.050,N,07702.569,W,0,04,0.6,,M,,M,,*76
$GPGLL,3855.050,N,07702.569,W,082653.305,V*3B
$GPVTG,3.96,T,,M,32.2,N,59.7,K*54
$GPRMC,082655.305,V,3855.051,N,07702.569,W,78.2,3.96,190416,,E*44
$GPGGA,082656.305,3855.051,N,07702.569,W,0,04,0.6,,M,,M,,*73
$GPGLL,3855.051,N,07702.569,W,082657.305,V*3E
$GPVTG,3.96,T,,M,78.2,N,144.8,K*68
$GPRMC,082659.305,V,3855.053,N,07702.569,W,27.9,3.91,190416,,E*4C
$GPGGA,082700.305,3855.053,N,07702.569,W,0,04,0.6,,M,,M,,*73
$GPGLL,3855.053,N,07702.569,W,082701.305,V*3E
$GPVTG,3.91,T,,M,27.9,N,51.7,K*54
$GPRMC,082703.305,V,3855.055,N,07702.569,W,50.1,3.89,190416,,E*45
$GPGGA,082704.305,3855.055,N,07702.569,W,0,04,0.6,,M,,M,,*71
$GPGLL,3855.055,N,07702.569,W,082705.305,V*3C
$GPVTG,3.89,T,,M,50.1,N,92.7,K*5A
$GPRMC,082707.305,V,3855.057,N,07702.570,W,81.6,3.89,190416,,E*40
$GPGGA,082708.305,3855.057,N,07702.570,W,0,04,0.6,,M,,M,,*77
$GPGLL,3855.057,N,07702.570,W,082709.305,V*3A
$GPVTG,3.89,T,,M,81.6,N,151.1,K*69
$GPRMC,082711.305,V,3855.058,N,07702.571,W,98.6,3.45,190416,,E*41
$GPGGA,082712.305,3855.058,N,07702.571,W,0,04,0.6,,M,,M,,*72
$GPGLL,3855.058,N,07702.571,W,082713.305,V*3F
$GPVTG,3.45,T,,M,98.6,N,182.5,K*6B
$GPRMC,082715.305,V,3855.059,N,07702.572,W,37.1,3.42,190416,,E*42
$GPGGA,082716.305,3855.059,N,07702.572,W,0,04,0.6,,M,,M,,*74
$GPGLL,3855.059,N,07702.572,W,082717.305,V*39
$GPVTG,3.42,T,,M,37.1,N,68.6,K*58
$GPRMC,082719.305,V,3855.060,N,07702.574,W,25.6,3.44,190416,,E*40
$GPGGA,082720.305,3855.060,N,07702.574,W,0,04,0.6,,M,,M,,*7D
$GPGLL,3855.060,N,07702.574,W,082721.305,V*30
$GPVTG,3.44,T,,M,25.6,N,47.5,K*54
$GPRMC,082723.305,V,3855.061,N,07702.575,W,27.0,3.46,190416,,E*4F
$GPGGA,082724.305,3855.061,N,07702.575,W,0,04,0.6,,M,,M,,*79
$GPGLL,3855.061,N,07702.575,W,082725.305,V*34
$GPVTG,3.46,T,,M,27.0,N,50.0,K*51
$GPRMC,082727.305,V,3855.062,N,07702.577,W,38.2,3.39,190416,,E*4E
$GPGGA,082728.305,3855.062,N,07702.577,W,0,04,0.6,,M,,M,,*74
$GPGLL,3855.062,N,07702.577,W,082729.305,V*39
$GPVTG,3.39,T,,M,38.2,N,70.8,K*5F
$GPRMC,082731.305,V,3855.064,N,07702.578,W,23.2,3.47,190416,,E*43
$GPGGA,082732.305,3855.064,N,07702.578,W,0,04,0.6,,M,,M,,*76
$GPGLL,3855.064,N,07702.578,W,082733.305,V*3B
$GPVTG,3.47,T,,M,23.2,N,43.1,K*55
$GPRMC,082735.305,V,3855.064,N,07702.580,W,85.0,3.16,190416,,E*4A
$GPGGA,082736.305,3855.064,N,07702.580,W,0,04,0.6,,M,,M,,*75
$GPGLL,3855.064,N,07702.580,W,082737.305,V*38
$GPVTG,3.16,T,,M,85.0,N,157.4,K*6E
$GPRMC,082739.305,V,3855.065,N,07702.581,W,22.9,3.23,190416,,E*44
$GPGGA,082740.305,3855.065,N,07702.581,W,0,04,0.6,,M,,M,,*74
$GPGLL,3855.065,N,07702.581,W,082741.305,V*39
$GPVTG,3.23,T,,M,22.9,N,42.3,K*5E
$GPRMC,082743.305,V,3855.065,N,07702.583,W,82.7,3.28,190416,,E*44
$GPGGA,082744.305,3855.065,N,07702.583,W,0,04,0.6,,M,,M,,*72
$GPGLL,3855.065,N,07702.583,W,082745.305,V*3F
$GPVTG,3.28,T,,M,82.7,N,153.2,K*61
$GPRMC,082747.305,V,3855.066,N,07702.584,W,90.6,3.37,190416,,E*48
$GPGGA,082748.305,3855.066,N,07702.584,W,0,04,0.6,,M,,M,,*7A
$GPGLL,3855.066,N,07702.584,W,082749.305,V*37
$GPVTG,3.37,T,,M,90.6,N,167.7,K*6F
$GPRMC,082751.305,V,3855.067,N,07702.586,W,24.2,3.30,190416,,E*40
$GPGGA,082752.305,3855.067,N,07702.586,W,0,04,0.6,,M,,M,,*72
$GPGLL,3855.067,N,07702.586,W,082753.305,V*3F
$GPVTG,3.30,T,,M,24.2,N,44.7,K*53
$GPRMC,082755.305,V,3855.068,N,07702.588,W,47.4,3.31,190416,,E*47
$GPGGA,082756.305,3855.068,N,07702.588,W,0,04,0.6,,M,,M,,*77
$GPGLL,3855.068,N,07702.588,W,082757.305,V*3A
$GPVTG,3.31,T,,M,47.4,N,87.7,K*5E
$GPRMC,082759.305,V,3855.069,N,07702.589,W,97.0,3.29,190416,,E*4B
$GPGGA,082800.305,3855.069,N,07702.589,W,0,04,0.6,,M,,M,,*7B
$GPGLL,3855.069,N,07702.589,W,082801.305,V*36
$GPVTG,3.29,T,,M,97.0,N,179.7,K*6E
$GPRMC,082803.305,V,3855.070,N,07702.591,W,19.8,3.23,190416,,E*4E
$GPGGA,082804.305,3855.070,N,07702.591,W,0,04,0.6,,M,,M,,*7E
$GPGLL,3855.070,N,07702.591,W,082805.305,V*33
$GPVTG,3.23,T,,M,19.8,N,36.7,K*50
$GPRMC,082807.305,V,3855.070,N,07702.593,W,82.6,3.21,190416,,E*46
$GPGGA,082808.305,3855.070,N,07702.593,W,0,04,0.6,,M,,M,,*70
$GPGLL,3855.070,N,07702.593,W,082809.305,V*3D
$GPVTG,3.21,T,,M,82.6,N,153.0,K*6B
$GPRMC,082811.305,V,3855.071,N,07702.594,W,70.4,3.24,190416,,E*4D
$GPGGA,082812.305,3855.071,N,07702.594,W,0,04,0.6,,M,,M,,*7D
$GPGLL,3855.071,N,07702.594,W,082813.305,V*30
$GPVTG,3.24,T,,M,70.4,N,130.4,K*60
$GPGSA,A,3,05,19,12,18,02,14,,,,,,,0.6,0.6,0.5*37
$GPGSV,2,1,06,05,57,295,17,19,09,057,87,12,53,262,25,18,48,125,51*7C
$GPGSV,2,2,06,02,53,103,88,14,37,207,18*74
$GPRMC,082818.305,V,3855.072,N,07702.596,W,16.7,3.32,190416,,E*41
$GPGGA,082819.305,3855.072,N,07702.596,W,0,04,0.6,,M,,M,,*77
$GPGLL,3855.072,N,07702.596,W,082820.305,V*31
$GPVTG,3.32,T,,M,16.7,N,30.9,K*58
$GPRMC,082822.305,V,3855.073,N,07702.597,W,89.6,3.42,190416,,E*48
$GPGGA,082823.305,3855.073,N,07702.597,W,0,04,0.6,,M,,M,,*7E
$GPGLL,3855.073,N,07702.597,W,082824.305,V*35
$GPVTG,3.42,T,,M,89.6,N,166.0,K*63
$GPRMC,082826.305,V,3855.074,N,07702.599,W,90.4,3.32,190416,,E*48
$GPGGA,082827.305,3855.074,N,07702.599,W,0,04,0.6,,M,,M,,*73
$GPGLL,3855.074,N,07702.599,W,082828.305,V*30
$GPVTG,3.32,T,,M,90.4,N,167.5,K*6A
$GPGSA,A,2,05,19,12,18,02,14,,,,,,,0.0,0.1,0.3*31
$GPGSV,2,1,06,05,71,202,15,19,67,263,54,12,33,293,50,18,59,332,25*7A
$GPGSV,2,2,06,02,52,347,39,14,80,039,82*7D
$GPRMC,082833.305,V,3855.075,N,07702.600,W,73.4,3.39,190416,,E*48
$GPGGA,082834.305,3855.075,N,07702.600,W,0,04,0.1,,M,,M,,*74
$GPGLL,3855.075,N,07702.600,W,082835.305,V*3E
$GPVTG,3.39,T,,M,73.4,N,135.9,K*67
$GPRMC,082837.305,V,3855.076,N,07702.602,W,7.5,3.39,190416,,E*7F
$GPGGA,082838.305,3855.076,N,07702.602,W,0,04,0.1,,M,,M,,*79
$GPGLL,3855.076,N,07702.602,W,082839.305,V*33
$GPVTG,3.39,T,,M,7.5,N,14.0,K*6E
$GPRMC,082841.305,V,3855.077,N,07702.603,W,44.8,3.44,190416,,E*4E
$GPGGA,082842.305,3855.077,N,07702.603,W,0,04,0.1,,M,,M,,*74
$GPGLL,3855.077,N,07702.603,W,082843.305,V*3E
$GPVTG,3.44,T,,M,44.8,N,82.9,K*58
$GPRMC,082845.305,V,3855.078,N,07702.605,W,5.9,3.39,190416,,E*7D
$GPGGA,082846.305,3855.078,N,07702.605,W,0,04,0.1,,M,,M,,*79
$GPGLL,3855.078,N,07702.605,W,082847.305,V*33
$GPVTG,3.39,T,,M,5.9,N,10.9,K*6D
$GPGSA,A,2,05,19,12,18,02,14,,,,,,,0.9,0.8,0.7*35
$GPGSV,2,1,06,05,08,118,46,19,11,180,72,12,41,018,74,18,50,149,35*75
$GPGSV,2,2,06,02,12,251,88,14,51,182,30*71
$GPRMC,082852.305,V,3855.079,N,07702.606,W,58.4,3.41,190416,,E*43
$GPGGA,082853.305,3855.079,N,07702.606,W,0,04,0.8,,M,,M,,*76
$GPGLL,3855.079,N,07702.606,W,082854.305,V*33
$GPVTG,3.41,T,,M,58.4,N,108.2,K*64
$GPRMC,082856.305,V,3855.080,N,07702.608,W,89.0,3.31,190416,,E*40
$GPGGA,082857.305,3855.080,N,07702.608,W,0,04,0.8,,M,,M,,*7A
$GPGLL,3855.080,N,07702.608,W,082858.305,V*37
$GPVTG,3.31,T,,M,89.0,N,164.8,K*6B
$GPRMC,082900.305,V,3855.080,N,07702.609,W,19.7,3.20,190416,,E*4D
$GPGGA,082901.305,3855.080,N,07702.609,W,0,04,0.8,,M,,M,,*79
$GPGLL,3855.080,N,07702.609,W,082902.305,V*38
$GPVTG,3.20,T,,M,19.7,N,36.5,K*5E
$GPGSA,A,2,05,19,12,18,02,14,,,,,,,0.4,0.6,0.6*37
$GPGSV,2,1,06,05,68,255,62,19,41,253,49,12,52,288,40,18,10,109,69*78
$GPGSV,2,2,06,02,75,180,63,14,82,157,26*7B
$GPRMC,082907.305,V,3855.081,N,07702.611,W,57.1,3.14,190416,,E*49
$GPGGA,082908.305,3855.081,N,07702.611,W,0,04,0.6,,M,,M,,*76
$GPGLL,3855.081,N,07702.611,W,082909.305,V*3B
$GPVTG,3.14,T,,M,57.1,N,105.7,K*66
$GPRMC,082911.305,V,3855.081,N,07702.613,W,69.7,2.97,190416,,E*4D
$GPGGA,082912.305,3855.081,N,07702.613,W,0,04,0.6,,M,,M,,*7F
$GPGLL,3855.081,N,07702.613,W,082913.305,V*32
$GPVTG,2.97,T,,M,69.7,N,129.0,K*6E
$GPRMC,082915.305,V,3855.081,N,07702.615,W,98.2,2.98,190416,,E*4B
$GPGGA,082916.305,3855.081,N,07702.615,W,0,04,0.6,,M,,M,,*7D
$GPGLL,3855.081,N,07702.615,W,082917.305,V*30
$GPVTG,2.98,T,,M,98.2,N,181.9,K*61
$GPRMC,082919.305,V,3855.081,N,07702.617,W,0.4,3.00,190416,,E*72
$GPGGA,082920.305,3855.081,N,07702.617,W,0,04,0.6,,M,,M,,*7A
$GPGLL,3855.081,N,07702.617,W,082921.305,V*37
$GPVTG,3.00,T,,M,0.4,N,0.8,K*5F
$GPRMC,082923.305,V,3855.081,N,07702.618,W,13.2,2.97,190416,,E*4F
$GPGGA,082924.305,3855.081,N,07702.618,W,0,04,0.6,,M,,M,,*71
$GPGLL,3855.081,N,07702.618,W,082925.305,V*3C
$GPVTG,2.97,T,,M,13.2,N,24.5,K*5F
$GPRMC,082927.305,V,3855.081,N,07702.620,W,30.2,3.02,190416,,E*4C
$GPGGA,082928.305,3855.081,N,07702.620,W,0,04,0.6,,M,,M,,*76
$GPGLL,3855.081,N,07702.620,W,082929.305,V*3B
$GPVTG,3.02,T,,M,30.2,N,55.9,K*59
$GPRMC,082931.305,V,3855.081,N,07702.622,W,19.4,2.99,190416,,E*47
$GPGGA,082932.305,3855.081,N,07702.622,W,0,04,0.6,,M,,M,,*7F
$GPGLL,3855.081,N,07702.622,W,082933.305,V*32
$GPVTG,2.99,T,,M,19.4,N,36.0,K*5B
$GPGSA,A,2,05,19,12,18,02,14,,,,,,,0.4,0.3,0.3*37
$GPGSV,2,1,06,05,44,308,79,19,08,327,75,12,66,100,27,18,81,340,50*7D
$GPGSV,2,2,06,02,70,117,67,14,73,290,17*70
$GPRMC,082938.305,V,3855.081,N,07702.624,W,33.7,3.06,190416,,E*44
$GPGGA,082939.305,3855.081,N,07702.624,W,0,04,0.3,,M,,M,,*77
$GPGLL,3855.081,N,07702.624,W,082940.305,V*30
$GPVTG,3.06,T,,M,33.7,N,62.4,K*52
$GPRMC,082942.305,V,3855.081,N,07702.626,W,65.1,3.13,190416,,E*4A
$GPGGA,082943.305,3855.081,N,07702.626,W,0,04,0.3,,M,,M,,*78
$GPGLL,3855.081,N,07702.626,W,082944.305,V*36
$GPVTG,3.13,T,,M,65.1,N,120.6,K*66
$GPRMC,082946.305,V,3855.082,N,07702.627,W,85.2,3.22,190416,,E*43
$GPGGA,082947.305,3855.082,N,07702.627,W,0,04,0.3,,M,,M,,*7E
$GPGLL,3855.082,N,07702.627,W,082948.305,V*38
$GPVTG,3.22,T,,M,85.2,N,157.7,K*68
$GPRMC,082950.305,V,3855.082,N,07702.629,W,94.5,3.28,190416,,E*47
$GPGGA,082951.305,3855.082,N,07702.629,W,0,04,0.3,,M,,M,,*77
$GPGLL,3855.082,N,07702.629,W,082952.305,V*3D
$GPVTG,3.28,T,,M,94.5,N,175.0,K*62
$GPRMC,082954.305,V,3855.084,N,07702.630,W,49.4,3.51,190416,,E*42
$GPGGA,082955.305,3855.084,N,07702.630,W,0,04,0.3,,M,,M,,*7D
$GPGLL,3855.084,N,07702.630,W,082956.305,V*37
$GPVTG,3.51,T,,M,49.4,N,91.5,K*53
$GPGSA,A,3,05,19,12,18,02,14,,,,,,,0.6,0.4,0.2*32
$GPGSV,2,1,06,05,87,335,80,19,14,121,55,12,21,229,48,18,56,152,21*7E
$GPGSV,2,2,06,02,80,107,82,14,27,132,70*7E
$GPRMC,083001.305,V,3855.085,N,07702.631,W,63.7,3.49,190416,,E*48
$GPGGA,083002.305,3855.085,N,07702.631,W,0,04,0.4,,M,,M,,*70
$GPGLL,3855.085,N,07702.631,W,083003.305,V*3F
$GPVTG,3.49,T,,M,63.7,N,118.0,K*64
$GPRMC,083005.305,V,3855.086,N,07702.633,W,78.2,3.41,190416,,E*4A
$GPGGA,083006.305,3855.086,N,07702.633,W,0,04,0.4,,M,,M,,*75
$GPGLL,3855.086,N,07702.633,W,083007.305,V*3A
$GPVTG,3.41,T,,M,78.2,N,144.9,K*63
$GPGSA,A,2,05,19,12,18,02,14,,,,,,,0.9,0.9,0.5*36
$GPGSV,2,1,06,05,65,052,87,19,29,202,43,12,49,175,68,18,33,299,59*72
$GPGSV,2,2,06,02,32,138,21,14,07,199,22*76
$GPRMC,083012.305,V,3855.087,N,07702.634,W,79.0,3.52,190416,,E*4B
$GPGGA,083013.305,3855.087,N,07702.634,W,0,04,0.9,,M,,M,,*7A
$GPGLL,3855.087,N,07702.634,W,083014.305,V*3E
$GPVTG,3.52,T,,M,79.0,N,146.3,K*6A
$GPRMC,083016.305,V,3855.088,N,07702.636,W,66.9,3.19,190416,,E*4A
$GPGGA,083017.305,3855.088,N,07702.636,W,0,04,0.9,,M,,M,,*73
$GPGLL,3855.088,N,07702.636,W,083018.305,V*3F
$GPVTG,3.19,T,,M,66.9,N,123.9,K*6B
$GPRMC,083020.305,V,3855.088,N,07702.638,W,94.1,3.09,190416,,E*45
$GPGGA,083021.305,3855.088,N,07702.638,W,0,04,0.9,,M,,M,,*78
$GPGLL,3855.088,N,07702.638,W,083022.305,V*38
$GPVTG,3.09,T,,M,94.1,N,174.2,K*66
$GPRMC,083024.305,V,3855.089,N,07702.639,W,73.2,3.20,190416,,E*40
$GPGGA,083025.305,3855.089,N,07702.639,W,0,04,0.9,,M,,M,,*7C
$GPGLL,3855.089,N,07702.639,W,083026.305,V*3C
$GPVTG,3.20,T,,M,73.2,N,135.6,K*66
$GPRMC,083028.305,V,3855.090,N,07702.640,W,31.4,3.63,190416,,E*4D
$GPGGA,083029.305,3855.090,N,07702.640,W,0,04,0.9,,M,,M,,*76
$GPGLL,3855.090,N,07702.640,W,083030.305,V*3D
$GPVTG,3.63,T,,M,31.4,N,58.2,K*5F
$GPRMC,083032.305,V,3855.092,N,07702.641,W,72.7,3.73,190416,,E*40
$GPGGA,083033.305,3855.092,N,07702.641,W,0,04,0.9,,M,,M,,*7E
$GPGLL,3855.092,N,07702.641,W,083034.305,V*3A
$GPVTG,3.73,T,,M,72.7,N,134.7,K*64
$GPGSA,A,2,05,19,12,18,02,14,,,,,,,0.3,0.1,0.4*35
$GPGSV,2,1,06,05,49,000,88,19,13,132,75,12,38,351,43,18,33,308,30*75
$GPGSV,2,2,06,02,57,137,61,14,81,113,51*76
$GPRMC,083039.305,V,3855.093,N,07702.642,W,23.7,3.66,190416,,E*49
$GPGGA,083040.305,3855.093,N,07702.642,W,0,04,0.1,,M,,M,,*70
$GPGLL,3855.093,N,07702.642,W,083041.305,V*3A
$GPVTG,3.66,T,,M,23.7,N,43.8,K*5A
$GPGSA,A,2,05,19,12,18,02,14,,,,,,,0.7,0.6,0.5*37
$GPGSV,2,1,06,05,79,170,64,19,48,286,71,12,45,337,22,18,65,338,33*7A
$GPGSV,2,2,06,02,07,296,80,14,77,023,15*7F
$GPRMC,083046.305,V,3855.095,N,07702.643,W,51.0,3.66,190416,,E*44
$GPGGA,083047.305,3855.095,N,07702.643,W,0,04,0.6,,M,,M,,*77
$GPGLL,3855.095,N,07702.643,W,083048.305,V*34
$GPVTG,3.66,T,,M,51.0,N,94.5,K*5F
$GPRMC,083050.305,V,3855.096,N,07702.644,W,8.7,3.57,190416,,E*7E
$GPGGA,083051.305,3855.096,N,07702.644,W,0,04,0.6,,M,,M,,*74
$GPGLL,3855.096,N,07702.644,W,083052.305,V*3B
$GPVTG,3.57,T,,M,8.7,N,16.2,K*6B
$GPGSA,A,2,05,19,12,18,02,14,,,,,,,0.4,0.0,0.2*35
$GPGSV,2,1,06,05,57,249,88,19,43,094,36,12,56,147,46,18,89,211,33*79
$GPGSV,2,2,06,02,57,104,22,14,66,154,75*7D
$GPRMC,083057.305,V,3855.098,N,07702.645,W,19.8,3.62,190416,,E*4F
$GPGGA,083058.305,3855.098,N,07702.645,W,0,04,0.0,,M,,M,,*74
$GPGLL,3855.098,N,07702.645,W,083059.305,V*3F
$GPVTG,3.62,T,,M,19.8,N,36.7,K*55
$GPRMC,083101.305,V,3855.099,N,07702.646,W,89.2,3.64,190416,,E*4A
$GPGGA,083102.305,3855.099,N,07702.646,W,0,04,0.0,,M,,M,,*78
$GPGLL,3855.099,N,07702.646,W,083103.305,V*33
$GPVTG,3.64,T,,M,89.2,N,165.2,K*62
$GPRMC,083105.305,V,3855.101,N,07702.647,W,61.3,3.72,190416,,E*4F
$GPGGA,083106.305,3855.101,N,07702.647,W,0,04,0.0,,M,,M,,*7D
$GPGLL,3855.101,N,07702.647,W,083107.305,V*36
$GPVTG,3.72,T,,M,61.3,N,113.6,K*67
$GPGSA,A,3,05,19,12,18,02,14,,,,,,,0.2,0.5,0.4*31
$GPGSV,2,1,06,05,72,036,58,19,76,189,61,12,67,124,22,18,10,034,51*74
$GPGSV,2,2,06,02,17,143,79,14,75,155,64*77
$GPRMC,083112.305,V,3855.103,N,07702.647,W,62.7,3.71,190416,,E*4F
$GPGGA,083113.305,3855.103,N,07702.647,W,0,04,0.5,,M,,M,,*7E
$GPGLL,3855.103,N,07702.647,W,083114.305,V*36
$GPVTG,3.71,T,,M,62.7,N,116.0,K*60
$GPRMC,083116.305,V,3855.104,N,07702.648,W,26.8,3.67,190416,,E*4B
$GPGGA,083117.305,3855.104,N,07702.648,W,0,04,0.5,,M,,M,,*72
$GPGLL,3855.104,N,07702.648,W,083118.305,V*32
$GPVTG,3.67,T,,M,26.8,N,49.7,K*54
$GPGSA,A,2,05,19,12,18,02,14,,,,,,,0.4,0.9,0.7*39
$GPGSV,2,1,06,05,62,223,56,19,36,082,19,12,15,262,82,18,85,212,86*72
$GPGSV,2,2,06,02,10,278,72,14,34,016,71*77
$GPRMC,083123.305,V,3855.106,N,07702.649,W,52.0,3.63,190416,,E*41
$GPGGA,083124.305,3855.106,N,07702.649,W,0,04,0.9,,M,,M,,*7D
$GPGLL,3855.106,N,07702.649,W,083125.305,V*3F
$GPVTG,3.63,T,,M,52.0,N,96.3,K*5D
$GPGSA,A,2,05,19,12,18,02,14,,,,,,,0.8,0.4,0.2*3D
$GPGSV,2,1,06,05,18,220,69,19,87,341,45,12,41,039,23,18,67,277,36*7D
$GPGSV,2,2,06,02,61,143,56,14,89,273,88*7D
$GPRMC,083130.305,V,3855.107,N,07702.650,W,75.7,3.74,190416,,E*4E
$GPGGA,083131.305,3855.107,N,07702.650,W,0,04,0.4,,M,,M,,*7D
$GPGLL,3855.107,N,07702.650,W,083132.305,V*30
$GPVTG,3.74,T,,M,75.7,N,140.1,K*61
$GPRMC,083134.305,V,3855.109,N,07702.651,W,71.5,3.75,190416,,E*42
$GPGGA,083135.305,3855.109,N,07702.651,W,0,04,0.4,,M,,M,,*76
$GPGLL,3855.109,N,07702.651,W,083136.305,V*3B
$GPVTG,3.75,T,,M,71.5,N,132.5,K*67
$GPRMC,083138.305,V,3855.111,N,07702.651,W,11.1,3.83,190416,,E*4C
$GPGGA,083139.305,3855.111,N,07702.651,W,0,04,0.4,,M,,M,,*73
$GPGLL,3855.111,N,07702.651,W,083140.305,V*33
$GPVTG,3.83,T,,M,11.1,N,20.6,K*5D
$GPRMC,083142.305,V,3855.113,N,07702.652,W,96.4,3.83,190416,,E*4A
$GPGGA,083143.305,3855.113,N,07702.652,W,0,04,0.4,,M,,M,,*7F
$GPGLL,3855.113,N,07702.652,W,083144.305,V*36
$GPVTG,3.83,T,,M,96.4,N,178.5,K*68
$GPRMC,083146.305,V,3855.114,N,07702.652,W,9.4,3.81,190416,,E*7D
$GPGGA,083147.305,3855.114,N,07702.652,W,0,04,0.4,,M,,M,,*7C
$GPGLL,3855.114,N,07702.652,W,083148.305,V*3D
$GPVTG,3.81,T,,M,9.4,N,17.5,K*64
$GPRMC,083150.305,V,3855.115,N,07702.654,W,30.1,3.48,190416,,E*47
$GPGGA,083151.305,3855.115,N,07702.654,W,0,04,0.4,,M,,M,,*7C
$GPGLL,3855.115,N,07702.654,W,083152.305,V*31
$GPVTG,3.48,T,,M,30.1,N,55.7,K*5A
$GPRMC,083154.305,V,3855.117,N,07702.655,W,38.3,3.44,190416,,E*46
$GPGGA,083155.305,3855.117,N,07702.655,W,0,04,0.4,,M,,M,,*7B
$GPGLL,3855.117,N,07702.655,W,083156.305,V*36
$GPVTG,3.44,T,,M,38.3,N,70.9,K*55
$GPRMC,083158.305,V,3855.118,N,07702.656,W,86.6,3.49,190416,,E*4B
$GPGGA,083159.305,3855.118,N,07702.656,W,0,04,0.4,,M,,M,,*7B
$GPGLL,3855.118,N,07702.656,W,083200.305,V*3A
$GPVTG,3.49,T,,M,86.6,N,160.3,K*62
$GPGSA,A,3,05,19,12,18,02,14,,,,,,,0.8,0.4,0.6*38
$GPGSV,2,1,06,05,10,254,16,19,26,196,75,12,44,245,62,18,17,291,29*76
$GPGSV,2,2,06,02,61,010,23,14,64,169,27*76
$GPRMC,083205.305,V,3855.119,N,07702.658,W,65.8,3.40,190416,,E*45
$GPGGA,083206.305,3855.119,N,07702.658,W,0,04,0.4,,M,,M,,*7D
$GPGLL,3855.119,N,07702.658,W,083207.305,V*32
$GPVTG,3.40,T,,M,65.8,N,121.9,K*67
$GPRMC,083209.305,V,3855.120,N,07702.659,W,23.8,3.46,190416,,E*46
$GPGGA,083210.305,3855.120,N,07702.659,W,0,04,0.4,,M,,M,,*71
$GPGLL,3855.120,N,07702.659,W,083211.305,V*3E
$GPVTG,3.46,T,,M,23.8,N,44.1,K*59
$GPGSA,A,2,05,19,12,18,02,14,,,,,,,0.2,0.7,0.8*3E
$GPGSV,2,1,06,05,31,263,36,19,36,147,17,12,76,148,85,18,21,311,37*7F
$GPGSV,2,2,06,02,60,164,45,14,85,033,17*77
$GPRMC,083216.305,V,3855.121,N,07702.660,W,25.8,3.40,190416,,E*43
$GPGGA,083217.305,3855.121,N,07702.660,W,0,04,0.7,,M,,M,,*7E
$GPGLL,3855.121,N,07702.660,W,083218.305,V*3C
$GPVTG,3.40,T,,M,25.8,N,47.9,K*52
$GPRMC,083220.305,V,3855.122,N,07702.662,W,36.9,3.44,190416,,E*40
$GPGGA,083221.305,3855.122,N,07702.662,W,0,04,0.7,,M,,M,,*7A
$GPGLL,3855.122,N,07702.662,W,083222.305,V*34
$GPVTG,3.44,T,,M,36.9,N,68.4,K*55
$GPRMC,083224.305,V,3855.124,N,07702.663,W,32.8,3.48,190416,,E*4A
$GPGGA,083225.305,3855.124,N,07702.663,W,0,04,0.7,,M,,M,,*79
$GPGLL,3855.124,N,07702.663,W,083226.305,V*37
$GPVTG,3.48,T,,M,32.8,N,60.8,K*58
$GPRMC,083228.305,V,3855.125,N,07702.665,W,68.5,3.40,190416,,E*4B
$GPGGA,083229.305,3855.125,N,07702.665,W,0,04,0.7,,M,,M,,*72
$GPGLL,3855.125,N,07702.665,W,083230.305,V*37
$GPVTG,3.40,T,,M,68.5,N,126.9,K*60
$GPRMC,083232.305,V,3855.126,N,07702.666,W,72.9,3.46,190416,,E*41
$GPGGA,083233.305,3855.126,N,07702.666,W,0,04,0.7,,M,,M,,*79
$GPGLL,3855.126,N,07702.666,W,083234.305,V*33
$GPVTG,3.46,T,,M,72.9,N,135.1,K*6B
$GPGSA,A,2,05,19,12,18,02,14,,,,,,,0.0,0.3,0.8*38
$GPGSV,2,1,06,05,47,318,15,19,77,336,71,12,73,062,39,18,57,257,23*7F
$GPGSV,2,2,06,02,11,044,77,14,71,244,16*7B
$GPRMC,083239.305,V,3855.127,N,07702.667,W,26.9,3.41,190416,,E*4C
$GPGGA,083240.305,3855.127,N,07702.667,W,0,04,0.3,,M,,M,,*79
$GPGLL,3855.127,N,07702.667,W,083241.305,V*31
$GPVTG,3.41,T,,M,26.9,N,49.8,K*5E
$GPRMC,083243.305,V,3855.128,N,07702.669,W,37.3,3.35,190416,,E*49
$GPGGA,083244.305,3855.128,N,07702.669,W,0,04,0.3,,M,,M,,*7C
$GPGLL,3855.128,N,07702.669,W,083245.305,V*34
$GPVTG,3.35,T,,M,37.3,N,69.0,K*5D
$GPRMC,083247.305,V,3855.129,N,07702.671,W,73.2,3.30,190416,,E*41
$GPGGA,083248.305,3855.129,N,07702.671,W,0,04,0.3,,M,,M,,*78
$GPGLL,3855.129,N,07702.671,W,083249.305,V*30
$GPVTG,3.30,T,,M,73.2,N,135.6,K*67
$GPRMC,083251.305,V,3855.129,N,07702.672,W,70.6,3.21,190416,,E*42
$GPGGA,083252.305,3855.129,N,07702.672,W,0,04,0.3,,M,,M,,*70
$GPGLL,3855.129,N,07702.672,W,083253.305,V*38
$GPVTG,3.21,T,,M,70.6,N,130.8,K*6B
$GPGSA,A,3,05,19,12,18,02,14,,,,,,,0.6,0.9,0.2*3F
$GPGSV,2,1,06,05,47,061,85,19,10,321,23,12,58,173,56,18,50,034,67*7A
$GPGSV,2,2,06,02,68,076,48,14,54,025,70*7A
$GPRMC,083258.305,V,3855.130,N,07702.674,W,48.9,3.11,190416,,E*42
$GPGGA,083259.305,3855.130,N,07702.674,W,0,04,0.9,,M,,M,,*7F
$GPGLL,3855.130,N,07702.674,W,083300.305,V*31
$GPVTG,3.11,T,,M,48.9,N,90.5,K*5A
$GPRMC,083302.305,V,3855.130,N,07702.676,W,29.6,3.14,190416,,E*43
$GPGGA,083303.305,3855.130,N,07702.676,W,0,04,0.9,,M,,M,,*73
$GPGLL,3855.130,N,07702.676,W,083304.305,V*37
$GPVTG,3.14,T,,M,29.6,N,54.9,K*53
$GPRMC,083306.305,V,3855.130,N,07702.678,W,1.6,3.20,190416,,E*74
$GPGGA,083307.305,3855.130,N,07702.678,W,0,04,0.9,,M,,M,,*79
$GPGLL,3855.130,N,07702.678,W,083308.305,V*35
$GPVTG,3.20,T,,M,1.6,N,2.9,K*5D
$GPRMC,083310.305,V,3855.131,N,07702.679,W,81.3,3.13,190416,,E*4E
$GPGGA,083311.305,3855.131,N,07702.679,W,0,04,0.9,,M,,M,,*7E
$GPGLL,3855.131,N,07702.679,W,083312.305,V*3E
$GPVTG,3.13,T,,M,81.3,N,150.6,K*69
$GPRMC,083314.305,V,3855.131,N,07702.681,W,88.5,3.16,190416,,E*47
$GPGGA,083315.305,3855.131,N,07702.681,W,0,04,0.9,,M,,M,,*7D
$GPGLL,3855.131,N,07702.681,W,083316.305,V*3D
$GPVTG,3.16,T,,M,88.5,N,163.8,K*6D
$GPRMC,083318.305,V,3855.132,N,07702.683,W,2.5,3.24,190416,,E*79
$GPGGA,083319.305,3855.132,N,07702.683,W,0,04,0.9,,M,,M,,*70
$GPGLL,3855.132,N,07702.683,W,083320.305,V*39
$GPVTG,3.24,T,,M,2.5,N,4.7,K*51
$GPRMC,083322.305,V,3855.132,N,07702.684,W,42.8,3.15,190416,,E*4C
$GPGGA,083323.305,3855.132,N,07702.684,W,0,04,0.9,,M,,M,,*7E
$GPGLL,3855.132,N,07702.684,W,083324.305,V*3A
$GPVTG,3.15,T,,M,42.8,N,79.3,K*54
$GPRMC,083326.305,V,3855.133,N,07702.686,W,44.2,3.13,190416,,E*41
$GPGGA,083327.305,3855.133,N,07702.686,W,0,04,0.9,,M,,M,,*79
$GPGLL,3855.133,N,07702.686,W,083328.305,V*35
$GPVTG,3.13,T,,M,44.2,N,81.9,K*53
$GPRMC,083330.305,V,3855.133,N,07702.688,W,10.3,3.17,190416,,E*4C
$GPGGA,083331.305,3855.133,N,07702.688,W,0,04,0.9,,M,,M,,*70
$GPGLL,3855.133,N,07702.688,W,083332.305,V*30
$GPVTG,3.17,T,,M,10.3,N,19.1,K*5E
$GPRMC,083334.305,V,3855.134,N,07702.690,W,55.0,3.11,190416,,E*42
$GPGGA,083335.305,3855.134,N,07702.690,W,0,04,0.9,,M,,M,,*7A
$GPGLL,3855.134,N,07702.690,W,083336.305,V*3A
$GPVTG,3.11,T,,M,55.0,N,101.8,K*6B
$GPGSA,A,2,05,19,12,18,02,14,,,,,,,0.7,0.5,0.2*33
$GPGSV,2,1,06,05,89,105,76,19,21,258,78,12,06,264,34,18,69,258,24*7B
$GPGSV,2,2,06,02,17,351,43,14,83,083,45*7F
$GPRMC,083341.305,V,3855.134,N,07702.691,W,4.3,3.22,190416,,E*76
$GPGGA,083342.305,3855.134,N,07702.691,W,0,04,0.5,,M,,M,,*77
$GPGLL,3855.134,N,07702.691,W,083343.305,V*39
$GPVTG,3.22,T,,M,4.3,N,7.9,K*5A
$GPRMC,083345.305,V,3855.135,N,07702.693,W,74.9,3.21,190416,,E*4F
$GPGGA,083346.305,3855.135,N,07702.693,W,0,04,0.5,,M,,M,,*70
$GPGLL,3855.135,N,07702.693,W,083347.305,V*3E
$GPVTG,3.21,T,,M,74.9,N,138.8,K*68
$GPRMC,083349.305,V,3855.135,N,07702.695,W,50.4,3.24,190416,,E*4B
$GPGGA,083350.305,3855.135,N,07702.695,W,0,04,0.5,,M,,M,,*71
$GPGLL,3855.135,N,07702.695,W,083351.305,V*3F
$GPVTG,3.24,T,,M,50.4,N,93.4,K*5A
$GPRMC,083353.305,V,3855.136,N,07702.696,W,0.0,3.30,190416,,E*74
$GPGGA,083354.305,3855.136,N,07702.696,W,0,04,0.5,,M,,M,,*75
$GPGLL,3855.136,N,07702.696,W,083355.305,V*3B
$GPVTG,3.30,T,,M,0.0,N,0.1,K*51
$GPRMC,083357.305,V,3855.137,N,07702.698,W,79.8,3.34,190416,,E*4D
$GPGGA,083358.305,3855.137,N,07702.698,W,0,04,0.5,,M,,M,,*76
$GPGLL,3855.137,N,07702.698,W,083359.305,V*38
$GPVTG,3.34,T,,M,79.8,N,147.8,K*68
$GPRMC,083401.305,V,3855.138,N,07702.699,W,78.0,3.43,190416,,E*4E
$GPGGA,083402.305,3855.138,N,07702.699,W,0,04,0.5,,M,,M,,*70
$GPGLL,3855.138,N,07702.699,W,083403.305,V*3E
$GPVTG,3.43,T,,M,78.0,N,144.4,K*6E
$GPRMC,083405.305,V,3855.139,N,07702.701,W,56.2,3.16,190416,,E*45
$GPGGA,083406.305,3855.139,N,07702.701,W,0,04,0.5,,M,,M,,*75
$GPGLL,3855.139,N,07702.701,W,083407.305,V*3B
$GPVTG,3.16,T,,M,56.2,N,104.0,K*60
$GPRMC,083409.305,V,3855.138,N,07702.703,W,3.5,2.81,190416,,E*72
$GPGGA,083410.305,3855.138,N,07702.703,W,0,04,0.5,,M,,M,,*71
$GPGLL,3855.138,N,07702.703,W,083411.305,V*3F
$GPVTG,2.81,T,,M,3.5,N,6.5,K*5E
$GPRMC,083413.305,V,3855.138,N,07702.705,W,98.8,2.81,190416,,E*40
$GPGGA,083414.305,3855.138,N,07702.705,W,0,04,0.5,,M,,M,,*73
$GPGLL,3855.138,N,07702.705,W,083415.305,V*3D
$GPVTG,2.81,T,,M,98.8,N,182.9,K*60
$GPRMC,083417.305,V,3855.137,N,07702.706,W,69.5,2.86,190416,,E*4C
$GPGGA,083418.305,3855.137,N,07702.706,W,0,04,0.5,,M,,M,,*73
$GPGLL,3855.137,N,07702.706,W,083419.305,V*3D
$GPVTG,2.86,T,,M,69.5,N,128.7,K*6A
$GPRMC,083421.305,V,3855.137,N,07702.708,W,5.5,2.87,190416,,E*7C
$GPGGA,083422.305,3855.137,N,07702.708,W,0,04,0.5,,M,,M,,*74
$GPGLL,3855.137,N,07702.708,W,083423.305,V*3A
$GPVTG,2.87,T,,M,5.5,N,10.1,K*6D
$GPRMC,083425.305,V,3855.137,N,07702.710,W,25.5,2.95,190416,,E*40
$GPGGA,083426.305,3855.137,N,07702.710,W,0,04,0.5,,M,,M,,*79
$GPGLL,3855.137,N,07702.710,W,083427.305,V*37
$GPVTG,2.95,T,,M,25.5,N,47.3,K*5C
$GPRMC,083429.305,V,3855.136,N,07702.712,W,34.1,2.87,190416,,E*48
$GPGGA,083430.305,3855.136,N,07702.712,W,0,04,0.5,,M,,M,,*7D
$GPGLL,3855.136,N,07702.712,W,083431.305,V*33
$GPVTG,2.87,T,,M,34.1,N,63.2,K*5C
$GPRMC,083433.305,V,3855.136,N,07702.713,W,75.6,2.96,190416,,E*40
$GPGGA,083434.305,3855.136,N,07702.713,W,0,04,0.5,,M,,M,,*78
$GPGLL,3855.136,N,07702.713,W,083435.305,V*36
$GPVTG,2.96,T,,M,75.6,N,140.1,K*6D
$GPRMC,083437.305,V,3855.136,N,07702.715,W,12.0,2.94,190416,,E*47
$GPGGA,083438.305,3855.136,N,07702.715,W,0,04,0.5,,M,,M,,*72
$GPGLL,3855.136,N,07702.715,W,083439.305,V*3C
$GPVTG,2.94,T,,M,12.0,N,22.2,K*5E
$GPRMC,083441.305,V,3855.136,N,07702.717,W,59.9,2.97,190416,,E*41
$GPGGA,083442.305,3855.136,N,07702.717,W,0,04,0.5,,M,,M,,*7D
$GPGLL,3855.136,N,07702.717,W,083443.305,V*33
$GPVTG,2.97,T,,M,59.9,N,110.9,K*60
$GPRMC,083445.305,V,3855.135,N,07702.719,W,59.6,2.75,190416,,E*4B
$GPGGA,083446.305,3855.135,N,07702.719,W,0,04,0.5,,M,,M,,*74
$GPGLL,3855.135,N,07702.719,W,083447.305,V*3A
$GPVTG,2.75,T,,M,59.6,N,110.3,K*69
$GPGSA,A,2,05,19,12,18,02,14,,,,,,,0.1,0.0,1.0*33
$GPGSV,2,1,06,05,89,062,74,19,15,268,62,12,65,218,38,18,22,075,31*72
$GPGSV,2,2,06,02,71,153,79,14,43,078,48*73
$GPRMC,083452.305,V,3855.135,N,07702.720,W,76.1,2.77,190416,,E*4F
$GPGGA,083453.305,3855.135,N,07702.720,W,0,04,0.0,,M,,M,,*7F
$GPGLL,3855.135,N,07702.720,W,083454.305,V*32
$GPVTG,2.77,T,,M,76.1,N,140.9,K*6E
$GPRMC,083456.305,V,3855.134,N,07702.722,W,74.4,2.80,190416,,E*47
$GPGGA,083457.305,3855.134,N,07702.722,W,0,04,0.0,,M,,M,,*78
$GPGLL,3855.134,N,07702.722,W,083458.305,V*3D
$GPVTG,2.80,T,,M,74.4,N,137.8,K*60
$GPRMC,083500.305,V,3855.134,N,07702.724,W,23.0,2.86,190416,,E*43
$GPGGA,083501.305,3855.134,N,07702.724,W,0,04,0.0,,M,,M,,*7C
$GPGLL,3855.134,N,07702.724,W,083502.305,V*35
$GPVTG,2.86,T,,M,23.0,N,42.5,K*5E
$GPRMC,083504.305,V,3855.133,N,07702.726,W,87.1,2.81,190416,,E*4A
$GPGGA,083505.305,3855.133,N,07702.726,W,0,04,0.0,,M,,M,,*7D
$GPGLL,3855.133,N,07702.726,W,083506.305,V*34
$GPVTG,2.81,T,,M,87.1,N,161.3,K*60
$GPRMC,083508.305,V,3855.133,N,07702.727,W,39.1,2.81,190416,,E*42
$GPGGA,083509.305,3855.133,N,07702.727,W,0,04,0.0,,M,,M,,*70
$GPGLL,3855.133,N,07702.727,W,083510.305,V*32
$GPVTG,2.81,T,,M,39.1,N,72.4,K*51
$GPRMC,083512.305,V,3855.132,N,07702.729,W,51.4,2.90,190416,,E*4D
$GPGGA,083513.305,3855.132,N,07702.729,W,0,04,0.0,,M,,M,,*74
$GPGLL,3855.132,N,07702.729,W,083514.305,V*39
$GPVTG,2.90,T,,M,51.4,N,95.1,K*56
$GPRMC,083516.305,V,3855.132,N,07702.731,W,91.9,3.01,190416,,E*48
$GPGGA,083517.305,3855.132,N,07702.731,W,0,04,0.0,,M,,M,,*79
$GPGLL,3855.132,N,07702.731,W,083518.305,V*3C
$GPVTG,3.01,T,,M,91.9,N,170.3,K*66
$GPRMC,083520.305,V,3855.132,N,07702.733,W,28.7,2.99,190416,,E*43
$GPGGA,083521.305,3855.132,N,07702.733,W,0,04,0.0,,M,,M,,*7E
$GPGLL,3855.132,N,07702.733,W,083522.305,V*37
$GPVTG,2.99,T,,M,28.7,N,53.2,K*5B
$GPRMC,083524.305,V,3855.132,N,07702.734,W,87.5,2.99,190416,,E*47
$GPGGA,083525.305,3855.132,N,07702.734,W,0,04,0.0,,M,,M,,*7D
$GPGLL,3855.132,N,07702.734,W,083526.305,V*34
$GPVTG,2.99,T,,M,87.5,N,162.1,K*6C
$GPRMC,083528.305,V,3855.132,N,07702.736,W,13.6,2.90,190416,,E*4E
$GPGGA,083529.305,3855.132,N,07702.736,W,0,04,0.0,,M,,M,,*73
$GPGLL,3855.132,N,07702.736,W,083530.305,V*31
$GPVTG,2.90,T,,M,13.6,N,25.1,K*59
$GPGSA,A,2,05,19,12,18,02,14,,,,,,,0.4,0.8,0.5*3A
$GPGSV,2,1,06,05,47,041,38,19,19,332,54,12,73,082,47,18,15,262,73*76
$GPGSV,2,2,06,02,71,135,73,14,10,325,19*70
$GPRMC,083535.305,V,3855.132,N,07702.738,W,37.8,3.01,190416,,E*4D
$GPGGA,083536.305,3855.132,N,07702.738,W,0,04,0.8,,M,,M,,*7B
$GPGLL,3855.132,N,07702.738,W,083537.305,V*38
$GPVTG,3.01,T,,M,37.8,N,70.1,K*58
$GPRMC,083539.305,V,3855.132,N,07702.740,W,34.5,2.90,190416,,E*49
$GPGGA,083540.305,3855.132,N,07702.740,W,0,04,0.8,,M,,M,,*75
$GPGLL,3855.132,N,07702.740,W,083541.305,V*36
$GPVTG,2.90,T,,M,34.5,N,63.9,K*55
$GPRMC,083543.305,V,3855.132,N,07702.742,W,70.7,2.95,190416,,E*41
$GPGGA,083544.305,3855.132,N,07702.742,W,0,04,0.8,,M,,M,,*73
$GPGLL,3855.132,N,07702.742,W,083545.305,V*30
$GPVTG,2.95,T,,M,70.7,N,131.0,K*6D
$GPRMC,083547.305,V,3855.132,N,07702.743,W,40.7,3.03,190416,,E*49
$GPGGA,083548.305,3855.132,N,07702.743,W,0,04,0.8,,M,,M,,*7E
$GPGLL,3855.132,N,07702.743,W,083549.305,V*3D
$GPVTG,3.03,T,,M,40.7,N,75.4,K*55
$GPGSA,A,3,05,19,12,18,02,14,,,,,,,0.5,0.7,0.1*31
$GPGSV,2,1,06,05,21,220,24,19,08,256,81,12,68,204,40,18,41,124,36*75
$GPGSV,2,2,06,02,38,233,65,14,48,347,31*7C
$GPRMC,083554.305,V,3855.132,N,07702.745,W,14.9,3.10,190416,,E*40
$GPGGA,083555.305,3855.132,N,07702.745,W,0,04,0.7,,M,,M,,*7B
$GPGLL,3855.132,N,07702.745,W,083556.305,V*35
$GPVTG,3.10,T,,M,14.9,N,27.5,K*5E
$GPGSA,A,2,05,19,12,18,02,14,,,,,,,0.2,0.1,1.0*31
$GPGSV,2,1,06,05,52,292,44,19,46,034,84,12,50,047,63,18,50,098,63*7E
$GPGSV,2,2,06,02,88,103,24,14,77,182,46*75
$GPRMC,083601.305,V,3855.132,N,07702.747,W,28.1,3.01,190416,,E*46
$GPGGA,083602.305,3855.132,N,07702.747,W,0,04,0.1,,M,,M,,*7E
$GPGLL,3855.132,N,07702.747,W,083603.305,V*34
$GPVTG,3.01,T,,M,28.1,N,52.0,K*5E
$GPGSA,A,3,05,19,12,18,02,14,,,,,,,0.3,0.8,0.0*39
$GPGSV,2,1,06,05,34,243,73,19,31,050,72,12,43,140,36,18,43,241,47*7B
$GPGSV,2,2,06,02,45,006,80,14,56,034,20*71
$GPRMC,083608.305,V,3855.132,N,07702.749,W,84.6,2.95,190416,,E*4C
$GPGGA,083609.305,3855.132,N,07702.749,W,0,04,0.8,,M,,M,,*72
$GPGLL,3855.132,N,07702.749,W,083610.305,V*38
$GPVTG,2.95,T,,M,84.6,N,156.6,K*60
$GPRMC,083612.305,V,3855.132,N,07702.751,W,95.5,2.88,190416,,E*41
$GPGGA,083613.305,3855.132,N,07702.751,W,0,04,0.8,,M,,M,,*70
$GPGLL,3855.132,N,07702.751,W,083614.305,V*35
$GPVTG,2.88,T,,M,95.5,N,176.9,K*62
$GPRMC,083616.305,V,3855.131,N,07702.752,W,90.5,2.89,190416,,E*41
$GPGGA,083617.305,3855.131,N,07702.752,W,0,04,0.8,,M,,M,,*74
$GPGLL,3855.131,N,07702.752,W,083618.305,V*39
$GPVTG,2.89,T,,M,90.5,N,167.6,K*69
$GPRMC,083620.305,V,3855.131,N,07702.754,W,58.2,2.87,190416,,E*4F
$GPGGA,083621.305,3855.131,N,07702.754,W,0,04,0.8,,M,,M,,*77
$GPGLL,3855.131,N,07702.754,W,083622.305,V*36
$GPVTG,2.87,T,,M,58.2,N,107.8,K*6C
$GPRMC,083624.305,V,3855.131,N,07702.756,W,76.7,2.89,190416,,E*4E
$GPGGA,083625.305,3855.131,N,07702.756,W,0,04,0.8,,M,,M,,*71
$GPGLL,3855.131,N,07702.756,W,083626.305,V*30
$GPVTG,2.89,T,,M,76.7,N,142.1,K*63
$GPRMC,083628.305,V,3855.130,N,07702.758,W,63.2,2.94,190416,,E*40
$GPGGA,083629.305,3855.130,N,07702.758,W,0,04,0.8,,M,,M,,*72
$GPGLL,3855.130,N,07702.758,W,083630.305,V*38
$GPVTG,2.94,T,,M,63.2,N,117.1,K*6E
$GPRMC,083632.305,V,3855.130,N,07702.759,W,59.9,2.90,190416,,E*4C
$GPGGA,083633.305,3855.130,N,07702.759,W,0,04,0.8,,M,,M,,*78
$GPGLL,3855.130,N,07702.759,W,083634.305,V*3D
$GPVTG,2.90,T,,M,59.9,N,111.0,K*6F
$GPRMC,083636.305,V,3855.130,N,07702.761,W,9.3,2.83,190416,,E*7E
$GPGGA,083637.305,3855.130,N,07702.761,W,0,04,0.8,,M,,M,,*77
$GPGLL,3855.130,N,07702.761,W,083638.305,V*3A
$GPVTG,2.83,T,,M,9.3,N,17.2,K*67
$GPGSA,A,2,05,19,12,18,02,14,,,,,,,0.9,0.4,0.8*36
$GPGSV,2,1,06,05,17,131,71,19,14,026,36,12,30,087,28,18,40,021,15*79
$GPGSV,2,2,06,02,88,136,52,14,54,008,51*76
$GPRMC,083643.305,V,3855.129,N,07702.763,W,34.0,2.84,190416,,E*4C
$GPGGA,083644.305,3855.129,N,07702.763,W,0,04,0.4,,M,,M,,*75
$GPGLL,3855.129,N,07702.763,W,083645.305,V*3A
$GPVTG,2.84,T,,M,34.0,N,62.9,K*54
$GPRMC,083647.305,V,3855.129,N,07702.765,W,65.6,2.86,190416,,E*4E
$GPGGA,083648.305,3855.129,N,07702.765,W,0,04,0.4,,M,,M,,*7F
$GPGLL,3855.129,N,07702.765,W,083649.305,V*30
$GPVTG,2.86,T,,M,65.6,N,121.5,K*6E
$GPRMC,083651.305,V,3855.128,N,07702.766,W,93.2,2.88,190416,,E*48
$GPGGA,083652.305,3855.128,N,07702.766,W,0,04,0.4,,M,,M,,*76
$GPGLL,3855.128,N,07702.766,W,083653.305,V*39
$GPVTG,2.88,T,,M,93.2,N,172.6,K*68
$GPRMC,083655.305,V,3855.128,N,07702.768,W,33.4,2.84,190416,,E*42
$GPGGA,083656.305,3855.128,N,07702.768,W,0,04,0.4,,M,,M,,*7C
$GPGLL,3855.128,N,07702.768,W,083657.305,V*33
$GPVTG,2.84,T,,M,33.4,N,61.9,K*54
$GPRMC,083659.305,V,3855.128,N,07702.770,W,14.6,2.83,190416,,E*47
$GPGGA,083700.305,3855.128,N,07702.770,W,0,04,0.4,,M,,M,,*77
$GPGLL,3855.128,N,07702.770,W,083701.305,V*38
$GPVTG,2.83,T,,M,14.6,N,27.1,K*5E
$GPRMC,083703.305,V,3855.127,N,07702.772,W,30.5,2.90,190416,,E*43
$GPGGA,083704.305,3855.127,N,07702.772,W,0,04,0.4,,M,,M,,*7E
$GPGLL,3855.127,N,07702.772,W,083705.305,V*31
$GPVTG,2.90,T,,M,30.5,N,56.6,K*58
$GPRMC,083707.305,V,3855.127,N,07702.773,W,77.0,2.90,190416,,E*40
$GPGGA,083708.305,3855.127,N,07702.773,W,0,04,0.4,,M,,M,,*73
$GPGLL,3855.127,N,07702.773,W,083709.305,V*3C
$GPVTG,2.90,T,,M,77.0,N,142.5,K*69
$GPRMC,083711.305,V,3855.127,N,07702.775,W,63.5,2.92,190416,,E*43
$GPGGA,083712.305,3855.127,N,07702.775,W,0,04,0.4,,M,,M,,*7E
$GPGLL,3855.127,N,07702.775,W,083713.305,V*31
$GPVTG,2.92,T,,M,63.5,N,117.7,K*69
$GPRMC,083715.305,V,3855.127,N,07702.777,W,38.5,2.97,190416,,E*4E
$GPGGA,083716.305,3855.127,N,07702.777,W,0,04,0.4,,M,,M,,*78
$GPGLL,3855.127,N,07702.777,W,083717.305,V*37
$GPVTG,2.97,T,,M,38.5,N,71.4,K*50
$GPRMC,083719.305,V,3855.127,N,07702.779,W,50.5,2.93,190416,,E*46
$GPGGA,083720.305,3855.127,N,07702.779,W,0,04,0.4,,M,,M,,*73
$GPGLL,3855.127,N,07702.779,W,083721.305,V*3C
$GPVTG,2.93,T,,M,50.5,N,93.6,K*54
$GPRMC,083723.305,V,3855.126,N,07702.781,W,43.3,2.99,190416,,E*47
$GPGGA,083724.305,3855.126,N,07702.781,W,0,04,0.4,,M,,M,,*71
$GPGLL,3855.126,N,07702.781,W,083725.305,V*3E
$GPVTG,2.99,T,,M,43.3,N,80.3,K*5D
$GPRMC,083727.305,V,3855.127,N,07702.782,W,41.8,3.01,190416,,E*48
$GPGGA,083728.305,3855.127,N,07702.782,W,0,04,0.4,,M,,M,,*7F
$GPGLL,3855.127,N,07702.782,W,083729.305,V*30
$GPVTG,3.01,T,,M,41.8,N,77.3,K*5C
$GPRMC,083731.305,V,3855.127,N,07702.784,W,37.2,3.05,190416,,E*46
$GPGGA,083732.305,3855.127,N,07702.784,W,0,04,0.4,,M,,M,,*72
$GPGLL,3855.127,N,07702.784,W,083733.305,V*3D
$GPVTG,3.05,T,,M,37.2,N,68.8,K*56
$GPRMC,083735.305,V,3855.127,N,07702.786,W,65.0,3.10,190416,,E*41
$GPGGA,083736.305,3855.127,N,07702.786,W,0,04,0.4,,M,,M,,*74
$GPGLL,3855.127,N,07702.786,W,083737.305,V*3B
$GPVTG,3.10,T,,M,65.0,N,120.4,K*66
$GPRMC,083739.305,V,3855.127,N,07702.788,W,77.7,3.02,190416,,E*44
$GPGGA,083740.305,3855.127,N,07702.788,W,0,04,0.4,,M,,M,,*7B
$GPGLL,3855.127,N,07702.788,W,083741.305,V*34
$GPVTG,3.02,T,,M,77.7,N,143.8,K*68
$GPRMC,083743.305,V,3855.127,N,07702.790,W,32.4,3.02,190416,,E*42
$GPGGA,083744.305,3855.127,N,07702.790,W,0,04,0.4,,M,,M,,*76
$GPGLL,3855.127,N,07702.790,W,083745.305,V*39
$GPVTG,3.02,T,,M,32.4,N,59.9,K*51
$GPRMC,083747.305,V,3855.127,N,07702.791,W,58.4,3.03,190416,,E*4A
$GPGGA,083748.305,3855.127,N,07702.791,W,0,04,0.4,,M,,M,,*7B
$GPGLL,3855.127,N,07702.791,W,083749.305,V*34
$GPVTG,3.03,T,,M,58.4,N,108.1,K*61
$GPGSA,A,2,05,19,12,18,02,14,,,,,,,0.0,0.3,0.6*36
$GPGSV,2,1,06,05,10,260,89,19,55,233,28,12,43,258,41,18,20,169,77*76
$GPGSV,2,2,06,02,33,061,57,14,43,173,76*7E
$GPRMC,083754.305,V,3855.127,N,07702.793,W,48.9,2.98,190416,,E*45
$GPGGA,083755.305,3855.127,N,07702.793,W,0,04,0.3,,M,,M,,*72
$GPGLL,3855.127,N,07702.793,W,083756.305,V*38
$GPVTG,2.98,T,,M,48.9,N,90.6,K*59
$GPRMC,083758.305,V,3855.127,N,07702.795,W,16.0,2.98,190416,,E*4D
$GPGGA,083759.305,3855.127,N,07702.795,W,0,04,0.3,,M,,M,,*78
$GPGLL,3855.127,N,07702.795,W,083800.305,V*32
$GPVTG,2.98,T,,M,16.0,N,29.6,K*59
$GPRMC,083802.305,V,3855.127,N,07702.797,W,36.0,2.88,190416,,E*4C
$GPGGA,083803.305,3855.127,N,07702.797,W,0,04,0.3,,M,,M,,*7A
$GPGLL,3855.127,N,07702.797,W,083804.305,V*34
$GPVTG,2.88,T,,M,36.0,N,66.8,K*5F
$GPRMC,083806.305,V,3855.126,N,07702.798,W,81.4,2.87,190416,,E*41
$GPGGA,083807.305,3855.126,N,07702.798,W,0,04,0.3,,M,,M,,*70
$GPGLL,3855.126,N,07702.798,W,083808.305,V*36
$GPVTG,2.87,T,,M,81.4,N,150.8,K*6C
$GPRMC,083810.305,V,3855.126,N,07702.800,W,56.7,2.90,190416,,E*47
$GPGGA,083811.305,3855.126,N,07702.800,W,0,04,0.3,,M,,M,,*79
$GPGLL,3855.126,N,07702.800,W,083812.305,V*33
$GPVTG,2.90,T,,M,56.7,N,105.0,K*6B
$GPRMC,083814.305,V,3855.126,N,07702.802,W,98.0,2.86,190416,,E*43
$GPGGA,083815.305,3855.126,N,07702.802,W,0,04,0.3,,M,,M,,*7F
$GPGLL,3855.126,N,07702.802,W,083816.305,V*35
$GPVTG,2.86,T,,M,98.0,N,181.4,K*61
$GPRMC,083818.305,V,3855.125,N,07702.804,W,21.0,2.84,190416,,E*4A
$GPGGA,083819.305,3855.125,N,07702.804,W,0,04,0.3,,M,,M,,*76
$GPGLL,3855.125,N,07702.804,W,083820.305,V*35
$GPVTG,2.84,T,,M,21.0,N,38.8,K*5E
$GPRMC,083822.305,V,3855.124,N,07702.805,W,38.6,2.73,190416,,E*45
$GPGGA,083823.305,3855.124,N,07702.805,W,0,04,0.3,,M,,M,,*7F
$GPGLL,3855.124,N,07702.805,W,083824.305,V*31
$GPVTG,2.73,T,,M,38.6,N,71.6,K*5B
$GPRMC,083826.305,V,3855.124,N,07702.807,W,18.9,2.76,190416,,E*4B
$GPGGA,083827.305,3855.124,N,07702.807,W,0,04,0.3,,M,,M,,*79
$GPGLL,3855.124,N,07702.807,W,083828.305,V*3F
$GPVTG,2.76,T,,M,18.9,N,35.0,K*55
$GPRMC,083830.305,V,3855.123,N,07702.809,W,6.2,2.72,190416,,E*75
$GPGGA,083831.305,3855.123,N,07702.809,W,0,04,0.3,,M,,M,,*77
$GPGLL,3855.123,N,07702.809,W,083832.305,V*3D
$GPVTG,2.72,T,,M,6.2,N,11.4,K*67
$GPRMC,083834.305,V,3855.122,N,07702.810,W,58.0,2.66,190416,,E*44
$GPGGA,083835.305,3855.122,N,07702.810,W,0,04,0.3,,M,,M,,*7A
$GPGLL,3855.122,N,07702.810,W,083836.305,V*30
$GPVTG,2.66,T,,M,58.0,N,107.3,K*6A
$GPGSA,A,3,05,19,12,18,02,14,,,,,,,0.8,0.4,0.7*39
$GPGSV,2,1,06,05,07,143,77,19,61,259,20,12,54,329,45,18,83,028,18*71
$GPGSV,2,2,06,02,35,223,52,14,38,194,81*74
$GPRMC,083841.305,V,3855.121,N,07702.812,W,34.6,2.64,190416,,E*49
$GPGGA,083842.305,3855.121,N,07702.812,W,0,04,0.4,,M,,M,,*7C
$GPGLL,3855.121,N,07702.812,W,083843.305,V*33
$GPVTG,2.64,T,,M,34.6,N,64.0,K*53
$GPRMC,083845.305,V,3855.120,N,07702.813,W,27.6,2.68,190416,,E*43
$GPGGA,083846.305,3855.120,N,07702.813,W,0,04,0.4,,M,,M,,*78
$GPGLL,3855.120,N,07702.813,W,083847.305,V*37
$GPVTG,2.68,T,,M,27.6,N,51.1,K*5A
$GPRMC,083849.305,V,3855.119,N,07702.815,W,23.4,2.57,190416,,E*49
$GPGGA,083850.305,3855.119,N,07702.815,W,0,04,0.4,,M,,M,,*73
$GPGLL,3855.119,N,07702.815,W,083851.305,V*3C
$GPVTG,2.57,T,,M,23.4,N,43.3,K*51
$GPRMC,083853.305,V,3855.118,N,07702.816,W,74.1,2.51,190416,,E*41
$GPGGA,083854.305,3855.118,N,07702.816,W,0,04,0.4,,M,,M,,*75
$GPGLL,3855.118,N,07702.816,W,083855.305,V*3A
$GPVTG,2.51,T,,M,74.1,N,137.3,K*62
$GPRMC,083857.305,V,3855.117,N,07702.817,W,1.3,2.45,190416,,E*7E
$GPGGA,083858.305,3855.117,N,07702.817,W,0,04,0.4,,M,,M,,*77
$GPGLL,3855.117,N,07702.817,W,083859.305,V*38
$GPVTG,2.45,T,,M,1.3,N,2.4,K*57
$GPRMC,083901.305,V,3855.115,N,07702.818,W,95.9,2.44,190416,,E*47
$GPGGA,083902.305,3855.115,N,07702.818,W,0,04,0.4,,M,,M,,*74
$GPGLL,3855.115,N,07702.818,W,083903.305,V*3B
$GPVTG,2.44,T,,M,95.9,N,177.5,K*63
$GPRMC,083905.305,V,3855.114,N,07702.819,W,30.1,2.41,190416,,E*41
$GPGGA,083906.305,3855.114,N,07702.819,W,0,04,0.4,,M,,M,,*70
$GPGLL,3855.114,N,07702.819,W,083907.305,V*3F
$GPVTG,2.41,T,,M,30.1,N,55.8,K*5D
$GPRMC,083909.305,V,3855.112,N,07702.820,W,87.8,2.37,190416,,E*45
$GPGGA,083910.305,3855.112,N,07702.820,W,0,04,0.4,,M,,M,,*7B
$GPGLL,3855.112,N,07702.820,W,083911.305,V*34
$GPVTG,2.37,T,,M,87.8,N,162.6,K*62
$GPRMC,083913.305,V,3855.111,N,07702.822,W,4.0,2.40,190416,,E*7C
$GPGGA,083914.305,3855.111,N,07702.822,W,0,04,0.4,,M,,M,,*7E
$GPGLL,3855.111,N,07702.822,W,083915.305,V*31
$GPVTG,2.40,T,,M,4.0,N,7.4,K*51
$GPRMC,083917.305,V,3855.109,N,07702.823,W,26.2,2.40,190416,,E*42
$GPGGA,083918.305,3855.109,N,07702.823,W,0,04,0.4,,M,,M,,*7A
$GPGLL,3855.109,N,07702.823,W,083919.305,V*35
$GPVTG,2.40,T,,M,26.2,N,48.4,K*58
$GPRMC,083921.305,V,3855.108,N,07702.824,W,87.0,2.41,190416,,E*49
$GPGGA,083922.305,3855.108,N,07702.824,W,0,04,0.4,,M,,M,,*75
$GPGLL,3855.108,N,07702.824,W,083923.305,V*3A
$GPVTG,2.41,T,,M,87.0,N,161.1,K*6F
$GPGSA,A,3,05,19,12,18,02,14,,,,,,,0.4,0.2,0.1*35
$GPGSV,2,1,06,05,10,044,65,19,89,278,74,12,89,181,71,18,72,357,88*7D
$GPGSV,2,2,06,02,37,092,27,14,69,113,16*79
$GPRMC,083928.305,V,3855.106,N,07702.825,W,86.1,2.42,190416,,E*4C
$GPGGA,083929.305,3855.106,N,07702.825,W,0,04,0.2,,M,,M,,*77
$GPGLL,3855.106,N,07702.825,W,083930.305,V*37
$GPVTG,2.42,T,,M,86.1,N,159.5,K*63
$GPRMC,083932.305,V,3855.105,N,07702.826,W,80.6,2.47,190416,,E*43
$GPGGA,083933.305,3855.105,N,07702.826,W,0,04,0.2,,M,,M,,*7C
$GPGLL,3855.105,N,07702.826,W,083934.305,V*33
$GPVTG,2.47,T,,M,80.6,N,149.3,K*60
$GPRMC,083936.305,V,3855.104,N,07702.827,W,82.2,2.46,190416,,E*40
$GPGGA,083937.305,3855.104,N,07702.827,W,0,04,0.2,,M,,M,,*78
$GPGLL,3855.104,N,07702.827,W,083938.305,V*3F
$GPVTG,2.46,T,,M,82.2,N,152.2,K*6C
$GPRMC,083940.305,V,3855.102,N,07702.828,W,80.7,2.40,190416,,E*49
$GPGGA,083941.305,3855.102,N,07702.828,W,0,04,0.2,,M,,M,,*70
$GPGLL,3855.102,N,07702.828,W,083942.305,V*3B
$GPVTG,2.40,T,,M,80.7,N,149.4,K*61
$GPRMC,083944.305,V,3855.101,N,07702.829,W,39.0,2.33,190416,,E*4E
$GPGGA,083945.305,3855.101,N,07702.829,W,0,04,0.2,,M,,M,,*76
