$GPRMC,154803.113,V,4254.931,N,07502.496,W,53.5,0.28,110416,,E*46
$GPGGA,154804.113,4254.931,N,07502.496,W,0,00,,,M,,M,,*59
$GPGLL,4254.931,N,07502.496,W,154805.113,V*38
$GPRMC,154806.113,V,4254.933,N,07502.496,W,35.9,0.28,110416,,E*4D
$GPGGA,154807.113,4254.933,N,07502.496,W,0,00,,,M,,M,,*58
$GPGLL,4254.933,N,07502.496,W,154808.113,V*37
$GPRMC,154809.113,V,4254.935,N,07502.495,W,23.9,0.25,110416,,E*4D
$GPGGA,154810.113,4254.935,N,07502.495,W,0,00,,,M,,M,,*5B
$GPGLL,4254.935,N,07502.495,W,154811.113,V*3A
$GPRMC,154812.113,V,4254.936,N,07502.494,W,40.1,0.27,110416,,E*4A
$GPGGA,154813.113,4254.936,N,07502.494,W,0,00,,,M,,M,,*5A
$GPGLL,4254.936,N,07502.494,W,154814.113,V*3D
$GPRMC,154815.113,V,4254.938,N,07502.494,W,0.7,0.24,110416,,E*72
$GPGGA,154816.113,4254.938,N,07502.494,W,0,00,,,M,,M,,*51
$GPGLL,4254.938,N,07502.494,W,154817.113,V*30
$GPRMC,154818.113,V,4254.940,N,07502.493,W,29.4,0.17,110416,,E*4F
$GPGGA,154819.113,4254.940,N,07502.493,W,0,00,,,M,,M,,*56
$GPGLL,4254.940,N,07502.493,W,154820.113,V*3C
$GPRMC,154821.113,V,4254.941,N,07502.493,W,45.1,0.22,110416,,E*4D
$GPGGA,154822.113,4254.941,N,07502.493,W,0,00,,,M,,M,,*5F
$GPGLL,4254.941,N,07502.493,W,154823.113,V*3E
$GPRMC,154824.113,V,4254.943,N,07502.492,W,47.7,0.20,110416,,E*4D
$GPGGA,154825.113,4254.943,N,07502.492,W,0,00,,,M,,M,,*5B
$GPGLL,4254.943,N,07502.492,W,154826.113,V*38
$GPRMC,154827.113,V,4254.945,N,07502.491,W,80.7,0.19,110416,,E*4A
$GPGGA,154828.113,4254.945,N,07502.491,W,0,00,,,M,,M,,*53
$GPGLL,4254.945,N,07502.491,W,154829.113,V*32
$GPRMC,154830.113,V,4254.947,N,07502.491,W,19.5,0.10,110416,,E*45
$GPGGA,154831.113,4254.947,N,07502.491,W,0,00,,,M,,M,,*59
$GPGLL,4254.947,N,07502.491,W,154832.113,V*3A
$GPRMC,154833.113,V,4254.948,N,07502.491,W,44.3,0.07,110416,,E*41
$GPGGA,154834.113,4254.948,N,07502.491,W,0,00,,,M,,M,,*53
$GPGLL,4254.948,N,07502.491,W,154835.113,V*32
$GPRMC,154836.113,V,4254.950,N,07502.491,W,70.3,0.15,110416,,E*49
$GPGGA,154837.113,4254.950,N,07502.491,W,0,00,,,M,,M,,*59
$GPGLL,4254.950,N,07502.491,W,154838.113,V*36
$GPRMC,154839.113,V,4254.952,N,07502.490,W,45.6,0.23,110416,,E*43
$GPGGA,154840.113,4254.952,N,07502.490,W,0,00,,,M,,M,,*5A
$GPGLL,4254.952,N,07502.490,W,154841.113,V*3B
$GPRMC,154842.113,V,4254.953,N,07502.489,W,76.1,0.22,110416,,E*40
$GPGGA,154843.113,4254.953,N,07502.489,W,0,00,,,M,,M,,*50
$GPGLL,4254.953,N,07502.489,W,154844.113,V*37
$GPRMC,154845.113,V,4254.955,N,07502.489,W,72.7,0.26,110416,,E*47
$GPGGA,154846.113,4254.955,N,07502.489,W,0,00,,,M,,M,,*53
$GPGLL,4254.955,N,07502.489,W,154847.113,V*32
$GPRMC,154848.113,V,4254.957,N,07502.488,W,40.2,0.35,110416,,E*4F
$GPGGA,154849.113,4254.957,N,07502.488,W,0,00,,,M,,M,,*5F
$GPGLL,4254.957,N,07502.488,W,154850.113,V*37
$GPRMC,154851.113,V,4254.958,N,07502.487,W,96.7,0.39,110416,,E*45
$GPGGA,154852.113,4254.958,N,07502.487,W,0,00,,,M,,M,,*55
$GPGLL,4254.958,N,07502.487,W,154853.113,V*34
$GPRMC,154854.113,V,4254.960,N,07502.486,W,43.5,0.28,110416,,E*40
$GPGGA,154855.113,4254.960,N,07502.486,W,0,00,,,M,,M,,*58
$GPGLL,4254.960,N,07502.486,W,154856.113,V*3B
$GPRMC,154857.113,V,4254.961,N,07502.485,W,63.5,0.25,110416,,E*4E
$GPGGA,154858.113,4254.961,N,07502.485,W,0,00,,,M,,M,,*57
$GPGLL,4254.961,N,07502.485,W,154859.113,V*36
$GPRMC,154900.113,V,4254.963,N,07502.485,W,26.5,0.21,110416,,E*4A
$GPGGA,154901.113,4254.963,N,07502.485,W,0,00,,,M,,M,,*58
$GPGLL,4254.963,N,07502.485,W,154902.113,V*3B
$GPRMC,154903.113,V,4254.965,N,07502.484,W,33.0,0.25,110416,,E*4B
$GPGGA,154904.113,4254.965,N,07502.484,W,0,00,,,M,,M,,*5A
$GPGLL,4254.965,N,07502.484,W,154905.113,V*3B
$GPRMC,154906.113,V,4254.967,N,07502.483,W,78.1,0.20,110416,,E*40
$GPGGA,154907.113,4254.967,N,07502.483,W,0,00,,,M,,M,,*5C
$GPGLL,4254.967,N,07502.483,W,154908.113,V*33
$GPRMC,154909.113,V,4254.968,N,07502.483,W,95.9,0.31,110416,,E*4B
$GPGGA,154910.113,4254.968,N,07502.483,W,0,00,,,M,,M,,*55
$GPGLL,4254.968,N,07502.483,W,154911.113,V*34
$GPRMC,154912.113,V,4254.970,N,07502.483,W,27.9,-0.04,110416,,E*6A
$GPGGA,154913.113,4254.970,N,07502.483,W,0,00,,,M,,M,,*5F
$GPGLL,4254.970,N,07502.483,W,154914.113,V*38
$GPRMC,154915.113,V,4254.972,N,07502.483,W,3.8,-0.14,110416,,E*59
$GPGGA,154916.113,4254.972,N,07502.483,W,0,00,,,M,,M,,*58
$GPGLL,4254.972,N,07502.483,W,154917.113,V*39
$GPRMC,154918.113,V,4254.973,N,07502.483,W,41.9,-0.03,110416,,E*64
$GPGGA,154919.113,4254.973,N,07502.483,W,0,00,,,M,,M,,*56
$GPGLL,4254.973,N,07502.483,W,154920.113,V*3C
$GPRMC,154921.113,V,4254.975,N,07502.483,W,5.7,-0.13,110416,,E*57
$GPGGA,154922.113,4254.975,N,07502.483,W,0,00,,,M,,M,,*58
$GPGLL,4254.975,N,07502.483,W,154923.113,V*39
$GPRMC,154924.113,V,4254.977,N,07502.484,W,47.3,-0.30,110416,,E*64
$GPGGA,154925.113,4254.977,N,07502.484,W,0,00,,,M,,M,,*5A
$GPGLL,4254.977,N,07502.484,W,154926.113,V*39
$GPRMC,154927.113,V,4254.979,N,07502.485,W,59.4,-0.25,110416,,E*64
$GPGGA,154928.113,4254.979,N,07502.485,W,0,00,,,M,,M,,*58
$GPGLL,4254.979,N,07502.485,W,154929.113,V*39
$GPRMC,154930.113,V,4254.980,N,07502.485,W,41.8,-0.15,110416,,E*62
$GPGGA,154931.113,4254.980,N,07502.485,W,0,00,,,M,,M,,*56
$GPGLL,4254.980,N,07502.485,W,154932.113,V*35
$GPRMC,154933.113,V,4254.982,N,07502.486,W,28.1,-0.22,110416,,E*62
$GPGGA,154934.113,4254.982,N,07502.486,W,0,00,,,M,,M,,*52
$GPGLL,4254.982,N,07502.486,W,154935.113,V*33
$GPRMC,154936.113,V,4254.984,N,07502.486,W,24.9,-0.15,110416,,E*61
$GPGGA,154937.113,4254.984,N,07502.486,W,0,00,,,M,,M,,*57
$GPGLL,4254.984,N,07502.486,W,154938.113,V*38
$GPRMC,154939.113,V,4254.985,N,07502.487,W,96.5,-0.09,110416,,E*66
$GPGGA,154940.113,4254.985,N,07502.487,W,0,00,,,M,,M,,*57
$GPGLL,4254.985,N,07502.487,W,154941.113,V*36
$GPRMC,154942.113,V,4254.987,N,07502.487,W,46.4,-0.03,110416,,E*6E
$GPGGA,154943.113,4254.987,N,07502.487,W,0,00,,,M,,M,,*56
$GPGLL,4254.987,N,07502.487,W,154944.113,V*31
$GPRMC,154945.113,V,4254.989,N,07502.486,W,6.8,0.22,110416,,E*70
$GPGGA,154946.113,4254.989,N,07502.486,W,0,00,,,M,,M,,*5C
$GPGLL,4254.989,N,07502.486,W,154947.113,V*3D
$GPRMC,154948.113,V,4254.991,N,07502.486,W,39.4,0.19,110416,,E*4C
$GPGGA,154949.113,4254.991,N,07502.486,W,0,00,,,M,,M,,*5A
$GPGLL,4254.991,N,07502.486,W,154950.113,V*32
$GPRMC,154951.113,V,4254.992,N,07502.485,W,49.0,0.15,110416,,E*4B
$GPGGA,154952.113,4254.992,N,07502.485,W,0,00,,,M,,M,,*50
$GPGLL,4254.992,N,07502.485,W,154953.113,V*31
$GPRMC,154954.113,V,4254.994,N,07502.485,W,52.2,0.22,110416,,E*44
$GPGGA,154955.113,4254.994,N,07502.485,W,0,00,,,M,,M,,*51
$GPGLL,4254.994,N,07502.485,W,154956.113,V*32
$GPRMC,154957.113,V,4254.996,N,07502.484,W,30.2,0.20,110416,,E*42
$GPGGA,154958.113,4254.996,N,07502.484,W,0,00,,,M,,M,,*5F
$GPGLL,4254.996,N,07502.484,W,154959.113,V*3E
$GPRMC,155000.113,V,4254.998,N,07502.483,W,49.1,0.19,110416,,E*46
$GPGGA,155001.113,4254.998,N,07502.483,W,0,00,,,M,,M,,*52
$GPGLL,4254.998,N,07502.483,W,155002.113,V*31
$GPRMC,155003.113,V,4254.999,N,07502.483,W,68.0,0.17,110416,,E*48
$GPGGA,155004.113,4254.999,N,07502.483,W,0,00,,,M,,M,,*56
$GPGLL,4254.999,N,07502.483,W,155005.113,V*37
$GPRMC,155006.113,V,4255.001,N,07502.483,W,44.8,0.16,110416,,E*43
$GPGGA,155007.113,4255.001,N,07502.483,W,0,00,,,M,,M,,*5C
$GPGLL,4255.001,N,07502.483,W,155008.113,V*33
$GPRMC,155009.113,V,4255.003,N,07502.482,W,0.1,0.12,110416,,E*72
$GPGGA,155010.113,4255.003,N,07502.482,W,0,00,,,M,,M,,*59
$GPGLL,4255.003,N,07502.482,W,155011.113,V*38
$GPRMC,155012.113,V,4255.005,N,07502.483,W,77.1,-0.21,110416,,E*62
$GPGGA,155013.113,4255.005,N,07502.483,W,0,00,,,M,,M,,*5D
$GPGLL,4255.005,N,07502.483,W,155014.113,V*3A
$GPRMC,155015.113,V,4255.006,N,07502.484,W,20.2,-0.30,110416,,E*60
$GPGGA,155016.113,4255.006,N,07502.484,W,0,00,,,M,,M,,*5C
$GPGLL,4255.006,N,07502.484,W,155017.113,V*3D
$GPRMC,155018.113,V,4255.008,N,07502.484,W,56.0,-0.28,110416,,E*69
$GPGGA,155019.113,4255.008,N,07502.484,W,0,00,,,M,,M,,*5D
$GPGLL,4255.008,N,07502.484,W,155020.113,V*37
$GPRMC,155021.113,V,4255.009,N,07502.485,W,63.3,-0.37,110416,,E*68
$GPGGA,155022.113,4255.009,N,07502.485,W,0,00,,,M,,M,,*55
$GPGLL,4255.009,N,07502.485,W,155023.113,V*34
$GPRMC,155024.113,V,4255.011,N,07502.487,W,27.1,-0.47,110416,,E*63
$GPGGA,155025.113,4255.011,N,07502.487,W,0,00,,,M,,M,,*59
$GPGLL,4255.011,N,07502.487,W,155026.113,V*3A
$GPRMC,155027.113,V,4255.012,N,07502.488,W,46.3,-0.50,110416,,E*6F
$GPGGA,155028.113,4255.012,N,07502.488,W,0,00,,,M,,M,,*58
$GPGLL,4255.012,N,07502.488,W,155029.113,V*39
$GPRMC,155030.113,V,4255.013,N,07502.489,W,71.8,-0.59,110416,,E*6F
$GPGGA,155031.113,4255.013,N,07502.489,W,0,00,,,M,,M,,*50
$GPGLL,4255.013,N,07502.489,W,155032.113,V*33
$GPRMC,155033.113,V,4255.014,N,07502.491,W,86.4,-0.69,110416,,E*65
$GPGGA,155034.113,4255.014,N,07502.491,W,0,00,,,M,,M,,*5B
$GPGLL,4255.014,N,07502.491,W,155035.113,V*3A
$GPRMC,155036.113,V,4255.015,N,07502.492,W,71.3,-0.59,110416,,E*6E
$GPGGA,155037.113,4255.015,N,07502.492,W,0,00,,,M,,M,,*5A
$GPGLL,4255.015,N,07502.492,W,155038.113,V*35
$GPRMC,155039.113,V,4255.016,N,07502.494,W,26.4,-0.50,110416,,E*68
$GPGGA,155040.113,4255.016,N,07502.494,W,0,00,,,M,,M,,*5F
$GPGLL,4255.016,N,07502.494,W,155041.113,V*3E
$GPRMC,155042.113,V,4255.017,N,07502.495,W,28.2,-0.56,110416,,E*6A
$GPGGA,155043.113,4255.017,N,07502.495,W,0,00,,,M,,M,,*5C
$GPGLL,4255.017,N,07502.495,W,155044.113,V*3B
$GPRMC,155045.113,V,4255.018,N,07502.497,W,25.7,-0.65,110416,,E*68
$GPGGA,155046.113,4255.018,N,07502.497,W,0,00,,,M,,M,,*54
$GPGLL,4255.018,N,07502.497,W,155047.113,V*35
$GPRMC,155048.113,V,4255.019,N,07502.498,W,30.5,-0.65,110416,,E*6D
$GPGGA,155049.113,4255.019,N,07502.498,W,0,00,,,M,,M,,*55
$GPGLL,4255.019,N,07502.498,W,155050.113,V*3D
$GPRMC,155051.113,V,4255.020,N,07502.500,W,22.4,-0.64,110416,,E*6C
$GPGGA,155052.113,4255.020,N,07502.500,W,0,00,,,M,,M,,*55
$GPGLL,4255.020,N,07502.500,W,155053.113,V*34
$GPRMC,155054.113,V,4255.021,N,07502.501,W,93.0,-0.57,110416,,E*67
$GPGGA,155055.113,4255.021,N,07502.501,W,0,00,,,M,,M,,*52
$GPGLL,4255.021,N,07502.501,W,155056.113,V*31
$GPRMC,155057.113,V,4255.022,N,07502.503,W,39.1,-0.65,110416,,E*65
$GPGGA,155058.113,4255.022,N,07502.503,W,0,00,,,M,,M,,*5E
$GPGLL,4255.022,N,07502.503,W,155059.113,V*3F
$GPRMC,155100.113,V,4255.023,N,07502.504,W,3.0,-0.66,110416,,E*5B
$GPGGA,155101.113,4255.023,N,07502.504,W,0,00,,,M,,M,,*55
$GPGLL,4255.023,N,07502.504,W,155102.113,V*36
$GPRMC,155103.113,V,4255.024,N,07502.506,W,29.0,-0.57,110416,,E*67
$GPGGA,155104.113,4255.024,N,07502.506,W,0,00,,,M,,M,,*55
$GPGLL,4255.024,N,07502.506,W,155105.113,V*34
$GPRMC,155106.113,V,4255.025,N,07502.507,W,83.1,-0.58,110416,,E*6C
$GPGGA,155107.113,4255.025,N,07502.507,W,0,00,,,M,,M,,*56
$GPGLL,4255.025,N,07502.507,W,155108.113,V*39
$GPRMC,155109.113,V,4255.026,N,07502.509,W,48.3,-0.89,110416,,E*67
$GPGGA,155110.113,4255.026,N,07502.509,W,0,00,,,M,,M,,*5D
$GPGLL,4255.026,N,07502.509,W,155111.113,V*3C
$GPRMC,155112.113,V,4255.026,N,07502.510,W,0.9,-0.92,110416,,E*59
$GPGGA,155113.113,4255.026,N,07502.510,W,0,00,,,M,,M,,*56
$GPGLL,4255.026,N,07502.510,W,155114.113,V*31
$GPRMC,155115.113,V,4255.026,N,07502.512,W,86.5,-0.95,110416,,E*69
$GPGGA,155116.113,4255.026,N,07502.512,W,0,00,,,M,,M,,*51
$GPGLL,4255.026,N,07502.512,W,155117.113,V*30
$GPRMC,155118.113,V,4255.026,N,07502.514,W,43.5,-0.95,110416,,E*6B
$GPGGA,155119.113,4255.026,N,07502.514,W,0,00,,,M,,M,,*58
$GPGLL,4255.026,N,07502.514,W,155120.113,V*32
$GPRMC,155121.113,V,4255.026,N,07502.516,W,39.4,-1.04,110416,,E*66
$GPGGA,155122.113,4255.026,N,07502.516,W,0,00,,,M,,M,,*52
$GPGLL,4255.026,N,07502.516,W,155123.113,V*33
$GPRMC,155124.113,V,4255.026,N,07502.518,W,44.3,-1.12,110416,,E*67
$GPGGA,155125.113,4255.026,N,07502.518,W,0,00,,,M,,M,,*5B
$GPGLL,4255.026,N,07502.518,W,155126.113,V*38
$GPRMC,155127.113,V,4255.026,N,07502.519,W,7.8,-1.04,110416,,E*5E
$GPGGA,155128.113,4255.026,N,07502.519,W,0,00,,,M,,M,,*57
$GPGLL,4255.026,N,07502.519,W,155129.113,V*36
$GPRMC,155130.113,V,4255.025,N,07502.521,W,76.5,-1.04,110416,,E*6B
$GPGGA,155131.113,4255.025,N,07502.521,W,0,00,,,M,,M,,*57
$GPGLL,4255.025,N,07502.521,W,155132.113,V*34
$GPRMC,155133.113,V,4255.025,N,07502.523,W,55.6,-1.06,110416,,E*6A
$GPGGA,155134.113,4255.025,N,07502.523,W,0,00,,,M,,M,,*50
$GPGLL,4255.025,N,07502.523,W,155135.113,V*31
$GPRMC,155136.113,V,4255.025,N,07502.525,W,44.8,-1.04,110416,,E*65
$GPGGA,155137.113,4255.025,N,07502.525,W,0,00,,,M,,M,,*55
$GPGLL,4255.025,N,07502.525,W,155138.113,V*3A
$GPRMC,155139.113,V,4255.025,N,07502.527,W,30.1,-0.96,110416,,E*68
$GPGGA,155140.113,4255.025,N,07502.527,W,0,00,,,M,,M,,*57
$GPGLL,4255.025,N,07502.527,W,155141.113,V*36
$GPRMC,155142.113,V,4255.026,N,07502.528,W,15.9,-0.92,110416,,E*63
$GPGGA,155143.113,4255.026,N,07502.528,W,0,00,,,M,,M,,*58
$GPGLL,4255.026,N,07502.528,W,155144.113,V*3F
$GPRMC,155145.113,V,4255.026,N,07502.530,W,59.9,-0.98,110416,,E*6F
$GPGGA,155146.113,4255.026,N,07502.530,W,0,00,,,M,,M,,*54
$GPGLL,4255.026,N,07502.530,W,155147.113,V*35
$GPRMC,155148.113,V,4255.026,N,07502.532,W,43.2,-0.89,110416,,E*60
$GPGGA,155149.113,4255.026,N,07502.532,W,0,00,,,M,,M,,*59
$GPGLL,4255.026,N,07502.532,W,155150.113,V*31
$GPRMC,155151.113,V,4255.026,N,07502.534,W,48.1,-0.79,110416,,E*69
$GPGGA,155152.113,4255.026,N,07502.534,W,0,00,,,M,,M,,*55
$GPGLL,4255.026,N,07502.534,W,155153.113,V*34
$GPRMC,155154.113,V,4255.027,N,07502.535,W,88.8,-0.83,110416,,E*6C
$GPGGA,155155.113,4255.027,N,07502.535,W,0,00,,,M,,M,,*52
$GPGLL,4255.027,N,07502.535,W,155156.113,V*31
$GPRMC,155157.113,V,4255.027,N,07502.537,W,39.4,-0.90,110416,,E*69
$GPGGA,155158.113,4255.027,N,07502.537,W,0,00,,,M,,M,,*5D
$GPGLL,4255.027,N,07502.537,W,155159.113,V*3C
$GPRMC,155200.113,V,4255.027,N,07502.539,W,59.7,-0.92,110416,,E*61
$GPGGA,155201.113,4255.027,N,07502.539,W,0,00,,,M,,M,,*5C
$GPGLL,4255.027,N,07502.539,W,155202.113,V*3F
$GPRMC,155203.113,V,4255.027,N,07502.541,W,24.6,-1.00,110416,,E*6C
$GPGGA,155204.113,4255.027,N,07502.541,W,0,00,,,M,,M,,*56
$GPGLL,4255.027,N,07502.541,W,155205.113,V*37
$GPRMC,155206.113,V,4255.028,N,07502.543,W,72.4,-0.90,110416,,E*6D
$GPGGA,155207.113,4255.028,N,07502.543,W,0,00,,,M,,M,,*58
$GPGLL,4255.028,N,07502.543,W,155208.113,V*37
$GPRMC,155209.113,V,4255.028,N,07502.544,W,51.7,-0.90,110416,,E*67
$GPGGA,155210.113,4255.028,N,07502.544,W,0,00,,,M,,M,,*59
$GPGLL,4255.028,N,07502.544,W,155211.113,V*38
$GPRMC,155212.113,V,4255.029,N,07502.546,W,66.7,-0.81,110416,,E*6A
$GPGGA,155213.113,4255.029,N,07502.546,W,0,00,,,M,,M,,*59
$GPGLL,4255.029,N,07502.546,W,155214.113,V*3E
$GPRMC,155215.113,V,4255.029,N,07502.548,W,82.9,-0.91,110416,,E*66
$GPGGA,155216.113,4255.029,N,07502.548,W,0,00,,,M,,M,,*52
$GPGLL,4255.029,N,07502.548,W,155217.113,V*33
$GPRMC,155218.113,V,4255.029,N,07502.550,W,41.0,-0.83,110416,,E*67
$GPGGA,155219.113,4255.029,N,07502.550,W,0,00,,,M,,M,,*54
$GPGLL,4255.029,N,07502.550,W,155220.113,V*3E
$GPRMC,155221.113,V,4255.030,N,07502.551,W,12.9,-0.86,110416,,E*6E
$GPGGA,155222.113,4255.030,N,07502.551,W,0,00,,,M,,M,,*55
$GPGLL,4255.030,N,07502.551,W,155223.113,V*34
$GPRMC,155224.113,V,4255.031,N,07502.552,W,24.3,-0.41,110416,,E*6D
$GPGGA,155225.113,4255.031,N,07502.552,W,0,00,,,M,,M,,*50
$GPGLL,4255.031,N,07502.552,W,155226.113,V*33
$GPRMC,155227.113,V,4255.033,N,07502.553,W,94.4,-0.34,110416,,E*63
$GPGGA,155228.113,4255.033,N,07502.553,W,0,00,,,M,,M,,*5E
$GPGLL,4255.033,N,07502.553,W,155229.113,V*3F
$GPRMC,155230.113,V,4255.034,N,07502.554,W,21.6,-0.34,110416,,E*69
$GPGGA,155231.113,4255.034,N,07502.554,W,0,00,,,M,,M,,*56
$GPGLL,4255.034,N,07502.554,W,155232.113,V*35
$GPRMC,155233.113,V,4255.036,N,07502.555,W,10.7,-0.45,110416,,E*6C
$GPGGA,155234.113,4255.036,N,07502.555,W,0,00,,,M,,M,,*50
$GPGLL,4255.036,N,07502.555,W,155235.113,V*31
$GPRMC,155236.113,V,4255.037,N,07502.556,W,4.9,-0.35,110416,,E*57
$GPGGA,155237.113,4255.037,N,07502.556,W,0,00,,,M,,M,,*51
$GPGLL,4255.037,N,07502.556,W,155238.113,V*3E
$GPRMC,155239.113,V,4255.039,N,07502.557,W,44.3,-0.36,110416,,E*6A
$GPGGA,155240.113,4255.039,N,07502.557,W,0,00,,,M,,M,,*5E
$GPGLL,4255.039,N,07502.557,W,155241.113,V*3F
$GPRMC,155242.113,V,4255.040,N,07502.558,W,9.7,-0.40,110416,,E*5B
$GPGGA,155243.113,4255.040,N,07502.558,W,0,00,,,M,,M,,*5C
$GPGLL,4255.040,N,07502.558,W,155244.113,V*3B
$GPRMC,155245.113,V,4255.042,N,07502.559,W,63.2,-0.41,110416,,E*67
$GPGGA,155246.113,4255.042,N,07502.559,W,0,00,,,M,,M,,*5A
$GPGLL,4255.042,N,07502.559,W,155247.113,V*3B
$GPRMC,155248.113,V,4255.042,N,07502.561,W,92.3,-0.85,110416,,E*66
$GPGGA,155249.113,4255.042,N,07502.561,W,0,00,,,M,,M,,*5E
$GPGLL,4255.042,N,07502.561,W,155250.113,V*36
$GPRMC,155251.113,V,4255.042,N,07502.563,W,47.5,-0.90,110416,,E*66
$GPGGA,155252.113,4255.042,N,07502.563,W,0,00,,,M,,M,,*56
$GPGLL,4255.042,N,07502.563,W,155253.113,V*37
$GPRMC,155254.113,V,4255.042,N,07502.565,W,81.3,-0.98,110416,,E*61
$GPGGA,155255.113,4255.042,N,07502.565,W,0,00,,,M,,M,,*57
$GPGLL,4255.042,N,07502.565,W,155256.113,V*34
$GPRMC,155257.113,V,4255.043,N,07502.567,W,47.7,-0.95,110416,,E*62
$GPGGA,155258.113,4255.043,N,07502.567,W,0,00,,,M,,M,,*59
$GPGLL,4255.043,N,07502.567,W,155259.113,V*38
$GPRMC,155300.113,V,4255.043,N,07502.568,W,80.4,-0.96,110416,,E*65
$GPGGA,155301.113,4255.043,N,07502.568,W,0,00,,,M,,M,,*5B
$GPGLL,4255.043,N,07502.568,W,155302.113,V*38
