$GPRMC,154950.312,V,3954.928,N,07402.497,W,13.9,1.95,110416,,E*49
$GPGGA,154951.312,3954.928,N,07402.497,W,0,00,,,M,,M,,*5F
$GPGLL,3954.928,N,07402.497,W,154952.312,V*3C
$GPRMC,154953.312,V,3954.926,N,07402.497,W,60.3,2.04,110416,,E*41
$GPGGA,154954.312,3954.926,N,07402.497,W,0,00,,,M,,M,,*54
$GPGLL,3954.926,N,07402.497,W,154955.312,V*35
$GPRMC,154956.312,V,3954.924,N,07402.497,W,13.9,1.99,110416,,E*4F
$GPGGA,154957.312,3954.924,N,07402.497,W,0,00,,,M,,M,,*55
$GPGLL,3954.924,N,07402.497,W,154958.312,V*3A
$GPRMC,154959.312,V,3954.923,N,07402.497,W,29.0,1.97,110416,,E*49
$GPGGA,155000.312,3954.923,N,07402.497,W,0,00,,,M,,M,,*58
$GPGLL,3954.923,N,07402.497,W,155001.312,V*39
$GPRMC,155002.312,V,3954.921,N,07402.497,W,71.3,1.88,110416,,E*4D
$GPGGA,155003.312,3954.921,N,07402.497,W,0,00,,,M,,M,,*59
$GPGLL,3954.921,N,07402.497,W,155004.312,V*3E
$GPRMC,155005.312,V,3954.919,N,07402.496,W,81.6,1.86,110416,,E*44
$GPGGA,155006.312,3954.919,N,07402.496,W,0,00,,,M,,M,,*56
$GPGLL,3954.919,N,07402.496,W,155007.312,V*37
$GPRMC,155008.312,V,3954.917,N,07402.496,W,14.6,1.76,110416,,E*44
$GPGGA,155009.312,3954.917,N,07402.496,W,0,00,,,M,,M,,*57
$GPGLL,3954.917,N,07402.496,W,155010.312,V*3F
$GPRMC,155011.312,V,3954.916,N,07402.495,W,41.0,1.73,110416,,E*4D
$GPGGA,155012.312,3954.916,N,07402.495,W,0,00,,,M,,M,,*5F
$GPGLL,3954.916,N,07402.495,W,155013.312,V*3E
$GPRMC,155014.312,V,3954.914,N,07402.494,W,19.3,1.72,110416,,E*44
$GPGGA,155015.312,3954.914,N,07402.494,W,0,00,,,M,,M,,*5B
$GPGLL,3954.914,N,07402.494,W,155016.312,V*38
$GPRMC,155017.312,V,3954.912,N,07402.493,W,86.8,1.72,110416,,E*4B
$GPGGA,155018.312,3954.912,N,07402.493,W,0,00,,,M,,M,,*57
$GPGLL,3954.912,N,07402.493,W,155019.312,V*36
$GPRMC,155020.312,V,3954.911,N,07402.493,W,27.7,1.68,110416,,E*43
$GPGGA,155021.312,3954.911,N,07402.493,W,0,00,,,M,,M,,*5E
$GPGLL,3954.911,N,07402.493,W,155022.312,V*3D
$GPRMC,155023.312,V,3954.909,N,07402.492,W,26.6,1.61,110416,,E*41
$GPGGA,155024.312,3954.909,N,07402.492,W,0,00,,,M,,M,,*53
$GPGLL,3954.909,N,07402.492,W,155025.312,V*32
$GPRMC,155026.312,V,3954.908,N,07402.491,W,52.2,1.68,110416,,E*48
$GPGGA,155027.312,3954.908,N,07402.491,W,0,00,,,M,,M,,*52
$GPGLL,3954.908,N,07402.491,W,155028.312,V*3D
$GPRMC,155029.312,V,3954.906,N,07402.490,W,86.7,1.76,110416,,E*4B
$GPGGA,155030.312,3954.906,N,07402.490,W,0,00,,,M,,M,,*5B
$GPGLL,3954.906,N,07402.490,W,155031.312,V*3A
$GPRMC,155032.312,V,3954.904,N,07402.489,W,59.6,1.73,110416,,E*4D
$GPGGA,155033.312,3954.904,N,07402.489,W,0,00,,,M,,M,,*52
$GPGLL,3954.904,N,07402.489,W,155034.312,V*35
$GPRMC,155035.312,V,3954.903,N,07402.489,W,80.4,1.81,110416,,E*46
$GPGGA,155036.312,3954.903,N,07402.489,W,0,00,,,M,,M,,*50
$GPGLL,3954.903,N,07402.489,W,155037.312,V*31
$GPRMC,155038.312,V,3954.901,N,07402.488,W,8.9,1.75,110416,,E*7E
$GPGGA,155039.312,3954.901,N,07402.488,W,0,00,,,M,,M,,*5C
$GPGLL,3954.901,N,07402.488,W,155040.312,V*32
$GPRMC,155041.312,V,3954.899,N,07402.488,W,35.0,1.80,110416,,E*4D
$GPGGA,155042.312,3954.899,N,07402.488,W,0,00,,,M,,M,,*50
$GPGLL,3954.899,N,07402.488,W,155043.312,V*31
$GPRMC,155044.312,V,3954.898,N,07402.487,W,86.2,1.82,110416,,E*4E
$GPGGA,155045.312,3954.898,N,07402.487,W,0,00,,,M,,M,,*59
$GPGLL,3954.898,N,07402.487,W,155046.312,V*3A
$GPRMC,155047.312,V,3954.896,N,07402.486,W,47.0,1.76,110416,,E*46
$GPGGA,155048.312,3954.896,N,07402.486,W,0,00,,,M,,M,,*5B
$GPGLL,3954.896,N,07402.486,W,155049.312,V*3A
$GPRMC,155050.312,V,3954.894,N,07402.486,W,57.5,1.80,110416,,E*4F
$GPGGA,155051.312,3954.894,N,07402.486,W,0,00,,,M,,M,,*51
$GPGLL,3954.894,N,07402.486,W,155052.312,V*32
$GPRMC,155053.312,V,3954.893,N,07402.484,W,96.0,1.48,110416,,E*45
$GPGGA,155054.312,3954.893,N,07402.484,W,0,00,,,M,,M,,*51
$GPGLL,3954.893,N,07402.484,W,155055.312,V*30
$GPRMC,155056.312,V,3954.892,N,07402.483,W,59.1,1.48,110416,,E*44
$GPGGA,155057.312,3954.892,N,07402.483,W,0,00,,,M,,M,,*54
$GPGLL,3954.892,N,07402.483,W,155058.312,V*3B
$GPRMC,155059.312,V,3954.891,N,07402.482,W,57.3,1.38,110416,,E*42
$GPGGA,155100.312,3954.891,N,07402.482,W,0,00,,,M,,M,,*55
$GPGLL,3954.891,N,07402.482,W,155101.312,V*34
$GPRMC,155102.312,V,3954.890,N,07402.480,W,96.1,1.32,110416,,E*4B
$GPGGA,155103.312,3954.890,N,07402.480,W,0,00,,,M,,M,,*55
$GPGLL,3954.890,N,07402.480,W,155104.312,V*32
$GPRMC,155105.312,V,3954.889,N,07402.479,W,76.3,1.35,110416,,E*49
$GPGGA,155106.312,3954.889,N,07402.479,W,0,00,,,M,,M,,*5E
$GPGLL,3954.889,N,07402.479,W,155107.312,V*3F
$GPRMC,155108.312,V,3954.889,N,07402.477,W,6.0,1.12,110416,,E*7B
$GPGGA,155109.312,3954.889,N,07402.477,W,0,00,,,M,,M,,*5F
$GPGLL,3954.889,N,07402.477,W,155110.312,V*37
$GPRMC,155111.312,V,3954.888,N,07402.475,W,0.9,1.09,110416,,E*75
$GPGGA,155112.312,3954.888,N,07402.475,W,0,00,,,M,,M,,*56
$GPGLL,3954.888,N,07402.475,W,155113.312,V*37
$GPRMC,155114.312,V,3954.888,N,07402.473,W,5.9,1.01,110416,,E*7B
$GPGGA,155115.312,3954.888,N,07402.473,W,0,00,,,M,,M,,*57
$GPGLL,3954.888,N,07402.473,W,155116.312,V*34
$GPRMC,155117.312,V,3954.888,N,07402.471,W,77.0,1.11,110416,,E*47
$GPGGA,155118.312,3954.888,N,07402.471,W,0,00,,,M,,M,,*58
$GPGLL,3954.888,N,07402.471,W,155119.312,V*39
$GPRMC,155120.312,V,3954.888,N,07402.470,W,2.0,1.04,110416,,E*74
$GPGGA,155121.312,3954.888,N,07402.470,W,0,00,,,M,,M,,*53
$GPGLL,3954.888,N,07402.470,W,155122.312,V*30
$GPRMC,155123.312,V,3954.888,N,07402.468,W,31.6,1.06,110416,,E*4A
$GPGGA,155124.312,3954.888,N,07402.468,W,0,00,,,M,,M,,*5F
$GPGLL,3954.888,N,07402.468,W,155125.312,V*3E
$GPRMC,155126.312,V,3954.888,N,07402.466,W,1.5,1.09,110416,,E*7E
$GPGGA,155127.312,3954.888,N,07402.466,W,0,00,,,M,,M,,*52
$GPGLL,3954.888,N,07402.466,W,155128.312,V*3D
$GPRMC,155129.312,V,3954.888,N,07402.464,W,69.0,0.98,110416,,E*41
$GPGGA,155130.312,3954.888,N,07402.464,W,0,00,,,M,,M,,*56
$GPGLL,3954.888,N,07402.464,W,155131.312,V*37
$GPRMC,155132.312,V,3954.888,N,07402.462,W,42.4,1.02,110416,,E*42
$GPGGA,155133.312,3954.888,N,07402.462,W,0,00,,,M,,M,,*53
$GPGLL,3954.888,N,07402.462,W,155134.312,V*34
$GPRMC,155135.312,V,3954.887,N,07402.461,W,30.1,1.02,110416,,E*49
$GPGGA,155136.312,3954.887,N,07402.461,W,0,00,,,M,,M,,*5A
$GPGLL,3954.887,N,07402.461,W,155137.312,V*3B
$GPRMC,155138.312,V,3954.887,N,07402.459,W,67.4,1.06,110416,,E*4C
$GPGGA,155139.312,3954.887,N,07402.459,W,0,00,,,M,,M,,*5E
$GPGLL,3954.887,N,07402.459,W,155140.312,V*30
$GPRMC,155141.312,V,3954.887,N,07402.457,W,31.2,0.97,110416,,E*40
$GPGGA,155142.312,3954.887,N,07402.457,W,0,00,,,M,,M,,*5C
$GPGLL,3954.887,N,07402.457,W,155143.312,V*3D
$GPRMC,155144.312,V,3954.887,N,07402.455,W,69.6,1.06,110416,,E*47
$GPGGA,155145.312,3954.887,N,07402.455,W,0,00,,,M,,M,,*59
$GPGLL,3954.887,N,07402.455,W,155146.312,V*3A
$GPRMC,155147.312,V,3954.887,N,07402.453,W,19.5,0.95,110416,,E*4D
$GPGGA,155148.312,3954.887,N,07402.453,W,0,00,,,M,,M,,*52
$GPGLL,3954.887,N,07402.453,W,155149.312,V*33
$GPRMC,155150.312,V,3954.887,N,07402.452,W,71.8,0.98,110416,,E*44
$GPGGA,155151.312,3954.887,N,07402.452,W,0,00,,,M,,M,,*5B
$GPGLL,3954.887,N,07402.452,W,155152.312,V*38
$GPRMC,155153.312,V,3954.888,N,07402.450,W,67.1,0.92,110416,,E*4E
$GPGGA,155154.312,3954.888,N,07402.450,W,0,00,,,M,,M,,*53
$GPGLL,3954.888,N,07402.450,W,155155.312,V*32
$GPRMC,155156.312,V,3954.888,N,07402.448,W,54.9,0.90,110416,,E*48
$GPGGA,155157.312,3954.888,N,07402.448,W,0,00,,,M,,M,,*59
$GPGLL,3954.888,N,07402.448,W,155158.312,V*36
$GPRMC,155159.312,V,3954.888,N,07402.446,W,52.9,0.83,110416,,E*4D
$GPGGA,155200.312,3954.888,N,07402.446,W,0,00,,,M,,M,,*56
$GPGLL,3954.888,N,07402.446,W,155201.312,V*37
$GPRMC,155202.312,V,3954.889,N,07402.445,W,30.1,0.84,110416,,E*49
$GPGGA,155203.312,3954.889,N,07402.445,W,0,00,,,M,,M,,*57
$GPGLL,3954.889,N,07402.445,W,155204.312,V*30
$GPRMC,155205.312,V,3954.890,N,07402.443,W,66.7,0.74,110416,,E*4A
$GPGGA,155206.312,3954.890,N,07402.443,W,0,00,,,M,,M,,*5C
$GPGLL,3954.890,N,07402.443,W,155207.312,V*3D
$GPRMC,155208.312,V,3954.890,N,07402.441,W,57.0,0.77,110416,,E*43
$GPGGA,155209.312,3954.890,N,07402.441,W,0,00,,,M,,M,,*51
$GPGLL,3954.890,N,07402.441,W,155210.312,V*39
$GPRMC,155211.312,V,3954.891,N,07402.440,W,80.7,0.68,110416,,E*48
$GPGGA,155212.312,3954.891,N,07402.440,W,0,00,,,M,,M,,*5B
$GPGLL,3954.891,N,07402.440,W,155213.312,V*3A
$GPRMC,155214.312,V,3954.892,N,07402.438,W,1.9,0.76,110416,,E*79
$GPGGA,155215.312,3954.892,N,07402.438,W,0,00,,,M,,M,,*50
$GPGLL,3954.892,N,07402.438,W,155216.312,V*33
$GPRMC,155217.312,V,3954.892,N,07402.436,W,40.5,0.87,110416,,E*43
$GPGGA,155218.312,3954.892,N,07402.436,W,0,00,,,M,,M,,*53
$GPGLL,3954.892,N,07402.436,W,155219.312,V*32
$GPRMC,155220.312,V,3954.892,N,07402.435,W,33.7,0.85,110416,,E*40
$GPGGA,155221.312,3954.892,N,07402.435,W,0,00,,,M,,M,,*5A
$GPGLL,3954.892,N,07402.435,W,155222.312,V*39
$GPRMC,155223.312,V,3954.893,N,07402.433,W,55.1,0.91,110416,,E*47
$GPGGA,155224.312,3954.893,N,07402.433,W,0,00,,,M,,M,,*58
$GPGLL,3954.893,N,07402.433,W,155225.312,V*39
$GPRMC,155226.312,V,3954.893,N,07402.431,W,14.5,0.93,110416,,E*43
$GPGGA,155227.312,3954.893,N,07402.431,W,0,00,,,M,,M,,*59
$GPGLL,3954.893,N,07402.431,W,155228.312,V*36
$GPRMC,155229.312,V,3954.893,N,07402.429,W,29.6,0.86,110416,,E*4C
$GPGGA,155230.312,3954.893,N,07402.429,W,0,00,,,M,,M,,*56
$GPGLL,3954.893,N,07402.429,W,155231.312,V*37
$GPRMC,155232.312,V,3954.893,N,07402.427,W,51.9,0.95,110416,,E*4A
$GPGGA,155233.312,3954.893,N,07402.427,W,0,00,,,M,,M,,*5B
$GPGLL,3954.893,N,07402.427,W,155234.312,V*3C
$GPRMC,155235.312,V,3954.893,N,07402.426,W,14.4,1.05,110416,,E*48
$GPGGA,155236.312,3954.893,N,07402.426,W,0,00,,,M,,M,,*5F
$GPGLL,3954.893,N,07402.426,W,155237.312,V*3E
$GPRMC,155238.312,V,3954.893,N,07402.424,W,24.8,0.99,110416,,E*4C
$GPGGA,155239.312,3954.893,N,07402.424,W,0,00,,,M,,M,,*52
$GPGLL,3954.893,N,07402.424,W,155240.312,V*3C
$GPRMC,155241.312,V,3954.893,N,07402.422,W,59.7,1.06,110416,,E*46
$GPGGA,155242.312,3954.893,N,07402.422,W,0,00,,,M,,M,,*58
$GPGLL,3954.893,N,07402.422,W,155243.312,V*39
$GPRMC,155244.312,V,3954.893,N,07402.420,W,34.4,1.03,110416,,E*4C
$GPGGA,155245.312,3954.893,N,07402.420,W,0,00,,,M,,M,,*5D
$GPGLL,3954.893,N,07402.420,W,155246.312,V*3E
$GPRMC,155247.312,V,3954.893,N,07402.418,W,18.7,1.06,110416,,E*4C
$GPGGA,155248.312,3954.893,N,07402.418,W,0,00,,,M,,M,,*5B
$GPGLL,3954.893,N,07402.418,W,155249.312,V*3A
$GPRMC,155250.312,V,3954.892,N,07402.417,W,96.0,1.33,110416,,E*43
$GPGGA,155251.312,3954.892,N,07402.417,W,0,00,,,M,,M,,*5D
$GPGLL,3954.892,N,07402.417,W,155252.312,V*3E
$GPRMC,155253.312,V,3954.891,N,07402.415,W,55.5,1.24,110416,,E*4D
$GPGGA,155254.312,3954.891,N,07402.415,W,0,00,,,M,,M,,*59
$GPGLL,3954.891,N,07402.415,W,155255.312,V*38
$GPRMC,155256.312,V,3954.891,N,07402.414,W,49.0,1.27,110416,,E*42
$GPGGA,155257.312,3954.891,N,07402.414,W,0,00,,,M,,M,,*5B
$GPGLL,3954.891,N,07402.414,W,155258.312,V*34
$GPRMC,155259.312,V,3954.890,N,07402.412,W,17.2,1.29,110416,,E*4D
$GPGGA,155300.312,3954.890,N,07402.412,W,0,00,,,M,,M,,*5F
$GPGLL,3954.890,N,07402.412,W,155301.312,V*3E
$GPRMC,155302.312,V,3954.889,N,07402.410,W,85.3,1.24,110416,,E*4F
$GPGGA,155303.312,3954.889,N,07402.410,W,0,00,,,M,,M,,*56
$GPGLL,3954.889,N,07402.410,W,155304.312,V*31
$GPRMC,155305.312,V,3954.888,N,07402.409,W,12.9,1.28,110416,,E*49
$GPGGA,155306.312,3954.888,N,07402.409,W,0,00,,,M,,M,,*5A
$GPGLL,3954.888,N,07402.409,W,155307.312,V*3B
$GPRMC,155308.312,V,3954.887,N,07402.407,W,18.9,1.34,110416,,E*42
$GPGGA,155309.312,3954.887,N,07402.407,W,0,00,,,M,,M,,*54
$GPGLL,3954.887,N,07402.407,W,155310.312,V*3C
$GPRMC,155311.312,V,3954.887,N,07402.405,W,14.3,1.28,110416,,E*43
$GPGGA,155312.312,3954.887,N,07402.405,W,0,00,,,M,,M,,*5C
$GPGLL,3954.887,N,07402.405,W,155313.312,V*3D
$GPRMC,155314.312,V,3954.886,N,07402.404,W,39.6,1.38,110416,,E*4D
$GPGGA,155315.312,3954.886,N,07402.404,W,0,00,,,M,,M,,*5B
$GPGLL,3954.886,N,07402.404,W,155316.312,V*38
$GPRMC,155317.312,V,3954.885,N,07402.403,W,85.2,1.46,110416,,E*40
$GPGGA,155318.312,3954.885,N,07402.403,W,0,00,,,M,,M,,*52
$GPGLL,3954.885,N,07402.403,W,155319.312,V*33
$GPRMC,155320.312,V,3954.883,N,07402.401,W,3.4,1.51,110416,,E*7E
$GPGGA,155321.312,3954.883,N,07402.401,W,0,00,,,M,,M,,*5C
$GPGLL,3954.883,N,07402.401,W,155322.312,V*3F
$GPRMC,155323.312,V,3954.882,N,07402.400,W,86.6,1.62,110416,,E*42
$GPGGA,155324.312,3954.882,N,07402.400,W,0,00,,,M,,M,,*59
$GPGLL,3954.882,N,07402.400,W,155325.312,V*38
$GPRMC,155326.312,V,3954.880,N,07402.399,W,52.8,1.58,110416,,E*4C
$GPGGA,155327.312,3954.880,N,07402.399,W,0,00,,,M,,M,,*5F
$GPGLL,3954.880,N,07402.399,W,155328.312,V*30
$GPRMC,155329.312,V,3954.879,N,07402.398,W,45.6,1.69,110416,,E*4E
$GPGGA,155330.312,3954.879,N,07402.398,W,0,00,,,M,,M,,*5E
$GPGLL,3954.879,N,07402.398,W,155331.312,V*3F
$GPRMC,155332.312,V,3954.877,N,07402.397,W,19.9,1.67,110416,,E*4D
$GPGGA,155333.312,3954.877,N,07402.397,W,0,00,,,M,,M,,*5C
$GPGLL,3954.877,N,07402.397,W,155334.312,V*3B
$GPRMC,155335.312,V,3954.875,N,07402.397,W,32.2,1.78,110416,,E*44
$GPGGA,155336.312,3954.875,N,07402.397,W,0,00,,,M,,M,,*5B
$GPGLL,3954.875,N,07402.397,W,155337.312,V*3A
$GPRMC,155338.312,V,3954.874,N,07402.396,W,85.8,1.80,110416,,E*48
$GPGGA,155339.312,3954.874,N,07402.396,W,0,00,,,M,,M,,*54
$GPGLL,3954.874,N,07402.396,W,155340.312,V*3A
$GPRMC,155341.312,V,3954.872,N,07402.396,W,39.3,1.80,110416,,E*4C
$GPGGA,155342.312,3954.872,N,07402.396,W,0,00,,,M,,M,,*5E
$GPGLL,3954.872,N,07402.396,W,155343.312,V*3F
$GPRMC,155344.312,V,3954.870,N,07402.395,W,72.7,1.88,110416,,E*4B
$GPGGA,155345.312,3954.870,N,07402.395,W,0,00,,,M,,M,,*58
$GPGLL,3954.870,N,07402.395,W,155346.312,V*3B
$GPRMC,155347.312,V,3954.869,N,07402.395,W,31.4,1.80,110416,,E*4C
$GPGGA,155348.312,3954.869,N,07402.395,W,0,00,,,M,,M,,*5D
$GPGLL,3954.869,N,07402.395,W,155349.312,V*3C
$GPRMC,155350.312,V,3954.867,N,07402.395,W,87.6,1.88,110416,,E*43
$GPGGA,155351.312,3954.867,N,07402.395,W,0,00,,,M,,M,,*5B
$GPGLL,3954.867,N,07402.395,W,155352.312,V*38
$GPRMC,155353.312,V,3954.865,N,07402.394,W,0.5,1.86,110416,,E*71
$GPGGA,155354.312,3954.865,N,07402.394,W,0,00,,,M,,M,,*5D
$GPGLL,3954.865,N,07402.394,W,155355.312,V*3C
$GPRMC,155356.312,V,3954.863,N,07402.394,W,83.0,1.93,110416,,E*48
$GPGGA,155357.312,3954.863,N,07402.394,W,0,00,,,M,,M,,*58
$GPGLL,3954.863,N,07402.394,W,155358.312,V*37
$GPRMC,155359.312,V,3954.861,N,07402.394,W,46.5,1.89,110416,,E*42
$GPGGA,155400.312,3954.861,N,07402.394,W,0,00,,,M,,M,,*5F
$GPGLL,3954.861,N,07402.394,W,155401.312,V*3E
$GPRMC,155402.312,V,3954.860,N,07402.394,W,67.6,2.00,110416,,E*48
$GPGGA,155403.312,3954.860,N,07402.394,W,0,00,,,M,,M,,*5D
$GPGLL,3954.860,N,07402.394,W,155404.312,V*3A
$GPRMC,155405.312,V,3954.858,N,07402.394,W,97.7,2.10,110416,,E*4B
$GPGGA,155406.312,3954.858,N,07402.394,W,0,00,,,M,,M,,*53
$GPGLL,3954.858,N,07402.394,W,155407.312,V*32
$GPRMC,155408.312,V,3954.856,N,07402.394,W,13.3,2.19,110416,,E*49
$GPGGA,155409.312,3954.856,N,07402.394,W,0,00,,,M,,M,,*52
$GPGLL,3954.856,N,07402.394,W,155410.312,V*3A
$GPRMC,155411.312,V,3954.854,N,07402.395,W,19.6,2.17,110416,,E*43
$GPGGA,155412.312,3954.854,N,07402.395,W,0,00,,,M,,M,,*5B
$GPGLL,3954.854,N,07402.395,W,155413.312,V*3A
$GPRMC,155414.312,V,3954.853,N,07402.394,W,74.8,1.72,110416,,E*45
$GPGGA,155415.312,3954.853,N,07402.394,W,0,00,,,M,,M,,*5A
$GPGLL,3954.853,N,07402.394,W,155416.312,V*39
$GPRMC,155417.312,V,3954.851,N,07402.393,W,96.1,1.65,110416,,E*40
$GPGGA,155418.312,3954.851,N,07402.393,W,0,00,,,M,,M,,*52
$GPGLL,3954.851,N,07402.393,W,155419.312,V*33
$GPRMC,155420.312,V,3954.850,N,07402.392,W,63.5,1.58,110416,,E*44
$GPGGA,155421.312,3954.850,N,07402.392,W,0,00,,,M,,M,,*58
$GPGLL,3954.850,N,07402.392,W,155422.312,V*3B
$GPRMC,155423.312,V,3954.848,N,07402.391,W,14.8,1.58,110416,,E*40
$GPGGA,155424.312,3954.848,N,07402.391,W,0,00,,,M,,M,,*57
$GPGLL,3954.848,N,07402.391,W,155425.312,V*36
$GPRMC,155426.312,V,3954.847,N,07402.390,W,10.7,1.54,110416,,E*4C
$GPGGA,155427.312,3954.847,N,07402.390,W,0,00,,,M,,M,,*5A
$GPGLL,3954.847,N,07402.390,W,155428.312,V*35
$GPRMC,155429.312,V,3954.846,N,07402.388,W,55.1,1.48,110416,,E*41
$GPGGA,155430.312,3954.846,N,07402.388,W,0,00,,,M,,M,,*54
$GPGLL,3954.846,N,07402.388,W,155431.312,V*35
$GPRMC,155432.312,V,3954.845,N,07402.387,W,51.9,1.41,110416,,E*42
$GPGGA,155433.312,3954.845,N,07402.387,W,0,00,,,M,,M,,*5B
$GPGLL,3954.845,N,07402.387,W,155434.312,V*3C
$GPRMC,155435.312,V,3954.844,N,07402.386,W,6.2,1.41,110416,,E*7C
$GPGGA,155436.312,3954.844,N,07402.386,W,0,00,,,M,,M,,*5E
$GPGLL,3954.844,N,07402.386,W,155437.312,V*3F
$GPRMC,155438.312,V,3954.842,N,07402.384,W,92.4,1.48,110416,,E*47
$GPGGA,155439.312,3954.842,N,07402.384,W,0,00,,,M,,M,,*55
$GPGLL,3954.842,N,07402.384,W,155440.312,V*3B
$GPRMC,155441.312,V,3954.841,N,07402.383,W,67.7,1.52,110416,,E*4F
$GPGGA,155442.312,3954.841,N,07402.383,W,0,00,,,M,,M,,*5D
$GPGLL,3954.841,N,07402.383,W,155443.312,V*3C
$GPRMC,155444.312,V,3954.840,N,07402.381,W,2.1,1.25,110416,,E*7C
$GPGGA,155445.312,3954.840,N,07402.381,W,0,00,,,M,,M,,*59
$GPGLL,3954.840,N,07402.381,W,155446.312,V*3A
$GPRMC,155447.312,V,3954.840,N,07402.380,W,59.4,1.18,110416,,E*4B
$GPGGA,155448.312,3954.840,N,07402.380,W,0,00,,,M,,M,,*55
$GPGLL,3954.840,N,07402.380,W,155449.312,V*34
