$GPRMC,155151.046,V,3354.928,N,08002.498,W,40.3,2.27,110416,,E*4B
$GPGGA,155152.046,3354.928,N,08002.498,W,0,00,,,M,,M,,*59
$GPGLL,3354.928,N,08002.498,W,155153.046,V*38
$GPVTG,2.27,T,,M,40.3,N,74.6,K*55
$GPRMC,155155.046,V,3354.927,N,08002.499,W,61.9,2.35,110416,,E*4B
$GPGGA,155156.046,3354.927,N,08002.499,W,0,00,,,M,,M,,*53
$GPGLL,3354.927,N,08002.499,W,155157.046,V*32
$GPVTG,2.35,T,,M,61.9,N,114.7,K*69
$GPRMC,155159.046,V,3354.925,N,08002.500,W,78.5,2.44,110416,,E*46
$GPGGA,155200.046,3354.925,N,08002.500,W,0,00,,,M,,M,,*50
$GPGLL,3354.925,N,08002.500,W,155201.046,V*31
$GPVTG,2.44,T,,M,78.5,N,145.5,K*6D
$GPRMC,155203.046,V,3354.924,N,08002.501,W,57.8,2.34,110416,,E*4D
$GPGGA,155204.046,3354.924,N,08002.501,W,0,00,,,M,,M,,*54
$GPGLL,3354.924,N,08002.501,W,155205.046,V*35
$GPVTG,2.34,T,,M,57.8,N,107.1,K*68
$GPRMC,155207.046,V,3354.922,N,08002.502,W,70.1,2.36,110416,,E*42
$GPGGA,155208.046,3354.922,N,08002.502,W,0,00,,,M,,M,,*5D
$GPGLL,3354.922,N,08002.502,W,155209.046,V*3C
$GPVTG,2.36,T,,M,70.1,N,129.8,K*63
$GPRMC,155211.046,V,3354.921,N,08002.503,W,62.1,2.44,110416,,E*41
$GPGGA,155212.046,3354.921,N,08002.503,W,0,00,,,M,,M,,*54
$GPGLL,3354.921,N,08002.503,W,155213.046,V*35
$GPVTG,2.44,T,,M,62.1,N,115.1,K*63
$GPRMC,155215.046,V,3354.919,N,08002.503,W,13.5,2.12,110416,,E*4F
$GPGGA,155216.046,3354.919,N,08002.503,W,0,00,,,M,,M,,*5B
$GPGLL,3354.919,N,08002.503,W,155217.046,V*3A
$GPVTG,2.12,T,,M,13.5,N,25.0,K*51
$GPRMC,155219.046,V,3354.917,N,08002.504,W,42.5,2.08,110416,,E*45
$GPGGA,155220.046,3354.917,N,08002.504,W,0,00,,,M,,M,,*57
$GPGLL,3354.917,N,08002.504,W,155221.046,V*36
$GPVTG,2.08,T,,M,42.5,N,78.8,K*5E
$GPRMC,155223.046,V,3354.915,N,08002.504,W,22.6,2.07,110416,,E*44
$GPGGA,155224.046,3354.915,N,08002.504,W,0,00,,,M,,M,,*51
$GPGLL,3354.915,N,08002.504,W,155225.046,V*30
$GPVTG,2.07,T,,M,22.6,N,41.9,K*5F
$GPRMC,155227.046,V,3354.914,N,08002.504,W,24.7,2.00,110416,,E*41
$GPGGA,155228.046,3354.914,N,08002.504,W,0,00,,,M,,M,,*5C
$GPGLL,3354.914,N,08002.504,W,155229.046,V*3D
$GPVTG,2.00,T,,M,24.7,N,45.7,K*55
$GPRMC,155231.046,V,3354.912,N,08002.505,W,83.7,2.26,110416,,E*48
$GPGGA,155232.046,3354.912,N,08002.505,W,0,00,,,M,,M,,*50
$GPGLL,3354.912,N,08002.505,W,155233.046,V*31
$GPVTG,2.26,T,,M,83.7,N,155.0,K*6B
$GPRMC,155235.046,V,3354.910,N,08002.505,W,44.8,2.17,110416,,E*48
$GPGGA,155236.046,3354.910,N,08002.505,W,0,00,,,M,,M,,*56
$GPGLL,3354.910,N,08002.505,W,155237.046,V*37
$GPVTG,2.17,T,,M,44.8,N,82.9,K*5F
$GPRMC,155239.046,V,3354.908,N,08002.506,W,97.1,2.17,110416,,E*49
$GPGGA,155240.046,3354.908,N,08002.506,W,0,00,,,M,,M,,*5D
$GPGLL,3354.908,N,08002.506,W,155241.046,V*3C
$GPVTG,2.17,T,,M,97.1,N,179.9,K*6D
$GPRMC,155243.046,V,3354.907,N,08002.506,W,9.4,2.22,110416,,E*7F
$GPGGA,155244.046,3354.907,N,08002.506,W,0,00,,,M,,M,,*56
$GPGLL,3354.907,N,08002.506,W,155245.046,V*37
$GPVTG,2.22,T,,M,9.4,N,17.3,K*6A
$GPRMC,155247.046,V,3354.905,N,08002.507,W,75.1,2.31,110416,,E*44
$GPGGA,155248.046,3354.905,N,08002.507,W,0,00,,,M,,M,,*59
$GPGLL,3354.905,N,08002.507,W,155249.046,V*38
$GPVTG,2.31,T,,M,75.1,N,139.1,K*69
$GPRMC,155251.046,V,3354.904,N,08002.508,W,19.6,2.35,110416,,E*44
$GPGGA,155252.046,3354.904,N,08002.508,W,0,00,,,M,,M,,*5C
$GPGLL,3354.904,N,08002.508,W,155253.046,V*3D
$GPVTG,2.35,T,,M,19.6,N,36.3,K*5C
$GPRMC,155255.046,V,3354.902,N,08002.509,W,61.2,2.57,110416,,E*48
$GPGGA,155256.046,3354.902,N,08002.509,W,0,00,,,M,,M,,*5F
$GPGLL,3354.902,N,08002.509,W,155257.046,V*3E
$GPVTG,2.57,T,,M,61.2,N,113.3,K*65
$GPRMC,155259.046,V,3354.901,N,08002.511,W,62.7,2.49,110416,,E*47
$GPGGA,155300.046,3354.901,N,08002.511,W,0,00,,,M,,M,,*57
$GPGLL,3354.901,N,08002.511,W,155301.046,V*36
$GPVTG,2.49,T,,M,62.7,N,116.2,K*68
$GPRMC,155303.046,V,3354.900,N,08002.512,W,10.8,2.50,110416,,E*49
$GPGGA,155304.046,3354.900,N,08002.512,W,0,00,,,M,,M,,*51
$GPGLL,3354.900,N,08002.512,W,155305.046,V*30
$GPVTG,2.50,T,,M,10.8,N,19.9,K*5F
$GPRMC,155307.046,V,3354.899,N,08002.513,W,20.1,2.49,110416,,E*4F
$GPGGA,155308.046,3354.899,N,08002.513,W,0,00,,,M,,M,,*5D
$GPGLL,3354.899,N,08002.513,W,155309.046,V*3C
$GPVTG,2.49,T,,M,20.1,N,37.3,K*5B
$GPRMC,155311.046,V,3354.897,N,08002.515,W,43.2,2.55,110416,,E*4B
$GPGGA,155312.046,3354.897,N,08002.515,W,0,00,,,M,,M,,*5E
$GPGLL,3354.897,N,08002.515,W,155313.046,V*3F
$GPVTG,2.55,T,,M,43.2,N,80.0,K*5F
$GPRMC,155315.046,V,3354.896,N,08002.516,W,4.0,2.47,110416,,E*7F
$GPGGA,155316.046,3354.896,N,08002.516,W,0,00,,,M,,M,,*58
$GPGLL,3354.896,N,08002.516,W,155317.046,V*39
$GPVTG,2.47,T,,M,4.0,N,7.4,K*56
$GPRMC,155319.046,V,3354.895,N,08002.517,W,52.2,2.37,110416,,E*47
$GPGGA,155320.046,3354.895,N,08002.517,W,0,00,,,M,,M,,*5F
$GPGLL,3354.895,N,08002.517,W,155321.046,V*3E
$GPVTG,2.37,T,,M,52.2,N,96.6,K*5A
$GPRMC,155323.046,V,3354.893,N,08002.518,W,79.3,2.37,110416,,E*4F
$GPGGA,155324.046,3354.893,N,08002.518,W,0,00,,,M,,M,,*52
$GPGLL,3354.893,N,08002.518,W,155325.046,V*33
$GPVTG,2.37,T,,M,79.3,N,146.8,K*60
$GPRMC,155327.046,V,3354.892,N,08002.519,W,83.2,2.45,110416,,E*4A
$GPGGA,155328.046,3354.892,N,08002.519,W,0,00,,,M,,M,,*5E
$GPGLL,3354.892,N,08002.519,W,155329.046,V*3F
$GPVTG,2.45,T,,M,83.2,N,154.1,K*6B
$GPRMC,155331.046,V,3354.890,N,08002.520,W,22.4,2.44,110416,,E*49
$GPGGA,155332.046,3354.890,N,08002.520,W,0,00,,,M,,M,,*5D
$GPGLL,3354.890,N,08002.520,W,155333.046,V*3C
$GPVTG,2.44,T,,M,22.4,N,41.5,K*56
$GPRMC,155335.046,V,3354.889,N,08002.521,W,23.3,2.48,110416,,E*4E
$GPGGA,155336.046,3354.889,N,08002.521,W,0,00,,,M,,M,,*50
$GPGLL,3354.889,N,08002.521,W,155337.046,V*31
$GPVTG,2.48,T,,M,23.3,N,43.1,K*5A
$GPRMC,155339.046,V,3354.888,N,08002.523,W,13.7,2.49,110416,,E*47
$GPGGA,155340.046,3354.888,N,08002.523,W,0,00,,,M,,M,,*52
$GPGLL,3354.888,N,08002.523,W,155341.046,V*33
$GPVTG,2.49,T,,M,13.7,N,25.3,K*5E
$GPRMC,155343.046,V,3354.887,N,08002.524,W,54.2,2.57,110416,,E*4B
$GPGGA,155344.046,3354.887,N,08002.524,W,0,00,,,M,,M,,*5E
$GPGLL,3354.887,N,08002.524,W,155345.046,V*3F
$GPVTG,2.57,T,,M,54.2,N,100.4,K*66
$GPRMC,155347.046,V,3354.886,N,08002.526,W,19.4,2.89,110416,,E*40
$GPGGA,155348.046,3354.886,N,08002.526,W,0,00,,,M,,M,,*51
$GPGLL,3354.886,N,08002.526,W,155349.046,V*30
$GPVTG,2.89,T,,M,19.4,N,36.0,K*5A
$GPRMC,155351.046,V,3354.886,N,08002.527,W,12.2,2.83,110416,,E*41
$GPGGA,155352.046,3354.886,N,08002.527,W,0,00,,,M,,M,,*5B
$GPGLL,3354.886,N,08002.527,W,155353.046,V*3A
$GPVTG,2.83,T,,M,12.2,N,22.5,K*5D
$GPRMC,155355.046,V,3354.885,N,08002.529,W,20.4,2.74,110416,,E*47
$GPGGA,155356.046,3354.885,N,08002.529,W,0,00,,,M,,M,,*52
$GPGLL,3354.885,N,08002.529,W,155357.046,V*33
$GPVTG,2.74,T,,M,20.4,N,37.7,K*54
$GPRMC,155359.046,V,3354.885,N,08002.531,W,71.3,2.85,110416,,E*4F
$GPGGA,155400.046,3354.885,N,08002.531,W,0,00,,,M,,M,,*5F
$GPGLL,3354.885,N,08002.531,W,155401.046,V*3E
$GPVTG,2.85,T,,M,71.3,N,132.0,K*6A
$GPRMC,155403.046,V,3354.885,N,08002.533,W,72.4,2.93,110416,,E*46
$GPGGA,155404.046,3354.885,N,08002.533,W,0,00,,,M,,M,,*59
$GPGLL,3354.885,N,08002.533,W,155405.046,V*38
$GPVTG,2.93,T,,M,72.4,N,134.1,K*6E
$GPRMC,155407.046,V,3354.885,N,08002.534,W,51.8,3.00,110416,,E*43
$GPGGA,155408.046,3354.885,N,08002.534,W,0,00,,,M,,M,,*52
$GPGLL,3354.885,N,08002.534,W,155409.046,V*33
$GPVTG,3.00,T,,M,51.8,N,96.0,K*50
$GPRMC,155411.046,V,3354.884,N,08002.536,W,68.4,2.92,110416,,E*4B
$GPGGA,155412.046,3354.884,N,08002.536,W,0,00,,,M,,M,,*5A
$GPGLL,3354.884,N,08002.536,W,155413.046,V*3B
$GPVTG,2.92,T,,M,68.4,N,126.6,K*60
$GPRMC,155415.046,V,3354.884,N,08002.538,W,55.4,2.97,110416,,E*4A
$GPGGA,155416.046,3354.884,N,08002.538,W,0,00,,,M,,M,,*50
$GPGLL,3354.884,N,08002.538,W,155417.046,V*31
$GPVTG,2.97,T,,M,55.4,N,102.6,K*6D
$GPRMC,155419.046,V,3354.884,N,08002.540,W,34.4,3.03,110416,,E*42
$GPGGA,155420.046,3354.884,N,08002.540,W,0,00,,,M,,M,,*5A
$GPGLL,3354.884,N,08002.540,W,155421.046,V*3B
$GPVTG,3.03,T,,M,34.4,N,63.7,K*51
$GPRMC,155423.046,V,3354.884,N,08002.542,W,11.0,3.08,110416,,E*41
$GPGGA,155424.046,3354.884,N,08002.542,W,0,00,,,M,,M,,*5C
$GPGLL,3354.884,N,08002.542,W,155425.046,V*3D
$GPVTG,3.08,T,,M,11.0,N,20.3,K*5A
$GPRMC,155427.046,V,3354.884,N,08002.543,W,52.9,2.97,110416,,E*4D
$GPGGA,155428.046,3354.884,N,08002.543,W,0,00,,,M,,M,,*51
$GPGLL,3354.884,N,08002.543,W,155429.046,V*30
$GPVTG,2.97,T,,M,52.9,N,98.0,K*53
$GPRMC,155431.046,V,3354.884,N,08002.545,W,16.2,2.73,110416,,E*4D
$GPGGA,155432.046,3354.884,N,08002.545,W,0,00,,,M,,M,,*5C
$GPGLL,3354.884,N,08002.545,W,155433.046,V*3D
$GPVTG,2.73,T,,M,16.2,N,30.1,K*51
$GPRMC,155435.046,V,3354.883,N,08002.547,W,60.5,2.75,110416,,E*4C
$GPGGA,155436.046,3354.883,N,08002.547,W,0,00,,,M,,M,,*5D
$GPGLL,3354.883,N,08002.547,W,155437.046,V*3C
$GPVTG,2.75,T,,M,60.5,N,112.0,K*61
$GPRMC,155439.046,V,3354.883,N,08002.548,W,69.0,2.83,110416,,E*4A
$GPGGA,155440.046,3354.883,N,08002.548,W,0,00,,,M,,M,,*53
$GPGLL,3354.883,N,08002.548,W,155441.046,V*32
$GPVTG,2.83,T,,M,69.0,N,127.7,K*65
$GPRMC,155443.046,V,3354.882,N,08002.550,W,7.7,2.75,110416,,E*79
$GPGGA,155444.046,3354.882,N,08002.550,W,0,00,,,M,,M,,*5F
$GPGLL,3354.882,N,08002.550,W,155445.046,V*3E
$GPVTG,2.75,T,,M,7.7,N,14.3,K*66
$GPRMC,155447.046,V,3354.881,N,08002.552,W,1.7,2.83,110416,,E*73
$GPGGA,155448.046,3354.881,N,08002.552,W,0,00,,,M,,M,,*52
$GPGLL,3354.881,N,08002.552,W,155449.046,V*33
$GPVTG,2.83,T,,M,1.7,N,3.1,K*5D
$GPRMC,155451.046,V,3354.882,N,08002.553,W,3.3,3.25,110416,,E*7D
$GPGGA,155452.046,3354.882,N,08002.553,W,0,00,,,M,,M,,*5B
$GPGLL,3354.882,N,08002.553,W,155453.046,V*3A
$GPVTG,3.25,T,,M,3.3,N,6.1,K*53
$GPRMC,155455.046,V,3354.883,N,08002.555,W,72.6,3.31,110416,,E*48
$GPGGA,155456.046,3354.883,N,08002.555,W,0,00,,,M,,M,,*58
$GPGLL,3354.883,N,08002.555,W,155457.046,V*39
$GPVTG,3.31,T,,M,72.6,N,134.4,K*60
$GPRMC,155459.046,V,3354.884,N,08002.557,W,58.2,3.31,110416,,E*4D
$GPGGA,155500.046,3354.884,N,08002.557,W,0,00,,,M,,M,,*5F
$GPGLL,3354.884,N,08002.557,W,155501.046,V*3E
$GPVTG,3.31,T,,M,58.2,N,107.8,K*60
$GPRMC,155503.046,V,3354.884,N,08002.558,W,73.7,3.24,110416,,E*44
$GPGGA,155504.046,3354.884,N,08002.558,W,0,00,,,M,,M,,*54
$GPGLL,3354.884,N,08002.558,W,155505.046,V*35
$GPVTG,3.24,T,,M,73.7,N,136.5,K*67
$GPRMC,155507.046,V,3354.885,N,08002.560,W,79.2,3.23,110416,,E*42
$GPGGA,155508.046,3354.885,N,08002.560,W,0,00,,,M,,M,,*52
$GPGLL,3354.885,N,08002.560,W,155509.046,V*33
$GPVTG,3.23,T,,M,79.2,N,146.8,K*65
$GPRMC,155511.046,V,3354.885,N,08002.562,W,25.1,3.13,110416,,E*4E
$GPGGA,155512.046,3354.885,N,08002.562,W,0,00,,,M,,M,,*5B
$GPGLL,3354.885,N,08002.562,W,155513.046,V*3A
$GPVTG,3.13,T,,M,25.1,N,46.5,K*50
$GPRMC,155515.046,V,3354.886,N,08002.564,W,48.1,3.05,110416,,E*43
$GPGGA,155516.046,3354.886,N,08002.564,W,0,00,,,M,,M,,*5A
$GPGLL,3354.886,N,08002.564,W,155517.046,V*3B
$GPVTG,3.05,T,,M,48.1,N,89.0,K*5A
$GPRMC,155519.046,V,3354.886,N,08002.565,W,76.9,3.14,110416,,E*4B
$GPGGA,155520.046,3354.886,N,08002.565,W,0,00,,,M,,M,,*5E
$GPGLL,3354.886,N,08002.565,W,155521.046,V*3F
$GPVTG,3.14,T,,M,76.9,N,142.5,K*6C
$GPRMC,155523.046,V,3354.886,N,08002.567,W,83.8,3.20,110416,,E*4C
$GPGGA,155524.046,3354.886,N,08002.567,W,0,00,,,M,,M,,*58
$GPGLL,3354.886,N,08002.567,W,155525.046,V*39
$GPVTG,3.20,T,,M,83.8,N,155.2,K*61
$GPRMC,155527.046,V,3354.888,N,08002.568,W,28.6,3.46,110416,,E*46
$GPGGA,155528.046,3354.888,N,08002.568,W,0,00,,,M,,M,,*55
$GPGLL,3354.888,N,08002.568,W,155529.046,V*34
$GPVTG,3.46,T,,M,28.6,N,53.0,K*5B
$GPRMC,155531.046,V,3354.889,N,08002.570,W,55.8,3.37,110416,,E*4B
$GPGGA,155532.046,3354.889,N,08002.570,W,0,00,,,M,,M,,*56
$GPGLL,3354.889,N,08002.570,W,155533.046,V*37
$GPVTG,3.37,T,,M,55.8,N,103.3,K*6E
$GPRMC,155535.046,V,3354.890,N,08002.571,W,88.8,3.41,110416,,E*47
$GPGGA,155536.046,3354.890,N,08002.571,W,0,00,,,M,,M,,*5B
$GPGLL,3354.890,N,08002.571,W,155537.046,V*3A
$GPVTG,3.41,T,,M,88.8,N,164.4,K*69
$GPRMC,155539.046,V,3354.891,N,08002.572,W,98.9,3.83,110416,,E*47
$GPGGA,155540.046,3354.891,N,08002.572,W,0,00,,,M,,M,,*58
$GPGLL,3354.891,N,08002.572,W,155541.046,V*39
$GPVTG,3.83,T,,M,98.9,N,183.1,K*6B
$GPRMC,155543.046,V,3354.893,N,08002.573,W,92.7,3.74,110416,,E*45
$GPGGA,155544.046,3354.893,N,08002.573,W,0,00,,,M,,M,,*5F
$GPGLL,3354.893,N,08002.573,W,155545.046,V*3E
$GPVTG,3.74,T,,M,92.7,N,171.7,K*6C
$GPRMC,155547.046,V,3354.895,N,08002.573,W,49.6,3.68,110416,,E*4D
$GPGGA,155548.046,3354.895,N,08002.573,W,0,00,,,M,,M,,*55
$GPGLL,3354.895,N,08002.573,W,155549.046,V*34
$GPVTG,3.68,T,,M,49.6,N,91.9,K*57
$GPRMC,155551.046,V,3354.896,N,08002.574,W,0.8,3.65,110416,,E*70
$GPGGA,155552.046,3354.896,N,08002.574,W,0,00,,,M,,M,,*5A
$GPGLL,3354.896,N,08002.574,W,155553.046,V*3B
$GPVTG,3.65,T,,M,0.8,N,1.4,K*5D
$GPRMC,155555.046,V,3354.898,N,08002.575,W,85.3,3.73,110416,,E*4A
$GPGGA,155556.046,3354.898,N,08002.575,W,0,00,,,M,,M,,*51
$GPGLL,3354.898,N,08002.575,W,155557.046,V*30
$GPVTG,3.73,T,,M,85.3,N,158.0,K*65
$GPRMC,155559.046,V,3354.900,N,08002.576,W,90.9,3.73,110416,,E*4B
$GPGGA,155600.046,3354.900,N,08002.576,W,0,00,,,M,,M,,*52
$GPGLL,3354.900,N,08002.576,W,155601.046,V*33
$GPVTG,3.73,T,,M,90.9,N,168.4,K*6C
$GPRMC,155603.046,V,3354.901,N,08002.576,W,33.8,4.10,110416,,E*4C
$GPGGA,155604.046,3354.901,N,08002.576,W,0,00,,,M,,M,,*57
$GPGLL,3354.901,N,08002.576,W,155605.046,V*36
$GPVTG,4.10,T,,M,33.8,N,62.6,K*5F
$GPRMC,155607.046,V,3354.903,N,08002.575,W,3.5,4.09,110416,,E*7F
$GPGGA,155608.046,3354.903,N,08002.575,W,0,00,,,M,,M,,*5A
$GPGLL,3354.903,N,08002.575,W,155609.046,V*3B
$GPVTG,4.09,T,,M,3.5,N,6.5,K*58
$GPRMC,155611.046,V,3354.905,N,08002.574,W,30.3,4.36,110416,,E*45
$GPGGA,155612.046,3354.905,N,08002.574,W,0,00,,,M,,M,,*56
$GPGLL,3354.905,N,08002.574,W,155613.046,V*37
$GPVTG,4.36,T,,M,30.3,N,56.1,K*53
$GPRMC,155615.046,V,3354.906,N,08002.573,W,16.5,4.45,110416,,E*43
$GPGGA,155616.046,3354.906,N,08002.573,W,0,00,,,M,,M,,*56
$GPGLL,3354.906,N,08002.573,W,155617.046,V*37
$GPVTG,4.45,T,,M,16.5,N,30.6,K*52
$GPRMC,155619.046,V,3354.907,N,08002.572,W,30.8,4.43,110416,,E*40
$GPGGA,155620.046,3354.907,N,08002.572,W,0,00,,,M,,M,,*53
$GPGLL,3354.907,N,08002.572,W,155621.046,V*32
$GPVTG,4.43,T,,M,30.8,N,57.0,K*5A
$GPRMC,155623.046,V,3354.909,N,08002.571,W,47.3,4.47,110416,,E*4B
$GPGGA,155624.046,3354.909,N,08002.571,W,0,00,,,M,,M,,*5A
$GPGLL,3354.909,N,08002.571,W,155625.046,V*3B
$GPVTG,4.47,T,,M,47.3,N,87.5,K*5D
$GPRMC,155627.046,V,3354.910,N,08002.570,W,82.3,4.40,110416,,E*48
$GPGGA,155628.046,3354.910,N,08002.570,W,0,00,,,M,,M,,*5F
$GPGLL,3354.910,N,08002.570,W,155629.046,V*3E
$GPVTG,4.40,T,,M,82.3,N,152.4,K*6B
$GPRMC,155631.046,V,3354.912,N,08002.569,W,65.1,4.35,110416,,E*4C
$GPGGA,155632.046,3354.912,N,08002.569,W,0,00,,,M,,M,,*5E
$GPGLL,3354.912,N,08002.569,W,155633.046,V*3F
$GPVTG,4.35,T,,M,65.1,N,120.6,K*65
$GPRMC,155635.046,V,3354.913,N,08002.568,W,24.1,4.37,110416,,E*4F
$GPGGA,155636.046,3354.913,N,08002.568,W,0,00,,,M,,M,,*5A
$GPGLL,3354.913,N,08002.568,W,155637.046,V*3B
$GPVTG,4.37,T,,M,24.1,N,44.7,K*50
$GPRMC,155639.046,V,3354.915,N,08002.567,W,4.8,4.35,110416,,E*73
$GPGGA,155640.046,3354.915,N,08002.567,W,0,00,,,M,,M,,*52
$GPGLL,3354.915,N,08002.567,W,155641.046,V*33
$GPVTG,4.35,T,,M,4.8,N,8.9,K*5F
$GPRMC,155643.046,V,3354.916,N,08002.566,W,11.9,4.31,110416,,E*4D
$GPGGA,155644.046,3354.916,N,08002.566,W,0,00,,,M,,M,,*54
$GPGLL,3354.916,N,08002.566,W,155645.046,V*35
$GPVTG,4.31,T,,M,11.9,N,22.0,K*5F
$GPRMC,155647.046,V,3354.918,N,08002.565,W,87.1,4.27,110416,,E*44
$GPGGA,155648.046,3354.918,N,08002.565,W,0,00,,,M,,M,,*55
$GPGLL,3354.918,N,08002.565,W,155649.046,V*34
$GPVTG,4.27,T,,M,87.1,N,161.3,K*6A
$GPRMC,155651.046,V,3354.920,N,08002.564,W,20.7,4.32,110416,,E*46
$GPGGA,155652.046,3354.920,N,08002.564,W,0,00,,,M,,M,,*54
$GPGLL,3354.920,N,08002.564,W,155653.046,V*35
$GPVTG,4.32,T,,M,20.7,N,38.4,K*5F
$GPRMC,155655.046,V,3354.921,N,08002.563,W,15.9,4.38,110416,,E*46
$GPGGA,155656.046,3354.921,N,08002.563,W,0,00,,,M,,M,,*56
$GPGLL,3354.921,N,08002.563,W,155657.046,V*37
$GPVTG,4.38,T,,M,15.9,N,29.4,K*5D
$GPRMC,155659.046,V,3354.923,N,08002.563,W,84.5,4.30,110416,,E*44
$GPGGA,155700.046,3354.923,N,08002.563,W,0,00,,,M,,M,,*56
$GPGLL,3354.923,N,08002.563,W,155701.046,V*37
$GPVTG,4.30,T,,M,84.5,N,156.6,K*6A
$GPRMC,155703.046,V,3354.924,N,08002.562,W,51.7,4.30,110416,,E*46
$GPGGA,155704.046,3354.924,N,08002.562,W,0,00,,,M,,M,,*54
$GPGLL,3354.924,N,08002.562,W,155705.046,V*35
$GPVTG,4.30,T,,M,51.7,N,95.8,K*50
$GPRMC,155707.046,V,3354.926,N,08002.561,W,84.6,4.31,110416,,E*4B
$GPGGA,155708.046,3354.926,N,08002.561,W,0,00,,,M,,M,,*59
$GPGLL,3354.926,N,08002.561,W,155709.046,V*38
$GPVTG,4.31,T,,M,84.6,N,156.6,K*68
$GPRMC,155711.046,V,3354.928,N,08002.560,W,24.0,4.21,110416,,E*4E
$GPGGA,155712.046,3354.928,N,08002.560,W,0,00,,,M,,M,,*5D
$GPGLL,3354.928,N,08002.560,W,155713.046,V*3C
$GPVTG,4.21,T,,M,24.0,N,44.5,K*54
$GPRMC,155715.046,V,3354.929,N,08002.560,W,96.6,4.18,110416,,E*4E
$GPGGA,155716.046,3354.929,N,08002.560,W,0,00,,,M,,M,,*58
$GPGLL,3354.929,N,08002.560,W,155717.046,V*39
$GPVTG,4.18,T,,M,96.6,N,178.9,K*63
$GPRMC,155719.046,V,3354.931,N,08002.560,W,92.7,4.08,110416,,E*4F
$GPGGA,155720.046,3354.931,N,08002.560,W,0,00,,,M,,M,,*54
$GPGLL,3354.931,N,08002.560,W,155721.046,V*35
$GPVTG,4.08,T,,M,92.7,N,171.7,K*60
$GPRMC,155723.046,V,3354.933,N,08002.560,W,45.7,4.05,110416,,E*43
$GPGGA,155724.046,3354.933,N,08002.560,W,0,00,,,M,,M,,*52
$GPGLL,3354.933,N,08002.560,W,155725.046,V*33
$GPVTG,4.05,T,,M,45.7,N,84.7,K*5C
$GPRMC,155727.046,V,3354.935,N,08002.559,W,32.1,4.03,110416,,E*4B
$GPGGA,155728.046,3354.935,N,08002.559,W,0,00,,,M,,M,,*52
$GPGLL,3354.935,N,08002.559,W,155729.046,V*33
$GPVTG,4.03,T,,M,32.1,N,59.5,K*5E
$GPRMC,155731.046,V,3354.936,N,08002.560,W,14.4,3.95,110416,,E*4C
$GPGGA,155732.046,3354.936,N,08002.560,W,0,00,,,M,,M,,*50
$GPGLL,3354.936,N,08002.560,W,155733.046,V*31
$GPVTG,3.95,T,,M,14.4,N,26.7,K*5D
$GPRMC,155735.046,V,3354.938,N,08002.560,W,2.0,3.93,110416,,E*73
$GPGGA,155736.046,3354.938,N,08002.560,W,0,00,,,M,,M,,*5A
$GPGLL,3354.938,N,08002.560,W,155737.046,V*3B
$GPVTG,3.93,T,,M,2.0,N,3.6,K*5E
$GPRMC,155739.046,V,3354.940,N,08002.560,W,18.8,3.89,110416,,E*48
$GPGGA,155740.046,3354.940,N,08002.560,W,0,00,,,M,,M,,*54
$GPGLL,3354.940,N,08002.560,W,155741.046,V*35
$GPVTG,3.89,T,,M,18.8,N,34.9,K*5D
$GPRMC,155743.046,V,3354.942,N,08002.560,W,6.5,3.95,110416,,E*78
$GPGGA,155744.046,3354.942,N,08002.560,W,0,00,,,M,,M,,*52
$GPGLL,3354.942,N,08002.560,W,155745.046,V*33
$GPVTG,3.95,T,,M,6.5,N,12.0,K*6F
$GPRMC,155747.046,V,3354.944,N,08002.560,W,77.0,4.04,110416,,E*46
$GPGGA,155748.046,3354.944,N,08002.560,W,0,00,,,M,,M,,*58
$GPGLL,3354.944,N,08002.560,W,155749.046,V*39
$GPVTG,4.04,T,,M,77.0,N,142.7,K*60
$GPRMC,155751.046,V,3354.945,N,08002.560,W,25.4,4.09,110416,,E*4E
$GPGGA,155752.046,3354.945,N,08002.560,W,0,00,,,M,,M,,*52
$GPGLL,3354.945,N,08002.560,W,155753.046,V*33
$GPVTG,4.09,T,,M,25.4,N,47.1,K*5C
$GPRMC,155755.046,V,3354.947,N,08002.560,W,50.7,3.98,110416,,E*46
$GPGGA,155756.046,3354.947,N,08002.560,W,0,00,,,M,,M,,*54
$GPGLL,3354.947,N,08002.560,W,155757.046,V*35
$GPVTG,3.98,T,,M,50.7,N,93.9,K*53
$GPRMC,155759.046,V,3354.949,N,08002.560,W,32.7,3.96,110416,,E*4E
$GPGGA,155800.046,3354.949,N,08002.560,W,0,00,,,M,,M,,*56
$GPGLL,3354.949,N,08002.560,W,155801.046,V*37
$GPVTG,3.96,T,,M,32.7,N,60.6,K*5A
$GPRMC,155803.046,V,3354.951,N,08002.560,W,59.1,4.05,110416,,E*41
$GPGGA,155804.046,3354.951,N,08002.560,W,0,00,,,M,,M,,*5B
$GPGLL,3354.951,N,08002.560,W,155805.046,V*3A
$GPVTG,4.05,T,,M,59.1,N,109.4,K*60
$GPRMC,155807.046,V,3354.953,N,08002.560,W,48.5,4.07,110416,,E*41
$GPGGA,155808.046,3354.953,N,08002.560,W,0,00,,,M,,M,,*55
$GPGLL,3354.953,N,08002.560,W,155809.046,V*34
$GPVTG,4.07,T,,M,48.5,N,89.7,K*5C
$GPRMC,155811.046,V,3354.954,N,08002.560,W,76.2,3.96,110416,,E*44
$GPGGA,155812.046,3354.954,N,08002.560,W,0,00,,,M,,M,,*59
$GPGLL,3354.954,N,08002.560,W,155813.046,V*38
$GPVTG,3.96,T,,M,76.2,N,141.2,K*69
$GPRMC,155815.046,V,3354.956,N,08002.560,W,13.1,3.99,110416,,E*4D
$GPGGA,155816.046,3354.956,N,08002.560,W,0,00,,,M,,M,,*5F
$GPGLL,3354.956,N,08002.560,W,155817.046,V*3E
$GPVTG,3.99,T,,M,13.1,N,24.3,K*55
$GPRMC,155819.046,V,3354.958,N,08002.560,W,73.3,3.98,110416,,E*4A
$GPGGA,155820.046,3354.958,N,08002.560,W,0,00,,,M,,M,,*54
$GPGLL,3354.958,N,08002.560,W,155821.046,V*35
$GPVTG,3.98,T,,M,73.3,N,135.8,K*6A
$GPRMC,155823.046,V,3354.960,N,08002.560,W,66.2,3.92,110416,,E*47
$GPGGA,155824.046,3354.960,N,08002.560,W,0,00,,,M,,M,,*5B
$GPGLL,3354.960,N,08002.560,W,155825.046,V*3A
$GPVTG,3.92,T,,M,66.2,N,122.6,K*6D
$GPRMC,155827.046,V,3354.962,N,08002.561,W,2.1,3.86,110416,,E*74
$GPGGA,155828.046,3354.962,N,08002.561,W,0,00,,,M,,M,,*54
$GPGLL,3354.962,N,08002.561,W,155829.046,V*35
$GPVTG,3.86,T,,M,2.1,N,4.0,K*5A
