$GPGSV,3,1,12,02,33,147,,06,37,092,,12,42,306,,13,14,181,*7E
$GPGSV,3,2,12,14,00,000,,15,28,219,,17,19,040,,19,47,040,*7F
$GPGSV,3,3,12,24,71,317,,25,12,284,,28,01,078,,29,00,000,*7A
$GLGSV,2,1,08,86,64,188,31,74,20,112,,66,03,275,,75,59,057,*6D
$GLGSV,2,2,08,84,04,026,,87,09,202,,85,53,036,,67,00,000,*68
$GPGSA,A,1,,,,,,,,,,,,,,,*1E
$GPVTG,,T,,M,,N,,K,N*2C
$GPRMC,,V,,,,,,,,,,N*53
$GPGGA,,,,,,0,,,,,,,,*66
$GPGSV,3,1,12,12,42,306,32,15,28,219,26,17,19,040,37,19,47,040,30*7B
$GPGSV,3,2,12,24,71,317,29,02,33,147,,06,37,092,,13,14,181,*73
$GPGSV,3,3,12,14,00,000,,25,12,284,,28,01,078,,29,00,000,*7A
$GLGSV,2,1,08,86,64,188,33,74,20,112,,66,03,275,,75,59,057,*6F
$GLGSV,2,2,08,84,04,026,,87,09,202,,85,53,036,,67,00,000,*68
$GPGSA,A,1,,,,,,,,,,,,,,,*1E
$GPVTG,,T,,M,,N,,K,N*2C
$GPRMC,,V,,,,,,,,,,N*53
$GPGGA,,,,,,0,,,,,,,,*66
$GPGSV,3,1,12,06,37,092,27,12,42,306,33,15,28,219,24,17,19,040,37*78
$GPGSV,3,2,12,19,47,040,29,24,71,317,29,02,33,147,,13,14,181,*7E
$GPGSV,3,3,12,14,00,000,,25,12,284,,28,01,078,,29,00,000,*7A
$GLGSV,2,1,08,86,64,188,32,75,59,057,23,87,09,202,28,85,53,036,28*67
$GLGSV,2,2,08,74,20,112,,66,03,275,,84,04,026,,67,00,000,*60
$GPGSA,A,1,,,,,,,,,,,,,,,*1E
$GPVTG,,T,,M,,N,,K,N*2C
$GPRMC,,V,,,,,,,,,,N*53
$GPGGA,,,,,,0,,,,,,,,*66
$GPGSV,3,1,12,06,37,092,27,12,42,306,33,15,28,219,24,17,19,040,37*78
$GPGSV,3,2,12,19,47,040,29,24,71,317,29,02,33,147,,13,14,181,*7E
$GPGSV,3,3,12,14,00,000,,25,12,284,,28,01,078,,29,00,000,*7A
$GLGSV,2,1,08,86,64,188,32,75,59,057,23,87,09,202,28,85,53,036,28*67
$GLGSV,2,2,08,74,20,112,,66,03,275,,84,04,026,,67,00,000,*60
$GPGSA,A,2,15,17,19,,,,,,,,,,2.0,1.2,1.5*3C
$GPVTG,301.2,T,301.2,M,1.7,N,3.1,K,A*27
$GPRMC,140636,A,3206.474065,N,03500.461162,E,1.7,301.2,130416,3.0,E,A*1A
$GPGGA,140636,3206.474065,N,03500.461162,E,1,03,1.2,132.0,M,19.0,M,,*4F
$GPGSV,3,1,12,02,33,147,27,06,37,092,23,12,42,306,30,13,13,181,26*7A
$GPGSV,3,2,12,15,28,219,28,17,19,040,37,19,47,040,31,24,71,317,32*72
$GPGSV,3,3,12,14,00,000,,25,12,284,,28,01,078,,29,00,000,*7A
$GLGSV,2,1,08,74,20,112,31,86,64,188,32,75,59,057,25,87,09,202,30*6D
$GLGSV,2,2,08,85,53,036,29,66,03,275,,84,04,026,,67,00,000,*66
$GPGSA,A,3,02,06,12,13,15,17,19,24,,,,,1.7,0.9,1.5*30
$GPVTG,301.2,T,301.2,M,1.1,N,2.1,K,A*20
$GPRMC,140637,A,3206.472828,N,03500.464461,E,1.1,301.2,130416,3.0,E,A*19
$GPGGA,140637,3206.472828,N,03500.464461,E,1,08,0.9,129.0,M,19.0,M,,*41
$GPGSV,3,1,12,02,33,147,25,06,37,092,25,12,42,306,28,13,13,181,27*76
$GPGSV,3,2,12,15,28,219,31,17,19,040,39,19,47,040,32,24,71,317,33*76
$GPGSV,3,3,12,25,12,284,22,14,00,000,,28,01,078,,29,00,000,*7A
$GLGSV,2,1,08,74,20,112,30,66,03,275,19,86,64,188,34,75,59,057,21*60
$GLGSV,2,2,08,84,04,026,19,87,09,202,27,85,53,036,20,67,00,000,*67
$GPGSA,A,3,02,06,12,13,15,17,19,24,25,,,,1.2,0.7,1.0*39
$GPVTG,301.2,T,301.2,M,0.9,N,1.7,K,A*2C
$GPRMC,140638,A,3206.472042,N,03500.463835,E,0.9,301.2,130416,3.0,E,A*11
$GPGGA,140638,3206.472042,N,03500.463835,E,1,09,0.7,134.0,M,19.0,M,,*43
$GPGSV,3,1,11,02,33,147,31,06,37,092,23,12,42,306,31,13,13,181,29*70
$GPGSV,3,2,11,15,28,219,28,17,19,040,33,19,47,040,34,24,71,317,34*76
$GPGSV,3,3,11,25,12,284,23,14,00,000,,28,01,078,*43
$GLGSV,2,1,08,74,20,112,33,66,03,275,20,86,64,188,33,75,59,057,24*6B
$GLGSV,2,2,08,84,04,026,16,87,09,202,28,85,53,036,25,67,00,000,*62
$GPGSA,A,3,02,06,12,13,15,17,19,24,25,,,,1.2,0.6,1.0*38
$GPVTG,265.1,T,265.1,M,2.1,N,3.9,K,A*2A
$GPRMC,140639,A,3206.470996,N,03500.465577,E,2.1,265.1,130416,3.0,E,A*15
$GPGGA,140639,3206.470996,N,03500.465577,E,1,09,0.6,148.0,M,19.0,M,,*47
$GPGSV,3,1,12,02,33,147,32,06,37,092,22,12,42,306,31,13,13,181,31*78
$GPGSV,3,2,12,15,28,219,23,17,19,040,35,19,47,040,33,24,71,317,33*78
$GPGSV,3,3,12,25,12,284,17,14,00,000,,28,01,078,,29,00,000,*7C
$GLGSV,2,1,08,74,20,112,29,66,03,275,19,86,64,188,33,75,59,057,20*6E
$GLGSV,2,2,08,84,04,026,16,87,09,202,31,85,53,036,27,67,00,000,*68
$GPGSA,A,3,02,06,12,13,15,17,19,24,25,,,,1.0,0.7,0.7*3D
$GPVTG,257.3,T,257.3,M,1.9,N,3.5,K,A*2D
$GPRMC,140640,A,3206.470933,N,03500.464995,E,1.9,257.3,130416,3.0,E,A*1D
$GPGGA,140640,3206.470933,N,03500.464995,E,1,09,0.7,147.0,M,19.0,M,,*49
$GPGSV,3,1,12,02,33,147,30,06,37,092,27,12,42,306,32,13,13,181,27*7B
$GPGSV,3,2,12,15,28,219,24,17,19,040,35,19,47,040,30,24,71,317,33*7C
$GPGSV,3,3,12,25,12,284,21,14,00,000,,28,01,078,,29,00,000,*79
$GLGSV,2,1,08,74,20,112,31,66,03,275,16,86,64,188,32,75,59,057,25*6C
$GLGSV,2,2,08,84,04,026,14,87,09,202,31,85,53,036,26,67,00,000,*6B
$GPGSA,A,3,02,06,12,13,15,17,19,24,25,,,,1.1,0.7,0.8*33
$GPVTG,271.5,T,271.5,M,2.8,N,5.1,K,A*2D
$GPRMC,140641,A,3206.470716,N,03500.463312,E,2.8,271.5,130416,3.0,E,A*17
$GPGGA,140641,3206.470716,N,03500.463312,E,1,09,0.7,146.0,M,19.0,M,,*42
$GPGSV,3,1,12,02,33,147,37,06,37,092,24,12,42,306,28,13,13,181,29*7A
$GPGSV,3,2,12,15,28,219,25,17,19,040,35,19,47,040,29,24,71,317,33*75
$GPGSV,3,3,12,25,12,284,18,14,00,000,,28,01,078,,29,00,000,*73
$GLGSV,2,1,08,74,20,112,34,66,03,275,17,86,64,188,30,75,59,057,27*68
$GLGSV,2,2,08,84,04,026,14,87,09,202,28,85,53,036,30,67,00,000,*64
$GPGSA,A,3,02,06,12,13,15,17,19,24,25,,,,1.2,0.8,0.8*3F
$GPVTG,263.2,T,263.2,M,2.4,N,4.4,K,A*25
$GPRMC,140642,A,3206.470767,N,03500.462770,E,2.4,263.2,130416,3.0,E,A*1B
$GPGGA,140642,3206.470767,N,03500.462770,E,1,09,0.8,145.0,M,19.0,M,,*4A
$GPGSV,3,1,12,02,33,147,38,06,37,092,25,12,42,306,24,13,13,181,28*79
$GPGSV,3,2,12,17,19,040,36,19,47,040,29,24,71,317,33,25,12,284,20*7D
$GPGSV,3,3,12,14,00,000,,15,28,219,,28,01,078,,29,00,000,*74
$GLGSV,2,1,08,74,20,112,34,66,03,275,17,86,64,188,29,75,59,057,30*66
$GLGSV,2,2,08,84,04,026,16,87,09,202,25,85,53,036,24,67,00,000,*6E
$GPGSA,A,3,02,06,12,13,17,19,24,25,,,,,1.2,0.9,0.8*3A
$GPVTG,262.7,T,262.7,M,2.3,N,4.2,K,A*24
$GPRMC,140643,A,3206.470766,N,03500.461868,E,2.3,262.7,130416,3.0,E,A*1D
$GPGGA,140643,3206.470766,N,03500.461868,E,1,08,0.9,145.0,M,19.0,M,,*4F
$GPGSV,3,1,12,02,33,147,32,06,37,092,29,12,42,306,18,13,13,181,24*7C
$GPGSV,3,2,12,17,19,040,36,19,47,040,28,24,71,317,32,25,12,284,19*77
$GPGSV,3,3,12,14,00,000,,15,28,219,,28,01,078,,29,00,000,*74
$GLGSV,2,1,08,74,20,112,35,66,03,275,16,86,64,188,30,75,59,057,31*6F
$GLGSV,2,2,08,84,04,026,16,87,09,202,27,85,53,036,22,67,00,000,*6A
$GPGSA,A,3,02,06,12,13,17,19,24,25,,,,,1.4,1.1,0.8*35
$GPVTG,265.8,T,265.8,M,2.5,N,4.7,K,A*27
$GPRMC,140644,A,3206.471233,N,03500.460976,E,2.5,265.8,130416,3.0,E,A*1F
$GPGGA,140644,3206.471233,N,03500.460976,E,1,08,1.1,144.0,M,19.0,M,,*4B
$GPGSV,3,1,12,02,33,147,27,06,37,092,27,12,42,306,20,13,13,181,30*78
$GPGSV,3,2,12,15,28,219,23,17,19,040,38,19,47,040,32,24,71,317,26*70
$GPGSV,3,3,12,25,12,284,24,14,00,000,,28,01,078,,29,00,000,*7C
$GLGSV,2,1,08,74,20,112,35,66,03,275,17,86,64,188,28,75,59,057,30*66
$GLGSV,2,2,08,84,04,026,15,87,09,202,26,85,53,036,31,67,00,000,*6A
$GPGSA,A,3,02,06,12,13,15,17,19,24,25,,,,1.1,0.8,0.8*3C
$GPVTG,270.7,T,270.7,M,2.5,N,4.6,K,A*26
$GPRMC,140645,A,3206.471349,N,03500.460249,E,2.5,270.7,130416,3.0,E,A*1E
$GPGGA,140645,3206.471349,N,03500.460249,E,1,09,0.8,144.0,M,19.0,M,,*48
$GPGSV,3,1,12,02,33,147,34,06,37,092,26,12,42,306,20,13,13,181,29*73
$GPGSV,3,2,12,14,00,000,19,15,28,219,22,17,19,040,36,19,47,040,34*75
$GPGSV,3,3,12,24,71,317,20,25,12,284,22,28,01,078,,29,00,000,*78
$GLGSV,2,1,08,74,20,112,32,66,03,275,16,86,64,188,17,75,59,057,27*6A
$GLGSV,2,2,08,84,04,026,16,87,09,202,29,85,53,036,27,67,00,000,14*64
$GPGSA,A,3,02,06,12,13,14,15,17,19,24,25,,,1.2,0.8,0.9*3B
$GPVTG,265.3,T,265.3,M,2.0,N,3.8,K,A*2A
$GPRMC,140646,A,3206.470638,N,03500.458394,E,2.0,265.3,130416,3.0,E,A*10
$GPGGA,140646,3206.470638,N,03500.458394,E,1,10,0.8,142.0,M,19.0,M,,*4D
$GPGSV,3,1,12,02,33,147,35,06,37,092,25,12,42,306,21,13,13,181,30*78
$GPGSV,3,2,12,14,00,000,20,15,28,219,30,17,19,040,34,19,47,040,33*79
$GPGSV,3,3,12,24,71,317,20,25,12,284,22,28,01,078,,29,00,000,*78
$GLGSV,2,1,08,74,20,112,35,66,03,275,16,86,64,188,17,75,59,057,24*6E
$GLGSV,2,2,08,84,04,026,16,87,09,202,29,85,53,036,27,67,00,000,15*65
$GPGSA,A,3,02,06,12,13,14,15,17,19,24,25,,,1.1,0.8,0.9*38
$GPVTG,,T,,M,0.0,N,0.0,K,A*23
$GPRMC,140647,A,3206.470367,N,03500.459134,E,0.0,,130416,3.0,E,A*39
$GPGGA,140647,3206.470367,N,03500.459134,E,1,10,0.8,141.0,M,19.0,M,,*49
$GPGSV,3,1,12,02,33,147,35,06,37,092,26,12,42,306,23,13,13,181,32*7B
$GPGSV,3,2,12,14,00,000,19,15,28,219,30,17,19,040,34,19,47,040,32*72
$GPGSV,3,3,12,24,71,317,17,25,12,284,20,28,01,078,,29,00,000,*7E
$GLGSV,2,1,08,74,20,112,36,66,03,275,16,86,64,188,16,75,59,057,24*6C
$GLGSV,2,2,08,84,04,026,16,87,09,202,28,85,53,036,25,67,00,000,16*65
$GPGSA,A,3,02,06,12,13,14,15,17,19,24,25,,,1.1,0.8,0.9*38
$GPVTG,,T,,M,0.0,N,0.0,K,A*23
$GPRMC,140648,A,3206.470568,N,03500.458844,E,0.0,,130416,3.0,E,A*30
$GPGGA,140648,3206.470568,N,03500.458844,E,1,10,0.8,140.0,M,19.0,M,,*41
$GPGSV,3,1,12,02,33,147,31,06,37,092,23,12,42,306,18,13,13,181,31*71
$GPGSV,3,2,12,14,00,000,18,15,28,219,29,17,19,040,31,19,47,040,32*7E
$GPGSV,3,3,12,24,71,317,17,25,12,284,23,28,01,078,,29,00,000,*7D
$GLGSV,2,1,08,74,20,112,35,66,03,275,14,86,64,188,16,75,59,057,23*6A
$GLGSV,2,2,08,84,04,026,16,87,09,202,28,85,53,036,29,67,00,000,15*6A
$GPGSA,A,3,02,06,12,13,14,15,17,19,24,25,,,1.2,0.8,0.9*3B
$GPVTG,,T,,M,0.0,N,0.0,K,A*23
$GPRMC,140649,A,3206.470630,N,03500.458558,E,0.0,,130416,3.0,E,A*3F
$GPGGA,140649,3206.470630,N,03500.458558,E,1,10,0.8,140.0,M,19.0,M,,*4E
$GPGSV,3,1,12,02,33,147,38,06,37,092,27,12,42,306,21,13,13,181,31*76
$GPGSV,3,2,12,14,00,000,18,15,28,219,25,17,19,040,31,19,47,040,35*75
$GPGSV,3,3,12,24,71,317,15,25,12,284,24,28,01,078,,29,00,000,*78
$GLGSV,2,1,08,74,20,112,32,66,03,275,16,86,64,188,17,75,59,057,27*6A
$GLGSV,2,2,08,84,04,026,17,87,09,202,28,85,53,036,28,67,00,000,15*6A
$GPGSA,A,3,02,06,12,13,14,15,17,19,24,25,,,1.1,0.8,0.9*38
$GPVTG,255.9,T,255.9,M,0.6,N,1.1,K,A*25
$GPRMC,140650,A,3206.470743,N,03500.458048,E,0.6,255.9,130416,3.0,E,A*15
$GPGGA,140650,3206.470743,N,03500.458048,E,1,10,0.8,139.0,M,19.0,M,,*49
$GPGSV,3,1,12,02,33,147,35,06,37,092,25,12,42,306,18,13,13,181,29*7A
$GPGSV,3,2,12,14,00,000,17,15,28,219,26,17,19,040,33,19,47,040,33*7D
$GPGSV,3,3,12,24,71,317,18,25,12,284,22,28,01,078,,29,00,000,*73
$GLGSV,2,1,08,74,20,112,28,66,03,275,16,86,64,188,18,75,59,057,28*61
$GLGSV,2,2,08,84,04,026,19,87,09,202,28,85,53,036,20,67,00,000,15*6C
$GPGSA,A,3,02,06,12,13,14,15,17,19,24,25,,,1.3,0.9,0.9*3B
$GPVTG,250.5,T,250.5,M,1.1,N,2.0,K,A*21
$GPRMC,140651,A,3206.470668,N,03500.458398,E,1.1,250.5,130416,3.0,E,A*1D
$GPGGA,140651,3206.470668,N,03500.458398,E,1,10,0.9,138.0,M,19.0,M,,*4E
$GPGSV,3,1,12,02,33,147,31,06,37,092,27,12,42,306,19,13,13,181,25*71
$GPGSV,3,2,12,14,00,000,17,15,28,219,23,17,19,040,33,19,47,040,25*7F
$GPGSV,3,3,12,24,71,317,18,25,12,284,25,28,01,078,,29,00,000,*74
$GLGSV,2,1,08,74,20,112,29,66,03,275,15,86,64,188,17,75,59,057,24*60
$GLGSV,2,2,08,84,04,026,18,87,09,202,25,85,53,036,25,67,00,000,15*65
$GPGSA,A,3,02,06,12,13,14,15,17,19,24,25,,,1.0,0.7,0.7*38
$GPVTG,263.2,T,263.2,M,1.7,N,3.2,K,A*24
$GPRMC,140652,A,3206.470636,N,03500.457361,E,1.7,263.2,130416,3.0,E,A*1D
$GPGGA,140652,3206.470636,N,03500.457361,E,1,10,0.7,137.0,M,19.0,M,,*4E
$GPGSV,3,1,12,02,33,147,33,06,37,092,30,12,42,306,19,13,13,181,26*76
$GPGSV,3,2,12,14,00,000,17,15,28,219,25,17,19,040,32,19,47,040,26*7B
$GPGSV,3,3,12,24,71,317,18,25,12,284,23,28,01,078,,29,00,000,*72
$GLGSV,2,1,08,74,20,112,31,66,03,275,21,86,64,188,18,75,59,057,23*66
$GLGSV,2,2,08,84,04,026,17,87,09,202,26,85,53,036,25,67,00,000,15*69
$GPGSA,A,3,02,06,12,13,14,15,17,19,24,25,,,1.0,0.7,0.7*38
$GPVTG,256.5,T,256.5,M,2.5,N,4.7,K,A*27
$GPRMC,140653,A,3206.470714,N,03500.456493,E,2.5,256.5,130416,3.0,E,A*16
$GPGGA,140653,3206.470714,N,03500.456493,E,1,10,0.7,134.0,M,19.0,M,,*46
$GPGSV,3,1,12,02,33,147,29,06,37,092,29,12,42,306,22,13,13,181,30*7A
$GPGSV,3,2,12,14,00,000,17,15,28,219,25,17,19,040,32,19,47,040,30*7C
$GPGSV,3,3,12,24,71,317,16,25,12,284,21,28,01,078,,29,00,000,*7E
$GLGSV,2,1,08,74,20,112,27,66,03,275,23,86,64,188,19,75,59,057,21*60
$GLGSV,2,2,08,84,04,026,17,87,09,202,27,85,53,036,23,67,00,000,15*6E
$GPGSA,A,3,02,06,12,13,14,15,17,19,24,25,,,1.1,0.7,0.8*36
$GPVTG,255.9,T,255.9,M,1.2,N,2.3,K,A*21
$GPRMC,140654,A,3206.470464,N,03500.456626,E,1.2,255.9,130416,3.0,E,A*12
$GPGGA,140654,3206.470464,N,03500.456626,E,1,10,0.7,133.0,M,19.0,M,,*4E
$GPGSV,3,1,12,02,33,147,24,06,37,092,20,12,42,306,22,13,13,181,28*77
$GPGSV,3,2,12,14,00,000,17,15,28,219,22,17,19,040,31,19,47,040,32*7A
$GPGSV,3,3,12,24,71,317,18,25,12,284,26,28,01,078,,29,00,000,*77
$GLGSV,2,1,08,74,20,112,27,66,03,275,24,86,64,188,18,75,59,057,22*65
$GLGSV,2,2,08,84,04,026,16,87,09,202,31,85,53,036,23,67,00,000,14*69
$GPGSA,A,3,02,06,12,13,14,15,17,19,24,25,,,1.0,0.7,0.7*38
$GPVTG,255.8,T,255.8,M,1.0,N,1.9,K,A*2A
$GPRMC,140655,A,3206.470309,N,03500.455951,E,1.0,255.8,130416,3.0,E,A*10
$GPGGA,140655,3206.470309,N,03500.455951,E,1,10,0.7,132.0,M,19.0,M,,*4E
$GPGSV,3,1,12,02,33,147,27,06,37,092,23,12,42,306,26,13,13,181,27*7C
$GPGSV,3,2,12,14,00,000,17,15,28,219,25,17,19,040,30,19,47,040,27*78
$GPGSV,3,3,12,24,71,317,18,25,12,284,26,28,01,078,,29,00,000,*77
$GLGSV,2,1,08,74,20,112,31,66,03,275,25,86,64,188,19,75,59,057,17*64
$GLGSV,2,2,08,84,04,026,19,87,09,202,27,85,53,036,25,67,00,000,14*67
$GPGSA,A,3,02,06,12,13,14,15,17,19,24,25,,,1.0,0.7,0.7*38
$GPVTG,255.1,T,255.1,M,1.1,N,2.1,K,A*20
$GPRMC,140656,A,3206.470141,N,03500.456291,E,1.1,255.1,130416,3.0,E,A*11
$GPGGA,140656,3206.470141,N,03500.456291,E,1,10,0.7,131.0,M,19.0,M,,*44
$GPGSV,3,1,12,02,33,147,24,06,37,092,24,12,42,306,21,13,13,181,27*7F
$GPGSV,3,2,12,14,00,000,17,15,28,219,24,17,19,040,32,19,47,040,21*7D
$GPGSV,3,3,12,24,71,317,18,25,12,284,27,28,01,078,,29,00,000,*76
$GLGSV,2,1,08,74,20,112,34,66,03,275,23,86,64,188,20,75,59,057,19*63
$GLGSV,2,2,08,84,04,026,21,87,09,202,30,85,53,036,21,67,00,000,18*62
$GPGSA,A,3,02,06,12,13,14,15,17,19,24,25,,,1.0,0.7,0.7*38
$GPVTG,255.3,T,255.3,M,2.5,N,4.6,K,A*26
$GPRMC,140657,A,3206.469948,N,03500.455225,E,2.5,255.3,130416,3.0,E,A*10
$GPGGA,140657,3206.469948,N,03500.455225,E,1,10,0.7,132.0,M,19.0,M,,*43
$GPGSV,3,1,12,02,33,147,25,06,37,092,23,12,42,306,22,13,13,181,30*7C
$GPGSV,3,2,12,14,00,000,17,15,28,219,30,17,19,040,24,19,47,040,21*7F
$GPGSV,3,3,12,24,71,317,19,25,12,284,28,28,01,078,,29,00,000,*78
$GLGSV,2,1,08,74,20,112,31,66,03,275,23,86,64,188,19,75,59,057,19*6C
$GLGSV,2,2,08,84,04,026,18,87,09,202,30,85,53,036,20,67,00,000,18*69
$GPGSA,A,3,02,06,12,13,14,15,17,19,24,25,,,1.0,0.7,0.7*38
$GPVTG,247.0,T,247.0,M,4.0,N,7.4,K,A*24
$GPRMC,140658,A,3206.468914,N,03500.453461,E,4.0,247.0,130416,3.0,E,A*14
$GPGGA,140658,3206.468914,N,03500.453461,E,1,10,0.7,132.0,M,19.0,M,,*44
$GPGSV,3,1,12,02,33,147,21,06,37,092,22,12,42,306,30,13,13,181,28*73
$GPGSV,3,2,12,14,00,000,18,15,28,219,27,17,19,040,21,19,47,040,20*72
$GPGSV,3,3,12,24,71,317,20,25,12,284,26,29,00,000,17,28,01,078,*7A
$GLGSV,2,1,08,74,20,112,25,66,03,275,22,86,64,188,19,75,59,057,19*68
$GLGSV,2,2,08,84,04,026,19,87,09,202,28,85,53,036,19,67,00,000,19*6A
$GPGSA,A,3,02,06,12,13,14,15,17,19,24,25,29,,1.0,0.7,0.8*3C
$GPVTG,255.4,T,255.4,M,2.5,N,4.6,K,A*26
$GPRMC,140659,A,3206.469828,N,03500.452605,E,2.5,255.4,130416,3.0,E,A*1F
$GPGGA,140659,3206.469828,N,03500.452605,E,1,11,0.7,132.0,M,19.0,M,,*4A
$GPGSV,3,1,12,02,33,147,23,06,37,092,21,12,42,306,33,13,13,181,21*78
$GPGSV,3,2,12,14,00,000,18,15,28,219,27,17,19,040,23,19,47,040,21*71
$GPGSV,3,3,12,24,71,317,28,25,12,284,23,29,00,000,17,28,01,078,*77
$GLGSV,2,1,08,74,20,112,21,66,03,275,19,86,64,188,23,75,59,057,19*6D
$GLGSV,2,2,08,84,04,026,17,87,09,202,29,85,53,036,19,67,00,000,19*65
$GPGSA,A,3,02,06,12,13,14,15,17,19,24,25,29,,1.0,0.7,0.7*33
$GPVTG,276.3,T,276.3,M,6.2,N,11.6,K,A*11
$GPRMC,140700,A,3206.470441,N,03500.448946,E,6.2,276.3,130416,3.0,E,A*1F
$GPGGA,140700,3206.470441,N,03500.448946,E,1,11,0.7,134.0,M,19.0,M,,*49
$GPGSV,3,1,12,02,33,147,23,06,37,092,17,12,42,306,34,13,13,181,23*78
$GPGSV,3,2,12,14,00,000,17,15,28,219,27,17,19,040,22,19,47,040,32*7D
$GPGSV,3,3,12,24,71,317,30,25,12,284,26,29,00,000,17,28,01,078,*7B
$GLGSV,2,1,08,74,20,112,27,66,03,275,19,86,64,188,31,75,59,057,21*63
$GLGSV,2,2,08,84,04,026,23,87,09,202,28,85,53,036,32,67,00,000,17*64
$GPGSA,A,3,02,06,12,13,14,15,17,19,24,25,29,,1.0,0.7,0.7*33
$GPVTG,263.9,T,263.9,M,11.0,N,20.4,K,A*25
$GPRMC,140701,A,3206.469481,N,03500.442910,E,11.0,263.9,130416,3.0,E,A*29
$GPGGA,140701,3206.469481,N,03500.442910,E,1,11,0.7,134.0,M,19.0,M,,*45
$GPGSV,3,1,12,02,33,147,20,06,37,092,24,12,42,306,33,13,13,181,18*74
$GPGSV,3,2,12,14,00,000,18,15,28,219,26,17,19,040,29,19,47,040,32*78
$GPGSV,3,3,12,24,71,317,31,25,12,284,29,29,00,000,17,28,01,078,*75
$GLGSV,2,1,08,74,20,112,21,66,03,275,17,86,64,188,31,75,59,057,28*62
$GLGSV,2,2,08,84,04,026,22,87,09,202,27,85,53,036,32,67,00,000,18*65
$GPGSA,A,3,02,06,12,13,14,15,17,19,24,25,29,,1.0,0.7,0.7*33
$GPVTG,263.8,T,263.8,M,11.5,N,21.3,K,A*26
$GPRMC,140702,A,3206.469112,N,03500.438998,E,11.5,263.8,130416,3.0,E,A*2C
$GPGGA,140702,3206.469112,N,03500.438998,E,1,11,0.7,135.0,M,19.0,M,,*45
$GPGSV,3,1,12,02,33,147,20,06,37,092,25,12,42,306,32,13,13,181,22*7D
$GPGSV,3,2,12,14,00,000,18,15,28,219,26,17,19,040,38,19,47,040,30*7A
$GPGSV,3,3,12,24,71,317,33,25,12,284,31,29,00,000,17,28,01,078,*7E
$GLGSV,2,1,08,74,20,112,26,66,03,275,17,86,64,188,31,75,59,057,28*65
$GLGSV,2,2,08,84,04,026,23,87,09,202,28,85,53,036,31,67,00,000,18*68
$GPGSA,A,3,02,06,12,13,14,15,17,19,24,25,29,,1.0,0.7,0.7*33
$GPVTG,263.5,T,263.5,M,11.0,N,20.4,K,A*25
$GPRMC,140703,A,3206.468405,N,03500.435515,E,11.0,263.5,130416,3.0,E,A*23
$GPGGA,140703,3206.468405,N,03500.435515,E,1,11,0.7,136.0,M,19.0,M,,*41
$GPGSV,3,1,12,02,33,147,24,06,37,092,22,12,42,306,34,13,13,181,20*7A
$GPGSV,3,2,12,14,00,000,18,15,28,219,28,17,19,040,38,19,47,040,29*7C
$GPGSV,3,3,12,24,71,317,34,25,12,284,28,29,00,000,16,28,01,078,*70
$GLGSV,2,1,08,74,20,112,30,66,03,275,16,86,64,188,29,75,59,057,23*61
$GLGSV,2,2,08,84,04,026,18,87,09,202,29,85,53,036,31,67,00,000,18*61
$GPGSA,A,3,02,06,12,13,14,15,17,19,24,25,29,,1.1,0.7,0.8*3D
$GPVTG,262.1,T,262.1,M,11.1,N,20.5,K,A*25
$GPRMC,140704,A,3206.467672,N,03500.432055,E,11.1,262.1,130416,3.0,E,A*2B
$GPGGA,140704,3206.467672,N,03500.432055,E,1,11,0.7,136.0,M,19.0,M,,*4D
$GPGSV,3,1,12,02,33,147,28,06,37,092,21,12,42,306,33,13,13,181,19*78
$GPGSV,3,2,12,14,00,000,18,15,28,219,28,17,19,040,37,19,47,040,31*7A
$GPGSV,3,3,12,24,71,317,34,25,12,284,25,29,00,000,16,28,01,078,*7D
$GLGSV,2,1,08,74,20,112,28,66,03,275,16,86,64,188,28,75,59,057,25*6F
$GLGSV,2,2,08,84,04,026,22,87,09,202,29,85,53,036,33,67,00,000,18*6A
$GPGSA,A,3,02,06,12,13,14,15,17,19,24,25,29,,1.0,0.7,0.7*33
$GPVTG,261.6,T,261.6,M,11.2,N,20.8,K,A*2B
$GPRMC,140705,A,3206.467137,N,03500.428124,E,11.2,261.6,130416,3.0,E,A*27
$GPGGA,140705,3206.467137,N,03500.428124,E,1,11,0.7,137.0,M,19.0,M,,*47
$GPGSV,3,1,12,02,33,147,28,06,37,092,21,12,42,306,32,13,13,181,17*77
$GPGSV,3,2,12,14,00,000,18,15,28,219,27,17,19,040,37,19,47,040,32*76
$GPGSV,3,3,12,24,71,317,33,25,12,284,24,29,00,000,15,28,01,078,*78
$GLGSV,2,1,08,74,20,112,31,66,03,275,14,86,64,188,28,75,59,057,24*64
$GLGSV,2,2,08,84,04,026,19,87,09,202,28,85,53,036,33,67,00,000,18*63
$GPGSA,A,3,02,06,12,13,14,15,17,19,24,25,29,,1.1,0.8,0.8*32
$GPVTG,261.3,T,261.3,M,11.3,N,20.9,K,A*2B
$GPRMC,140706,A,3206.466405,N,03500.424471,E,11.3,261.3,130416,3.0,E,A*2C
$GPGGA,140706,3206.466405,N,03500.424471,E,1,11,0.8,137.0,M,19.0,M,,*47
$GPGSV,3,1,12,02,33,147,28,06,37,092,24,12,42,306,32,13,13,181,22*74
$GPGSV,3,2,12,14,00,000,18,15,28,219,28,17,19,040,37,19,47,040,32*79
$GPGSV,3,3,12,24,71,317,34,25,12,284,26,29,00,000,15,28,01,078,*7D
$GLGSV,2,1,08,74,20,112,29,66,03,275,14,86,64,188,28,75,59,057,26*6F
$GLGSV,2,2,08,84,04,026,21,87,09,202,25,85,53,036,32,67,00,000,18*64
$GPGSA,A,3,02,06,12,13,14,15,17,19,24,25,29,,1.0,0.7,0.7*33
$GPVTG,261.4,T,261.4,M,11.5,N,21.2,K,A*27
$GPRMC,140707,A,3206.465782,N,03500.420574,E,11.5,261.4,130416,3.0,E,A*23
$GPGGA,140707,3206.465782,N,03500.420574,E,1,11,0.7,138.0,M,19.0,M,,*49
$GPGSV,3,1,12,02,33,147,29,06,37,092,20,12,42,306,33,13,13,181,24*76
$GPGSV,3,2,12,14,00,000,18,15,28,219,27,17,19,040,37,19,47,040,32*76
$GPGSV,3,3,12,24,71,317,34,25,12,284,24,29,00,000,15,28,01,078,*7F
$GLGSV,2,1,08,74,20,112,29,66,03,275,14,86,64,188,31,75,59,057,26*67
$GLGSV,2,2,08,84,04,026,18,87,09,202,26,85,53,036,33,67,00,000,18*6C
$GPGSA,A,3,02,06,12,13,14,15,17,19,24,25,29,,1.1,0.8,0.8*32
$GPVTG,261.3,T,261.3,M,11.6,N,21.5,K,A*23
$GPRMC,140708,A,3206.465545,N,03500.417004,E,11.6,261.3,130416,3.0,E,A*27
$GPGGA,140708,3206.465545,N,03500.417004,E,1,11,0.8,138.0,M,19.0,M,,*46
$GPGSV,3,1,12,02,33,147,29,06,37,092,21,12,42,306,32,13,13,181,22*70
$GPGSV,3,2,12,14,00,000,18,15,28,219,28,17,19,040,36,19,47,040,31*7B
$GPGSV,3,3,12,24,71,317,34,25,12,284,24,29,00,000,15,28,01,078,*7F
$GLGSV,2,1,08,74,20,112,30,66,03,275,14,86,64,188,31,75,59,057,27*6E
$GLGSV,2,2,08,84,04,026,22,87,09,202,28,85,53,036,33,67,00,000,18*6B
$GPGSA,A,3,02,06,12,13,14,15,17,19,24,25,29,,1.0,0.7,0.7*33
$GPVTG,262.9,T,262.9,M,11.7,N,21.6,K,A*21
$GPRMC,140709,A,3206.465092,N,03500.413141,E,11.7,262.9,130416,3.0,E,A*25
$GPGGA,140709,3206.465092,N,03500.413141,E,1,11,0.7,138.0,M,19.0,M,,*43
$GPGSV,3,1,12,02,33,147,30,06,37,092,21,12,42,306,34,13,13,181,24*78
$GPGSV,3,2,12,14,00,000,18,15,28,219,28,17,19,040,36,19,47,040,31*7B
$GPGSV,3,3,12,24,71,317,32,25,12,284,23,29,00,000,15,28,01,078,*7E
$GLGSV,2,1,08,74,20,112,31,66,03,275,14,86,64,188,29,75,59,057,25*64
$GLGSV,2,2,08,84,04,026,22,87,09,202,29,85,53,036,34,67,00,000,18*6D
$GPGSA,A,3,02,06,12,13,14,15,17,19,24,25,29,,1.0,0.7,0.7*33
$GPVTG,261.1,T,261.1,M,11.8,N,21.9,K,A*21
$GPRMC,140710,A,3206.464713,N,03500.409247,E,11.8,261.1,130416,3.0,E,A*28
$GPGGA,140710,3206.464713,N,03500.409247,E,1,11,0.7,138.0,M,19.0,M,,*4A
$GPGSV,3,1,12,02,33,147,28,06,37,092,21,12,42,306,34,13,13,181,24*71
$GPGSV,3,2,12,14,00,000,18,15,28,219,28,17,19,040,37,19,47,040,31*7A
$GPGSV,3,3,12,24,71,317,34,25,12,284,30,29,00,000,15,28,01,078,*7A
$GLGSV,1,1,0,*79
$GPGSA,A,3,02,06,12,13,14,15,17,19,24,25,29,,1.3,1.0,0.9*38
$GPVTG,260.2,T,260.2,M,12.7,N,23.4,K,A*22
$GPRMC,140711,A,3206.464031,N,03500.404828,E,12.7,260.2,130416,3.0,E,A*2E
$GPGGA,140711,3206.464031,N,03500.404828,E,1,11,1.0,137.0,M,19.0,M,,*4B
$GPGSV,3,1,12,02,33,147,28,06,37,092,21,12,42,306,34,13,13,181,24*71
$GPGSV,3,2,12,14,00,000,18,15,28,219,28,17,19,040,37,19,47,040,31*7A
$GPGSV,3,3,12,24,71,317,34,25,12,284,30,29,00,000,15,28,01,078,*7A
$GLGSV,1,1,0,*79
$GPGSA,A,3,02,06,12,13,14,15,17,19,24,25,29,,1.3,1.0,0.9*38
$GPVTG,260.2,T,260.2,M,12.7,N,23.4,K,A*22
$GPRMC,140712,A,3206.463435,N,03500.400749,E,12.7,260.2,130416,3.0,E,A*26
$GPGGA,140712,3206.463435,N,03500.400749,E,1,11,1.0,136.0,M,19.0,M,,*42
$GPGSV,3,1,12,02,33,147,32,06,37,092,25,12,42,306,32,13,13,181,28*74
$GPGSV,3,2,12,15,28,219,25,17,19,040,33,19,47,040,26,24,71,317,28*76
$GPGSV,3,3,12,25,12,284,24,14,00,000,,28,01,078,,29,00,000,*7C
$GLGSV,1,1,0,*79
$GPGSA,A,3,02,06,12,13,15,17,19,24,25,,,,1.2,0.8,0.8*3F
$GPVTG,261.1,T,261.1,M,12.7,N,23.5,K,A*23
$GPRMC,140713,A,3206.463429,N,03500.395834,E,12.7,261.1,130416,3.0,E,A*26
$GPGGA,140713,3206.463429,N,03500.395834,E,1,09,0.8,136.0,M,19.0,M,,*40
$GPGSV,3,1,12,02,33,147,31,06,37,092,24,12,42,306,33,13,13,181,26*79
$GPGSV,3,2,12,15,28,219,30,17,19,040,33,19,47,040,30,24,71,317,33*7F
$GPGSV,3,3,12,25,12,284,23,14,00,000,,28,01,078,,29,00,000,*7B
$GLGSV,1,1,0,*79
$GPGSA,A,3,02,06,12,13,15,17,19,24,25,,,,1.2,0.8,0.8*3F
$GPVTG,258.9,T,258.9,M,15.0,N,27.9,K,A*2B
$GPRMC,140714,A,3206.461834,N,03500.390709,E,15.0,258.9,130416,3.0,E,A*25
$GPGGA,140714,3206.461834,N,03500.390709,E,1,09,0.8,135.0,M,19.0,M,,*42
$GPGSV,3,1,10,02,33,147,31,12,42,306,33,13,13,181,29,15,28,219,26*7B
$GPGSV,3,2,10,17,19,040,34,19,47,040,32,24,71,317,31,14,00,000,*78
$GPGSV,3,3,10,28,01,078,,29,00,000,*77
$GLGSV,1,1,0,*79
$GPGSA,A,3,02,12,13,15,17,19,24,,,,,,1.4,1.1,0.9*31
$GPVTG,258.6,T,258.6,M,18.2,N,33.6,K,A*2E
$GPRMC,140715,A,3206.460409,N,03500.384752,E,18.2,258.6,130416,3.0,E,A*2C
$GPGGA,140715,3206.460409,N,03500.384752,E,1,07,1.1,134.0,M,19.0,M,,*4C
$GPGSV,3,1,12,02,33,147,32,12,42,306,34,13,13,181,25,15,28,219,27*70
$GPGSV,3,2,12,17,19,040,33,19,47,040,32,24,71,317,31,06,37,092,*71
$GPGSV,3,3,12,14,00,000,,25,12,284,,28,01,078,,29,00,000,*7A
$GLGSV,1,1,0,*79
$GPGSA,A,3,02,12,13,15,17,19,24,,,,,,1.4,1.1,0.9*31
$GPVTG,259.5,T,259.5,M,21.4,N,39.6,K,A*28
$GPRMC,140716,A,3206.458970,N,03500.378370,E,21.4,259.5,130416,3.0,E,A*2E
$GPGGA,140716,3206.458970,N,03500.378370,E,1,07,1.1,134.0,M,19.0,M,,*40
$GPGSV,3,1,12,02,33,147,32,12,42,306,34,13,13,181,25,15,28,219,27*70
$GPGSV,3,2,12,17,19,040,33,19,47,040,32,24,71,317,31,06,37,092,*71
$GPGSV,3,3,12,14,00,000,,25,12,284,,28,01,078,,29,00,000,*7A
$GLGSV,1,1,0,*79
$GPGSA,A,3,02,12,13,15,17,19,24,,,,,,1.4,1.1,0.9*31
$GPVTG,259.5,T,259.5,M,21.4,N,39.6,K,A*28
$GPRMC,140717,A,3206.457886,N,03500.371484,E,21.4,259.5,130416,3.0,E,A*2D
$GPGGA,140717,3206.457886,N,03500.371484,E,1,07,1.1,134.0,M,19.0,M,,*43
$GPGSV,3,1,11,02,33,147,30,06,37,092,22,12,42,306,34,15,28,219,26*76
$GPGSV,3,2,11,17,19,040,33,19,47,040,31,24,71,317,33,13,13,181,*72
$GPGSV,3,3,11,14,00,000,,28,01,078,,29,00,000,*43
$GLGSV,1,1,0,*79
$GPGSA,A,3,02,06,12,15,17,19,24,,,,,,1.4,1.0,0.9*34
$GPVTG,259.7,T,259.7,M,26.4,N,48.8,K,A*27
$GPRMC,140718,A,3206.456202,N,03500.361804,E,26.4,259.7,130416,3.0,E,A*25
$GPGGA,140718,3206.456202,N,03500.361804,E,1,07,1.0,134.0,M,19.0,M,,*4F
$GPGSV,3,1,12,02,33,147,27,06,37,092,27,12,42,306,34,15,28,219,26*76
$GPGSV,3,2,12,17,19,040,35,19,47,040,29,24,71,317,31,13,13,181,*7C
$GPGSV,3,3,12,14,00,000,,25,12,284,,28,01,078,,29,00,000,*7A
$GLGSV,1,1,0,*79
$GPGSA,A,3,02,06,12,15,17,19,24,,,,,,1.4,1.0,0.9*34
$GPVTG,262.7,T,262.7,M,28.8,N,53.3,K,A*24
$GPRMC,140719,A,3206.455109,N,03500.352616,E,28.8,262.7,130416,3.0,E,A*28
$GPGGA,140719,3206.455109,N,03500.352616,E,1,07,1.0,134.0,M,19.0,M,,*48
$GPGSV,3,1,12,02,33,147,23,06,37,092,29,12,42,306,34,15,28,219,25*7F
$GPGSV,3,2,12,17,19,040,38,19,47,040,29,24,71,317,32,25,12,284,22*70
$GPGSV,3,3,12,13,13,181,,14,00,000,,28,01,078,,29,00,000,*78
$GLGSV,1,1,0,*79
$GPGSA,A,3,02,06,12,15,17,19,24,25,,,,,1.3,0.9,0.9*3C
$GPVTG,262.1,T,262.1,M,31.0,N,57.5,K,A*26
$GPRMC,140720,A,3206.454156,N,03500.342445,E,31.0,262.1,130416,3.0,E,A*2A
$GPGGA,140720,3206.454156,N,03500.342445,E,1,08,0.9,134.0,M,19.0,M,,*4B
$GPGSV,3,1,11,02,33,147,25,06,37,092,28,12,42,306,35,17,19,040,35*75
$GPGSV,3,2,11,19,47,040,29,24,71,317,33,25,12,284,24,13,13,181,*7D
$GPGSV,3,3,11,14,00,000,,28,01,078,,29,00,000,*43
$GLGSV,1,1,0,*79
$GPGSA,A,3,02,06,12,17,19,24,25,,,,,,1.4,1.1,0.9*36
$GPVTG,260.0,T,260.0,M,33.2,N,61.5,K,A*23
$GPRMC,140721,A,3206.452657,N,03500.331955,E,33.2,260.0,130416,3.0,E,A*20
$GPGGA,140721,3206.452657,N,03500.331955,E,1,07,1.1,133.0,M,19.0,M,,*43
$GPGSV,3,1,11,02,33,147,28,06,37,092,27,12,42,306,33,15,28,219,23*78
$GPGSV,3,2,11,17,19,040,30,19,47,040,27,24,71,317,32,13,13,181,*77
$GPGSV,3,3,11,14,00,000,,28,01,078,,29,00,000,*43
$GLGSV,1,1,0,*79
$GPGSA,A,3,02,06,12,15,17,19,24,,,,,,1.4,1.0,0.9*34
$GPVTG,262.3,T,262.3,M,34.8,N,64.4,K,A*2A
$GPRMC,140722,A,3206.451277,N,03500.319435,E,34.8,262.3,130416,3.0,E,A*2B
$GPGGA,140722,3206.451277,N,03500.319435,E,1,07,1.0,132.0,M,19.0,M,,*44
$GPGSV,3,1,11,02,33,147,28,06,37,092,27,12,42,306,33,15,28,219,23*78
$GPGSV,3,2,11,17,19,040,30,19,47,040,27,24,71,317,32,13,13,181,*77
$GPGSV,3,3,11,14,00,000,,28,01,078,,29,00,000,*43
$GLGSV,1,1,0,*79
$GPGSA,A,3,02,06,12,15,17,19,24,,,,,,1.4,1.0,0.9*34
$GPVTG,262.3,T,262.3,M,34.8,N,64.4,K,A*2A
$GPRMC,140723,A,3206.449972,N,03500.308155,E,34.8,262.3,130416,3.0,E,A*2E
$GPGGA,140723,3206.449972,N,03500.308155,E,1,07,1.0,132.0,M,19.0,M,,*41
$GPGSV,3,1,12,02,33,147,29,06,37,092,24,12,42,306,33,15,28,219,24*7E
$GPGSV,3,2,12,17,19,040,23,19,47,040,31,24,71,317,32,25,12,284,23*72
$GPGSV,3,3,12,13,13,181,,14,00,000,,28,01,078,,29,00,000,*78
$GLGSV,1,1,0,*79
$GPGSA,A,3,02,06,12,15,17,19,24,25,,,,,1.3,0.9,0.9*3C
$GPVTG,262.8,T,262.8,M,39.0,N,72.3,K,A*2F
$GPRMC,140724,A,3206.449317,N,03500.295433,E,39.0,262.8,130416,3.0,E,A*2E
$GPGGA,140724,3206.449317,N,03500.295433,E,1,08,0.9,132.0,M,19.0,M,,*48
$GPGSV,3,1,11,02,33,147,28,06,37,092,28,12,42,306,33,15,28,219,24*70
$GPGSV,3,2,11,19,47,040,30,24,71,317,32,25,12,284,22,13,13,181,*72
$GPGSV,3,3,11,14,00,000,,28,01,078,,29,00,000,*43
$GLGSV,1,1,0,*79
$GPGSA,A,3,02,06,12,15,19,24,25,,,,,,1.4,1.1,0.9*34
$GPVTG,264.4,T,264.4,M,39.9,N,74.0,K,A*23
$GPRMC,140725,A,3206.448697,N,03500.281752,E,39.9,264.4,130416,3.0,E,A*21
$GPGGA,140725,3206.448697,N,03500.281752,E,1,07,1.1,132.0,M,19.0,M,,*42
$GPGSV,3,1,12,02,33,147,27,06,37,092,28,12,42,306,31,15,28,219,25*7F
$GPGSV,3,2,12,19,47,040,30,24,71,317,33,25,12,284,24,13,13,181,*76
$GPGSV,3,3,12,14,00,000,,17,19,040,,28,01,078,,29,00,000,*7A
$GLGSV,1,1,0,*79
$GPGSA,A,3,02,06,12,15,19,24,25,,,,,,1.4,1.1,0.9*34
$GPVTG,264.6,T,264.6,M,41.8,N,77.4,K,A*2A
$GPRMC,140726,A,3206.447434,N,03500.268046,E,41.8,264.6,130416,3.0,E,A*2F
$GPGGA,140726,3206.447434,N,03500.268046,E,1,07,1.1,132.0,M,19.0,M,,*40
$GPGSV,3,1,11,02,33,147,27,06,37,092,29,12,42,306,32,19,47,040,27*77
$GPGSV,3,2,11,24,71,317,30,25,12,284,25,13,13,181,,14,00,000,*7E
$GPGSV,3,3,11,17,19,040,,28,01,078,,29,00,000,*4C
$GLGSV,1,1,0,*79
$GPGSA,A,3,02,06,12,19,24,25,,,,,,,1.6,1.4,0.9*37
$GPVTG,263.7,T,263.7,M,42.3,N,78.4,K,A*2D
$GPRMC,140727,A,3206.446097,N,03500.254255,E,42.3,263.7,130416,3.0,E,A*23
$GPGGA,140727,3206.446097,N,03500.254255,E,1,06,1.4,132.0,M,19.0,M,,*46
$GPGSV,3,1,12,02,33,147,27,06,37,092,27,12,42,306,29,15,28,219,27*7B
$GPGSV,3,2,12,19,47,040,31,24,71,317,32,25,12,284,25,13,13,181,*77
$GPGSV,3,3,12,14,00,000,,17,19,040,,28,01,078,,29,00,000,*7A
$GLGSV,1,1,0,*79
$GPGSA,A,3,02,06,12,15,19,24,25,,,,,,1.4,1.1,0.9*34
$GPVTG,263.8,T,263.8,M,44.6,N,82.5,K,A*2A
$GPRMC,140728,A,3206.445118,N,03500.239495,E,44.6,263.8,130416,3.0,E,A*24
$GPGGA,140728,3206.445118,N,03500.239495,E,1,07,1.1,133.0,M,19.0,M,,*48
$GPGSV,3,1,12,02,33,147,28,06,37,092,26,12,42,306,32,15,28,219,26*7E
$GPGSV,3,2,12,19,47,040,31,24,71,317,32,25,12,284,27,13,13,181,*75
$GPGSV,3,3,12,14,00,000,,17,19,040,,28,01,078,,29,00,000,*7A
$GLGSV,1,1,0,*79
$GPGSA,A,3,02,06,12,15,19,24,25,,,,,,1.4,1.1,0.9*34
$GPVTG,263.5,T,263.5,M,47.4,N,87.9,K,A*22
$GPRMC,140729,A,3206.443195,N,03500.222949,E,47.4,263.5,130416,3.0,E,A*2C
$GPGGA,140729,3206.443195,N,03500.222949,E,1,07,1.1,135.0,M,19.0,M,,*4A
$GPGSV,3,1,12,02,33,147,28,06,37,092,27,12,42,306,30,15,28,219,27*7C
$GPGSV,3,2,12,19,47,040,32,24,71,317,31,25,12,284,25,13,13,181,*77
$GPGSV,3,3,12,14,00,000,,17,19,040,,28,01,078,,29,00,000,*7A
$GLGSV,1,1,0,*79
$GPGSA,A,3,02,06,12,15,19,24,25,,,,,,1.4,1.1,0.9*34
$GPVTG,262.0,T,262.0,M,49.1,N,90.9,K,A*2F
$GPRMC,140730,A,3206.441905,N,03500.207242,E,49.1,262.0,130416,3.0,E,A*2F
$GPGGA,140730,3206.441905,N,03500.207242,E,1,07,1.1,134.0,M,19.0,M,,*47
$GPGSV,3,1,12,02,33,147,28,06,37,092,27,12,42,306,30,15,28,219,27*7C
$GPGSV,3,2,12,19,47,040,32,24,71,317,31,25,12,284,25,13,13,181,*77
$GPGSV,3,3,12,14,00,000,,17,19,040,,28,01,078,,29,00,000,*7A
$GLGSV,1,1,0,*79
$GPGSA,A,3,02,06,12,15,19,24,25,,,,,,1.4,1.1,0.9*34
$GPVTG,262.0,T,262.0,M,49.0,N,90.8,K,A*2F
$GPRMC,140731,A,3206.440009,N,03500.191353,E,49.0,262.0,130416,3.0,E,A*26
$GPGGA,140731,3206.440009,N,03500.191353,E,1,07,1.1,133.0,M,19.0,M,,*48
$GPGSV,3,1,12,02,33,147,30,06,37,092,26,12,42,306,30,15,28,219,28*7B
$GPGSV,3,2,12,19,47,040,33,24,71,317,34,25,12,284,29,13,13,181,*7F
$GPGSV,3,3,12,14,00,000,,17,19,040,,28,01,078,,29,00,000,*7A
$GLGSV,1,1,0,*79
$GPGSA,A,3,02,06,12,15,19,24,25,,,,,,1.4,1.1,0.9*34
$GPVTG,262.7,T,262.7,M,52.1,N,96.4,K,A*2E
$GPRMC,140732,A,3206.439058,N,03500.174129,E,52.1,262.7,130416,3.0,E,A*27
$GPGGA,140732,3206.439058,N,03500.174129,E,1,07,1.1,132.0,M,19.0,M,,*44
$GPGSV,3,1,12,02,33,147,29,06,37,092,26,12,42,306,29,15,28,219,28*7B
$GPGSV,3,2,12,19,47,040,31,24,71,317,34,25,12,284,31,13,13,181,*74
$GPGSV,3,3,12,14,00,000,,17,19,040,,28,01,078,,29,00,000,*7A
$GLGSV,1,1,0,*79
$GPGSA,A,3,02,06,12,15,19,24,25,,,,,,1.4,1.1,0.9*34
$GPVTG,263.1,T,263.1,M,53.0,N,98.1,K,A*25
$GPRMC,140733,A,3206.437061,N,03500.156926,E,53.0,263.1,130416,3.0,E,A*22
$GPGGA,140733,3206.437061,N,03500.156926,E,1,07,1.1,131.0,M,19.0,M,,*45
$GPGSV,3,1,12,02,33,147,29,06,37,092,26,12,42,306,30,15,28,219,27*7C
$GPGSV,3,2,12,17,19,040,24,19,47,040,32,24,71,317,33,25,12,284,28*7C
$GPGSV,3,3,12,13,13,181,,14,00,000,,28,01,078,,29,00,000,*78
$GLGSV,1,1,0,*79
$GPGSA,A,3,02,06,12,15,17,19,24,25,,,,,1.3,0.9,0.9*3C
$GPVTG,262.2,T,262.2,M,53.9,N,99.9,K,A*25
$GPRMC,140734,A,3206.434231,N,03500.138545,E,53.9,262.2,130416,3.0,E,A*2B
$GPGGA,140734,3206.434231,N,03500.138545,E,1,08,0.9,138.0,M,19.0,M,,*48
$GPGSV,3,1,12,02,33,147,25,06,37,092,26,12,42,306,29,15,28,219,27*78
$GPGSV,3,2,12,17,19,040,33,19,47,040,31,24,71,317,32,25,12,284,30*71
$GPGSV,3,3,12,13,13,181,,14,00,000,,28,01,078,,29,00,000,*78
$GLGSV,1,1,0,*79
$GPGSA,A,3,02,06,12,15,17,19,24,25,,,,,1.3,0.9,0.9*3C
$GPVTG,262.4,T,262.4,M,53.8,N,99.7,K,A*2A
$GPRMC,140735,A,3206.432059,N,03500.121877,E,53.8,262.4,130416,3.0,E,A*23
$GPGGA,140735,3206.432059,N,03500.121877,E,1,08,0.9,135.0,M,19.0,M,,*4A
$GPGSV,3,1,12,02,33,147,27,06,37,092,24,12,42,306,28,15,28,219,27*79
$GPGSV,3,2,12,17,19,040,39,19,47,040,34,24,71,317,32,25,12,284,27*78
$GPGSV,3,3,12,13,13,181,,14,00,000,,28,01,078,,29,00,000,*78
$GLGSV,1,1,0,*79
$GPGSA,A,3,02,06,12,15,17,19,24,25,,,,,1.3,0.9,0.9*3C
$GPVTG,262.3,T,262.3,M,54.2,N,100.3,K,A*12
$GPRMC,140736,A,3206.429981,N,03500.103853,E,54.2,262.3,130416,3.0,E,A*2A
$GPGGA,140736,3206.429981,N,03500.103853,E,1,08,0.9,131.0,M,19.0,M,,*4D
$GPGSV,3,1,12,02,33,147,26,06,37,092,26,12,42,306,31,15,28,219,26*73
$GPGSV,3,2,12,17,19,040,39,19,47,040,32,24,71,317,31,25,12,284,29*73
$GPGSV,3,3,12,13,13,181,,14,00,000,,28,01,078,,29,00,000,*78
$GLGSV,1,1,0,*79
$GPGSA,A,3,02,06,12,15,17,19,24,25,,,,,1.3,0.9,0.9*3C
$GPVTG,261.7,T,261.7,M,54.9,N,101.7,K,A*1C
$GPRMC,140737,A,3206.427758,N,03500.086444,E,54.9,261.7,130416,3.0,E,A*25
$GPGGA,140737,3206.427758,N,03500.086444,E,1,08,0.9,129.0,M,19.0,M,,*47
$GPGSV,3,1,12,02,33,147,27,06,37,092,25,12,42,306,29,15,28,219,24*7A
$GPGSV,3,2,12,17,19,040,38,19,47,040,32,24,71,317,32,25,12,284,29*71
$GPGSV,3,3,12,13,13,181,,14,00,000,,28,01,078,,29,00,000,*78
$GLGSV,1,1,0,*79
$GPGSA,A,3,02,06,12,15,17,19,24,25,,,,,1.3,0.9,0.9*3C
$GPVTG,262.2,T,262.2,M,55.7,N,103.2,K,A*14
$GPRMC,140738,A,3206.425795,N,03500.068623,E,55.7,262.2,130416,3.0,E,A*23
$GPGGA,140738,3206.425795,N,03500.068623,E,1,08,0.9,127.0,M,19.0,M,,*46
$GPGSV,3,1,12,02,33,147,27,06,37,092,23,12,42,306,30,13,13,181,25*79
$GPGSV,3,2,12,15,28,219,24,17,19,040,37,19,47,040,31,24,71,317,32*7E
$GPGSV,3,3,12,25,12,284,29,14,00,000,,28,01,078,,29,00,000,*71
$GLGSV,1,1,0,*79
$GPGSA,A,3,02,06,12,13,15,17,19,24,25,,,,1.2,0.8,0.8*3F
$GPVTG,263.1,T,263.1,M,56.7,N,104.9,K,A*1B
$GPRMC,140739,A,3206.423930,N,03500.050199,E,56.7,263.1,130416,3.0,E,A*29
$GPGGA,140739,3206.423930,N,03500.050199,E,1,09,0.8,126.0,M,19.0,M,,*4C
$GPGSV,3,1,11,02,33,147,27,06,37,092,27,12,42,306,31,15,28,219,26*70
$GPGSV,3,2,11,17,19,040,38,19,47,040,30,24,71,317,33,25,12,284,30*79
$GPGSV,3,3,11,14,00,000,,28,01,078,,29,00,000,*43
$GLGSV,1,1,0,*79
$GPGSA,A,3,02,06,12,15,17,19,24,25,,,,,1.3,0.9,0.9*3C
$GPVTG,263.2,T,263.2,M,57.2,N,105.9,K,A*1E
$GPRMC,140740,A,3206.421903,N,03500.031913,E,57.2,263.2,130416,3.0,E,A*2F
$GPGGA,140740,3206.421903,N,03500.031913,E,1,08,0.9,123.0,M,19.0,M,,*48
$GPGSV,3,1,12,02,33,147,28,06,37,092,25,12,42,306,28,15,28,219,25*75
$GPGSV,3,2,12,17,19,040,38,19,47,040,32,24,71,317,32,25,12,284,28*70
$GPGSV,3,3,12,29,00,000,24,13,13,181,,14,00,000,,28,01,078,*7E
$GLGSV,1,1,0,*79
$GPGSA,A,3,02,06,12,15,17,19,24,25,29,,,,1.3,0.9,0.9*37
$GPVTG,264.0,T,264.0,M,57.1,N,105.7,K,A*13
$GPRMC,140741,A,3206.420338,N,03500.013234,E,57.1,264.0,130416,3.0,E,A*25
$GPGGA,140741,3206.420338,N,03500.013234,E,1,09,0.9,121.0,M,19.0,M,,*47
$GPGSV,3,1,11,02,33,147,28,06,37,092,23,12,42,306,30,15,28,219,26*7A
$GPGSV,3,2,11,17,19,040,38,19,47,040,32,24,71,317,31,25,12,284,27*7F
$GPGSV,3,3,11,13,13,181,,14,00,000,,28,01,078,*40
$GLGSV,1,1,0,*79
$GPGSA,A,3,02,06,12,15,17,19,24,25,,,,,1.3,0.9,0.9*3C
$GPVTG,262.5,T,262.5,M,56.2,N,104.1,K,A*16
$GPRMC,140742,A,3206.418553,N,03459.995191,E,56.2,262.5,130416,3.0,E,A*21
$GPGGA,140742,3206.418553,N,03459.995191,E,1,08,0.9,119.0,M,19.0,M,,*48
$GPGSV,3,1,12,02,33,147,26,06,37,092,25,12,42,306,29,15,28,219,28*77
$GPGSV,3,2,12,17,19,040,37,19,47,040,32,24,71,317,33,25,12,284,29*7F
$GPGSV,3,3,12,13,13,181,,14,00,000,,28,01,078,,29,00,000,*78
$GLGSV,1,1,0,*79
$GPGSA,A,3,02,06,12,15,17,19,24,25,,,,,1.3,0.9,0.9*3C
$GPVTG,262.0,T,262.0,M,56.3,N,104.3,K,A*15
$GPRMC,140743,A,3206.415991,N,03459.976601,E,56.3,262.0,130416,3.0,E,A*28
$GPGGA,140743,3206.415991,N,03459.976601,E,1,08,0.9,117.0,M,19.0,M,,*4B
$GPGSV,3,1,12,02,33,147,26,06,37,092,25,12,42,306,29,15,28,219,28*77
$GPGSV,3,2,12,17,19,040,37,19,47,040,32,24,71,317,33,25,12,284,29*7F
$GPGSV,3,3,12,13,13,181,,14,00,000,,28,01,078,,29,00,000,*78
$GLGSV,1,1,0,*79
$GPGSA,A,3,02,06,12,15,17,19,24,25,,,,,1.3,0.9,0.9*3C
$GPVTG,262.0,T,262.0,M,56.3,N,104.2,K,A*14
$GPRMC,140744,A,3206.413821,N,03459.958368,E,56.3,262.0,130416,3.0,E,A*25
$GPGGA,140744,3206.413821,N,03459.958368,E,1,08,0.9,116.0,M,19.0,M,,*47
$GPGSV,3,1,12,02,33,147,28,06,37,092,25,12,42,306,31,15,28,219,28*70
$GPGSV,3,2,12,17,19,040,37,19,47,040,33,24,71,317,33,25,12,284,29*7E
$GPGSV,3,3,12,13,13,181,,14,00,000,,28,01,078,,29,00,000,*78
$GLGSV,1,1,0,*79
$GPGSA,A,3,02,06,12,15,17,19,24,25,,,,,1.3,0.9,0.9*3C
$GPVTG,262.1,T,262.1,M,55.9,N,103.5,K,A*1D
$GPRMC,140745,A,3206.411356,N,03459.940586,E,55.9,262.1,130416,3.0,E,A*2A
$GPGGA,140745,3206.411356,N,03459.940586,E,1,08,0.9,114.0,M,19.0,M,,*42
$GPGSV,3,1,11,02,33,147,30,12,42,306,30,15,28,219,28,17,19,040,40*7B
$GPGSV,3,2,11,19,47,040,33,24,71,317,33,25,12,284,30,13,13,181,*73
$GPGSV,3,3,11,14,00,000,,28,01,078,,29,00,000,*43
$GLGSV,1,1,0,*79
$GPGSA,A,3,02,12,15,17,19,24,25,,,,,,1.3,1.0,0.9*32
$GPVTG,262.4,T,262.4,M,55.6,N,102.9,K,A*1F
$GPRMC,140746,A,3206.408490,N,03459.922733,E,55.6,262.4,130416,3.0,E,A*2E
$GPGGA,140746,3206.408490,N,03459.922733,E,1,07,1.0,113.0,M,19.0,M,,*4C
$GPGSV,3,1,12,02,33,147,28,06,37,092,25,12,42,306,31,15,28,219,25*7D
$GPGSV,3,2,12,17,19,040,38,19,47,040,31,24,71,317,32,25,12,284,30*7A
$GPGSV,3,3,12,13,13,181,,14,00,000,,28,01,078,,29,00,000,*78
$GLGSV,1,1,0,*79
$GPGSA,A,3,02,06,12,15,17,19,24,25,,,,,1.3,0.9,0.9*3C
$GPVTG,262.1,T,262.1,M,55.5,N,102.8,K,A*1D
$GPRMC,140747,A,3206.406211,N,03459.904557,E,55.5,262.1,130416,3.0,E,A*2C
$GPGGA,140747,3206.406211,N,03459.904557,E,1,08,0.9,111.0,M,19.0,M,,*4D
$GPGSV,3,1,11,02,33,147,25,12,42,306,32,15,28,219,26,17,19,040,40*73
$GPGSV,3,2,11,19,47,040,33,24,71,317,34,25,12,284,27,13,13,181,*72
$GPGSV,3,3,11,14,00,000,,28,01,078,,29,00,000,*43
$GLGSV,1,1,0,*79
$GPGSA,A,3,02,12,15,17,19,24,25,,,,,,1.3,1.0,0.9*32
$GPVTG,262.7,T,262.7,M,55.3,N,102.5,K,A*16
$GPRMC,140748,A,3206.404171,N,03459.886784,E,55.3,262.7,130416,3.0,E,A*23
$GPGGA,140748,3206.404171,N,03459.886784,E,1,07,1.0,109.0,M,19.0,M,,*4C
$GPGSV,3,1,12,02,33,147,26,12,42,306,33,15,28,219,29,17,19,040,40*7D
$GPGSV,3,2,12,19,47,040,30,24,71,317,33,25,12,284,30,06,37,092,*72
$GPGSV,3,3,12,13,13,181,,14,00,000,,28,01,078,,29,00,000,*78
$GLGSV,1,1,0,*79
$GPGSA,A,3,02,12,15,17,19,24,25,,,,,,1.3,1.0,0.9*32
$GPVTG,262.8,T,262.8,M,55.8,N,103.3,K,A*1A
$GPRMC,140749,A,3206.402258,N,03459.869259,E,55.8,262.8,130416,3.0,E,A*2C
$GPGGA,140749,3206.402258,N,03459.869259,E,1,07,1.0,108.0,M,19.0,M,,*46
$GPGSV,3,1,11,12,42,306,34,15,28,219,26,17,19,040,40,19,47,040,31*7F
$GPGSV,3,2,11,24,71,317,33,25,12,284,26,06,37,092,,13,13,181,*72
$GPGSV,3,3,11,14,00,000,,28,01,078,,29,00,000,*43
$GLGSV,1,1,0,*79
$GPGSA,A,3,12,15,17,19,24,25,,,,,,,1.6,1.4,0.9*31
$GPVTG,261.7,T,261.7,M,56.5,N,104.6,K,A*16
$GPRMC,140750,A,3206.399374,N,03459.851320,E,56.5,261.7,130416,3.0,E,A*28
$GPGGA,140750,3206.399374,N,03459.851320,E,1,06,1.4,106.0,M,19.0,M,,*4B
$GPGSV,3,1,11,12,42,306,34,15,28,219,26,17,19,040,40,19,47,040,31*7F
$GPGSV,3,2,11,24,71,317,33,25,12,284,26,06,37,092,,13,13,181,*72
$GPGSV,3,3,11,14,00,000,,28,01,078,,29,00,000,*43
$GLGSV,1,1,0,*79
$GPGSA,A,3,12,15,17,19,24,25,,,,,,,1.6,1.4,0.9*31
$GPVTG,261.7,T,261.7,M,56.5,N,104.6,K,A*16
$GPRMC,140751,A,3206.397096,N,03459.833047,E,56.5,261.7,130416,3.0,E,A*2E
$GPGGA,140751,3206.397096,N,03459.833047,E,1,06,1.4,105.0,M,19.0,M,,*4E
$GPGSV,3,1,12,02,33,147,21,06,37,092,23,12,42,306,34,13,13,181,24*7A
$GPGSV,3,2,12,15,28,219,26,17,19,040,36,19,47,040,33,24,71,317,34*79
$GPGSV,3,3,12,25,12,284,29,14,00,000,,28,01,078,,29,00,000,*71
$GLGSV,1,1,0,*79
$GPGSA,A,3,02,06,12,13,15,17,19,24,25,,,,1.2,0.8,0.8*3F
$GPVTG,258.4,T,258.4,M,56.9,N,105.3,K,A*1E
$GPRMC,140752,A,3206.393431,N,03459.814823,E,56.9,258.4,130416,3.0,E,A*2A
$GPGGA,140752,3206.393431,N,03459.814823,E,1,09,0.8,104.0,M,19.0,M,,*4C
$GPGSV,3,1,10,02,33,147,27,12,42,306,34,15,28,219,32,17,19,040,33*77
$GPGSV,3,2,10,19,47,040,33,24,71,317,34,25,12,284,32,14,00,000,*7A
$GPGSV,3,3,10,28,01,078,,29,00,000,*77
$GLGSV,1,1,0,*79
$GPGSA,A,3,02,12,15,17,19,24,25,,,,,,1.3,1.0,0.9*32
$GPVTG,257.9,T,257.9,M,56.7,N,105.1,K,A*12
$GPRMC,140753,A,3206.390189,N,03459.797118,E,56.7,257.9,130416,3.0,E,A*27
$GPGGA,140753,3206.390189,N,03459.797118,E,1,07,1.0,102.0,M,19.0,M,,*4C
$GPGSV,3,1,11,12,42,306,31,15,28,219,30,17,19,040,33,19,47,040,34*7C
$GPGSV,3,2,11,24,71,317,35,25,12,284,29,06,37,092,,13,13,181,*7B
$GPGSV,3,3,11,14,00,000,,28,01,078,,29,00,000,*43
$GLGSV,1,1,0,*79
$GPGSA,A,3,12,15,17,19,24,25,,,,,,,1.6,1.4,0.9*31
$GPVTG,255.9,T,255.9,M,56.2,N,104.0,K,A*17
$GPRMC,140754,A,3206.385435,N,03459.778952,E,56.2,255.9,130416,3.0,E,A*26
$GPGGA,140754,3206.385435,N,03459.778952,E,1,06,1.4,100.0,M,19.0,M,,*4D
$GPGSV,3,1,11,12,42,306,31,15,28,219,30,17,19,040,33,19,47,040,34*7C
$GPGSV,3,2,11,24,71,317,35,25,12,284,29,06,37,092,,13,13,181,*7B
$GPGSV,3,3,11,14,00,000,,28,01,078,,29,00,000,*43
$GLGSV,1,1,0,*79
$GPGSA,A,3,12,15,17,19,24,25,,,,,,,1.6,1.4,0.9*31
$GPVTG,255.9,T,255.9,M,56.2,N,104.0,K,A*17
$GPRMC,140755,A,3206.381619,N,03459.761130,E,56.2,255.9,130416,3.0,E,A*2B
$GPGGA,140755,3206.381619,N,03459.761130,E,1,06,1.4,100.0,M,19.0,M,,*40
$GPGSV,3,1,10,02,33,147,24,06,37,092,28,12,42,306,27,17,19,040,35*76
$GPGSV,3,2,10,19,47,040,33,24,71,317,34,25,12,284,29,14,00,000,*70
$GPGSV,3,3,10,28,01,078,,29,00,000,*77
$GLGSV,1,1,0,*79
$GPGSA,A,3,02,06,12,17,19,24,25,,,,,,1.4,1.1,0.9*36
$GPVTG,253.9,T,253.9,M,56.0,N,103.8,K,A*1A
$GPRMC,140756,A,3206.377470,N,03459.743732,E,56.0,253.9,130416,3.0,E,A*2C
$GPGGA,140756,3206.377470,N,03459.743732,E,1,07,1.1,99.0,M,19.0,M,,*76
$GPGSV,3,1,11,06,37,092,30,12,42,306,28,13,13,181,26,15,28,219,29*78
$GPGSV,3,2,11,17,19,040,35,19,47,040,33,24,71,317,35,25,12,284,28*78
$GPGSV,3,3,11,14,00,000,,28,01,078,,29,00,000,*43
$GLGSV,1,1,0,*79
$GPGSA,A,3,06,12,13,15,17,19,24,25,,,,,1.2,0.9,0.8*3C
$GPVTG,251.7,T,251.7,M,56.8,N,105.1,K,A*1D
$GPRMC,140757,A,3206.372757,N,03459.725682,E,56.8,251.7,130416,3.0,E,A*20
$GPGGA,140757,3206.372757,N,03459.725682,E,1,08,0.9,98.0,M,19.0,M,,*79
$GPGSV,3,1,12,06,37,092,30,12,42,306,27,13,13,181,28,15,28,219,31*73
$GPGSV,3,2,12,17,19,040,36,19,47,040,34,24,71,317,35,25,12,284,25*72
$GPGSV,3,3,12,02,33,147,,14,00,000,,28,01,078,,29,00,000,*70
$GLGSV,1,1,0,*79
$GPGSA,A,3,06,12,13,15,17,19,24,25,,,,,1.2,0.9,0.8*3C
$GPVTG,248.6,T,248.6,M,57.6,N,106.7,K,A*17
$GPRMC,140758,A,3206.367456,N,03459.707686,E,57.6,248.6,130416,3.0,E,A*2B
$GPGGA,140758,3206.367456,N,03459.707686,E,1,08,0.9,98.0,M,19.0,M,,*74
$GPGSV,3,1,12,06,37,092,25,12,42,306,33,13,13,181,27,15,28,219,31*7D
$GPGSV,3,2,12,17,19,040,36,19,47,040,30,24,71,317,34,25,12,284,26*74
$GPGSV,3,3,12,02,33,147,,14,00,000,,28,01,078,,29,00,000,*70
$GLGSV,1,1,0,*79
$GPGSA,A,3,06,12,13,15,17,19,24,25,,,,,1.2,0.9,0.8*3C
$GPVTG,247.8,T,247.8,M,58.5,N,108.4,K,A*16
$GPRMC,140759,A,3206.360965,N,03459.690829,E,58.5,247.8,130416,3.0,E,A*29
$GPGGA,140759,3206.360965,N,03459.690829,E,1,08,0.9,97.0,M,19.0,M,,*74
$GPGSV,3,1,12,02,33,147,23,06,37,092,23,12,42,306,35,13,13,181,24*79
$GPGSV,3,2,12,15,28,219,29,17,19,040,33,19,47,040,31,24,71,317,34*71
$GPGSV,3,3,12,25,12,284,28,14,00,000,,28,01,078,,29,00,000,*70
$GLGSV,1,1,0,*79
$GPGSA,A,3,02,06,12,13,15,17,19,24,25,,,,1.2,0.8,0.8*3F
$GPVTG,245.5,T,245.5,M,58.2,N,107.9,K,A*13
$GPRMC,140800,A,3206.352658,N,03459.674150,E,58.2,245.5,130416,3.0,E,A*2F
$GPGGA,140800,3206.352658,N,03459.674150,E,1,09,0.8,93.0,M,19.0,M,,*7E
$GPGSV,3,1,11,02,33,147,24,06,37,092,23,12,42,306,34,15,28,219,27*73
$GPGSV,3,2,11,17,19,040,34,19,47,040,31,24,71,317,33,25,12,284,28*7D
$GPGSV,3,3,11,14,00,000,,28,01,078,,29,00,000,*43
$GLGSV,1,1,0,*79
$GPGSA,A,3,02,06,12,15,17,19,24,25,,,,,1.3,0.9,0.9*3C
$GPVTG,244.1,T,244.1,M,58.4,N,108.2,K,A*11
$GPRMC,140801,A,3206.345464,N,03459.656811,E,58.4,244.1,130416,3.0,E,A*2A
$GPGGA,140801,3206.345464,N,03459.656811,E,1,08,0.9,93.0,M,19.0,M,,*78
$GPGSV,3,1,12,02,33,147,27,06,37,092,27,12,42,306,34,15,28,219,25*75
$GPGSV,3,2,12,17,19,040,36,19,47,040,24,24,71,317,32,25,12,284,29*78
$GPGSV,3,3,12,13,13,181,,14,00,000,,28,01,078,,29,00,000,*78
$GLGSV,1,1,0,*79
$GPGSA,A,3,02,06,12,15,17,19,24,25,,,,,1.3,0.9,0.9*3C
$GPVTG,242.8,T,242.8,M,58.6,N,108.5,K,A*14
$GPRMC,140802,A,3206.338228,N,03459.639581,E,58.6,242.8,130416,3.0,E,A*2D
$GPGGA,140802,3206.338228,N,03459.639581,E,1,08,0.9,93.0,M,19.0,M,,*72
$GPGSV,3,1,12,02,33,147,27,06,37,092,28,12,42,306,33,15,28,219,25*7D
$GPGSV,3,2,12,17,19,040,34,19,47,040,24,24,71,317,32,25,12,284,30*72
$GPGSV,3,3,12,13,13,181,,14,00,000,,28,01,078,,29,00,000,*78
$GLGSV,1,1,0,*79
$GPGSA,A,3,02,06,12,15,17,19,24,25,,,,,1.3,0.9,0.9*3C
$GPVTG,241.5,T,241.5,M,58.1,N,107.6,K,A*1F
$GPRMC,140803,A,3206.330734,N,03459.622356,E,58.1,241.5,130416,3.0,E,A*23
$GPGGA,140803,3206.330734,N,03459.622356,E,1,08,0.9,93.0,M,19.0,M,,*75
$GPGSV,3,1,11,02,33,147,27,06,37,092,29,12,42,306,32,17,19,040,35*71
$GPGSV,3,2,11,19,47,040,27,24,71,317,32,25,12,284,30,13,13,181,*77
$GPGSV,3,3,11,14,00,000,,28,01,078,,29,00,000,*43
$GLGSV,1,1,0,*79
$GPGSA,A,3,02,06,12,17,19,24,25,,,,,,1.4,1.1,0.9*36
$GPVTG,240.3,T,240.3,M,57.6,N,106.6,K,A*16
$GPRMC,140804,A,3206.323146,N,03459.605316,E,57.6,240.3,130416,3.0,E,A*2B
$GPGGA,140804,3206.323146,N,03459.605316,E,1,07,1.1,92.0,M,19.0,M,,*75
$GPGSV,3,1,12,02,33,147,28,06,37,092,32,12,42,306,28,17,19,040,34*7D
$GPGSV,3,2,12,19,47,040,29,24,71,317,31,25,12,284,26,13,13,181,*7E
$GPGSV,3,3,12,14,00,000,,15,28,219,,28,01,078,,29,00,000,*74
$GLGSV,1,1,0,*79
$GPGSA,A,3,02,06,12,17,19,24,25,,,,,,1.4,1.1,0.9*36
$GPVTG,237.7,T,237.7,M,57.4,N,106.2,K,A*10
$GPRMC,140805,A,3206.313169,N,03459.589754,E,57.4,237.7,130416,3.0,E,A*27
$GPGGA,140805,3206.313169,N,03459.589754,E,1,07,1.1,90.0,M,19.0,M,,*7D
$GPGSV,3,1,11,02,33,147,29,06,37,092,31,12,42,306,30,17,19,040,33*72
$GPGSV,3,2,11,19,47,040,30,24,71,317,31,29,00,000,24,13,13,181,*76
$GPGSV,3,3,11,14,00,000,,15,28,219,,28,01,078,*4C
$GLGSV,1,1,0,*79
$GPGSA,A,3,02,06,12,17,19,24,29,,,,,,1.6,1.3,0.9*3A
$GPVTG,236.8,T,236.8,M,58.0,N,107.4,K,A*1C
$GPRMC,140806,A,3206.304910,N,03459.573651,E,58.0,236.8,130416,3.0,E,A*20
$GPGGA,140806,3206.304910,N,03459.573651,E,1,07,1.3,89.0,M,19.0,M,,*75
$GPGSV,3,1,11,02,33,147,29,06,37,092,33,12,42,306,30,13,13,181,24*74
$GPGSV,3,2,11,17,19,040,29,19,47,040,31,24,71,317,30,25,12,284,30*7B
$GPGSV,3,3,11,14,00,000,,15,28,219,,28,01,078,*4C
$GLGSV,1,1,0,*79
$GPGSA,A,3,02,06,12,13,17,19,24,25,,,,,1.2,0.9,0.8*3A
$GPVTG,235.7,T,235.7,M,58.6,N,108.5,K,A*14
$GPRMC,140807,A,3206.296467,N,03459.557513,E,58.6,235.7,130416,3.0,E,A*2F
$GPGGA,140807,3206.296467,N,03459.557513,E,1,08,0.9,88.0,M,19.0,M,,*75
$GPGSV,3,1,11,02,33,147,29,06,37,092,33,12,42,306,30,13,13,181,24*74
$GPGSV,3,2,11,17,19,040,29,19,47,040,31,24,71,317,30,25,12,284,30*7B
$GPGSV,3,3,11,14,00,000,,15,28,219,,28,01,078,*4C
$GLGSV,1,1,0,*79
$GPGSA,A,3,02,06,12,13,17,19,24,25,,,,,1.2,0.9,0.8*3A
$GPVTG,235.7,T,235.7,M,58.6,N,108.5,K,A*14
$GPRMC,140808,A,3206.287269,N,03459.541680,E,58.6,235.7,130416,3.0,E,A*26
$GPGGA,140808,3206.287269,N,03459.541680,E,1,08,0.9,88.0,M,19.0,M,,*7C
$GPGSV,3,1,11,02,33,147,32,06,37,092,30,12,42,306,29,13,13,181,27*76
$GPGSV,3,2,11,17,19,040,25,19,47,040,32,24,71,317,31,25,12,284,23*77
$GPGSV,3,3,11,14,00,000,,28,01,078,,29,00,000,*43
$GLGSV,1,1,0,*79
$GPGSA,A,3,02,06,12,13,17,19,24,25,,,,,1.2,0.9,0.8*3A
$GPVTG,234.7,T,234.7,M,60.1,N,111.3,K,A*16
$GPRMC,140809,A,3206.278232,N,03459.525241,E,60.1,234.7,130416,3.0,E,A*2F
$GPGGA,140809,3206.278232,N,03459.525241,E,1,08,0.9,87.0,M,19.0,M,,*77
$GPGSV,3,1,11,02,33,147,32,06,37,092,30,12,42,306,29,13,13,181,28*79
$GPGSV,3,2,11,19,47,040,32,24,71,317,28,25,12,284,25,14,00,000,*71
$GPGSV,3,3,11,15,28,219,,28,01,078,,29,00,000,*42
$GLGSV,1,1,0,*79
$GPGSA,A,3,02,06,12,13,19,24,25,,,,,,1.4,1.1,0.9*32
$GPVTG,234.9,T,234.9,M,61.0,N,112.9,K,A*1F
$GPRMC,140810,A,3206.268757,N,03459.508744,E,61.0,234.9,130416,3.0,E,A*21
$GPGGA,140810,3206.268757,N,03459.508744,E,1,07,1.1,87.0,M,19.0,M,,*71
$GPGSV,3,1,11,02,33,147,32,06,37,092,30,12,42,306,29,13,13,181,28*79
$GPGSV,3,2,11,19,47,040,32,24,71,317,28,25,12,284,25,14,00,000,*71
$GPGSV,3,3,11,15,28,219,,28,01,078,,29,00,000,*42
$GLGSV,1,1,0,*79
$GPGSA,A,3,02,06,12,13,19,24,25,,,,,,1.4,1.1,0.9*32
$GPVTG,234.9,T,234.9,M,61.0,N,112.9,K,A*1F
$GPRMC,140811,A,3206.258994,N,03459.492429,E,61.0,234.9,130416,3.0,E,A*28
$GPGGA,140811,3206.258994,N,03459.492429,E,1,07,1.1,87.0,M,19.0,M,,*78
$GPGSV,3,1,12,02,33,147,31,06,37,092,23,12,42,306,29,13,13,181,27*74
$GPGSV,3,2,12,17,19,040,27,19,47,040,31,24,71,317,27,25,12,284,21*70
$GPGSV,3,3,12,14,00,000,,15,28,219,,28,01,078,,29,00,000,*74
$GLGSV,1,1,0,*79
$GPGSA,A,3,02,06,12,13,17,19,24,25,,,,,1.2,0.9,0.8*3A
$GPVTG,234.6,T,234.6,M,62.3,N,115.3,K,A*12
$GPRMC,140812,A,3206.249610,N,03459.475409,E,62.3,234.6,130416,3.0,E,A*2C
$GPGGA,140812,3206.249610,N,03459.475409,E,1,08,0.9,87.0,M,19.0,M,,*75
$GPGSV,3,1,12,02,33,147,31,06,37,092,26,12,42,306,26,13,13,181,25*7C
$GPGSV,3,2,12,17,19,040,23,19,47,040,32,24,71,317,28,25,12,284,27*7E
$GPGSV,3,3,12,14,00,000,,15,28,219,,28,01,078,,29,00,000,*74
$GLGSV,1,1,0,*79
$GPGSA,A,3,02,06,12,13,17,19,24,25,,,,,1.2,0.9,0.8*3A
$GPVTG,234.8,T,234.8,M,63.3,N,117.1,K,A*13
$GPRMC,140813,A,3206.239543,N,03459.458435,E,63.3,234.8,130416,3.0,E,A*20
$GPGGA,140813,3206.239543,N,03459.458435,E,1,08,0.9,88.0,M,19.0,M,,*79
$GPGSV,3,1,12,02,33,147,29,06,37,092,26,12,42,306,27,13,13,181,27*76
$GPGSV,3,2,12,17,19,040,25,19,47,040,30,24,71,317,29,25,12,284,27*7B
$GPGSV,3,3,12,14,00,000,,15,28,219,,28,01,078,,29,00,000,*74
$GLGSV,1,1,0,*79
$GPGSA,A,3,02,06,12,13,17,19,24,25,,,,,1.2,0.9,0.8*3A
$GPVTG,234.4,T,234.4,M,63.1,N,116.9,K,A*18
$GPRMC,140814,A,3206.229207,N,03459.441598,E,63.1,234.4,130416,3.0,E,A*21
$GPGGA,140814,3206.229207,N,03459.441598,E,1,08,0.9,90.0,M,19.0,M,,*7F
$GPGSV,3,1,12,02,33,147,29,06,37,092,26,12,42,306,27,13,13,181,27*76
$GPGSV,3,2,12,17,19,040,25,19,47,040,30,24,71,317,29,25,12,284,27*7B
$GPGSV,3,3,12,14,00,000,,15,28,219,,28,01,078,,29,00,000,*74
$GLGSV,1,1,0,*79
$GPGSA,A,3,02,06,12,13,17,19,24,25,,,,,1.2,0.9,0.8*3A
$GPVTG,234.4,T,234.4,M,63.1,N,116.9,K,A*18
$GPRMC,140815,A,3206.218972,N,03459.424812,E,63.1,234.4,130416,3.0,E,A*27
$GPGGA,140815,3206.218972,N,03459.424812,E,1,08,0.9,90.0,M,19.0,M,,*79
$GPGSV,3,1,10,02,33,147,28,06,37,092,31,12,42,306,26,13,13,181,23*76
$GPGSV,3,2,10,17,19,040,28,19,47,040,29,24,71,317,25,14,00,000,*7A
$GPGSV,3,3,10,28,01,078,,29,00,000,*77
$GLGSV,1,1,0,*79
$GPGSA,A,3,02,06,12,13,17,19,24,,,,,,1.4,1.1,0.9*33
$GPVTG,233.6,T,233.6,M,62.9,N,116.4,K,A*1C
$GPRMC,140816,A,3206.208765,N,03459.408192,E,62.9,233.6,130416,3.0,E,A*2E
$GPGGA,140816,3206.208765,N,03459.408192,E,1,07,1.1,91.0,M,19.0,M,,*7B
$GPGSV,3,1,11,02,33,147,28,12,42,306,23,13,13,181,27,17,19,040,28*7D
$GPGSV,3,2,11,19,47,040,30,24,71,317,26,14,00,000,,15,28,219,*74
$GPGSV,3,3,11,25,12,284,,28,01,078,,29,00,000,*4C
$GLGSV,1,1,0,*79
$GPGSA,A,3,02,12,13,17,19,24,,,,,,,1.5,1.2,0.9*37
$GPVTG,234.9,T,234.9,M,64.3,N,119.1,K,A*1A
$GPRMC,140817,A,3206.198966,N,03459.390834,E,64.3,234.9,130416,3.0,E,A*2F
$GPGGA,140817,3206.198966,N,03459.390834,E,1,06,1.2,91.0,M,19.0,M,,*7C
$GPGSV,3,1,12,02,33,147,27,12,42,306,23,13,13,181,25,15,28,219,24*71
$GPGSV,3,2,12,17,19,040,28,19,47,040,31,24,71,317,25,06,37,092,*7D
$GPGSV,3,3,12,14,00,000,,25,12,284,,28,01,078,,29,00,000,*7A
$GLGSV,1,1,0,*79
$GPGSA,A,3,02,12,13,15,17,19,24,,,,,,1.4,1.1,0.9*31
$GPVTG,235.4,T,235.4,M,64.6,N,119.7,K,A*19
$GPRMC,140818,A,3206.188595,N,03459.372989,E,64.6,235.4,130416,3.0,E,A*23
$GPGGA,140818,3206.188595,N,03459.372989,E,1,07,1.1,92.0,M,19.0,M,,*78
$GPGSV,3,1,12,02,33,147,30,06,37,092,24,12,42,306,24,13,13,181,24*7C
$GPGSV,3,2,12,15,28,219,26,17,19,040,24,19,47,040,32,24,71,317,29*77
$GPGSV,3,3,12,14,00,000,,25,12,284,,28,01,078,,29,00,000,*7A
$GLGSV,1,1,0,*79
$GPGSA,A,3,02,06,12,13,15,17,19,24,,,,,1.3,1.0,0.9*31
$GPVTG,235.9,T,235.9,M,64.4,N,119.2,K,A*1E
$GPRMC,140819,A,3206.178736,N,03459.355724,E,64.4,235.9,130416,3.0,E,A*25
$GPGGA,140819,3206.178736,N,03459.355724,E,1,08,1.0,92.0,M,19.0,M,,*7F
$GPGSV,3,1,12,02,33,147,29,06,37,092,23,12,42,306,27,13,13,181,25*71
$GPGSV,3,2,12,15,28,219,21,17,19,040,29,19,47,040,32,24,71,317,23*77
$GPGSV,3,3,12,14,00,000,,25,12,284,,28,01,078,,29,00,000,*7A
$GLGSV,2,1,08,75,59,057,29,74,20,112,,66,03,275,,86,64,188,*64
$GLGSV,2,2,08,84,04,026,,87,09,202,,85,53,036,,67,00,000,*68
$GPGSA,A,3,02,06,12,13,15,17,19,24,,,,,1.3,1.0,0.9*31
$GPVTG,236.2,T,236.2,M,63.9,N,118.4,K,A*13
$GPRMC,140820,A,3206.169216,N,03459.338443,E,63.9,236.2,130416,3.0,E,A*23
$GPGGA,140820,3206.169216,N,03459.338443,E,1,08,1.0,91.0,M,19.0,M,,*78
$GPGSV,3,1,12,02,33,147,28,06,37,092,28,12,42,306,30,13,13,181,23*7B
$GPGSV,3,2,12,15,28,219,27,17,19,040,32,19,47,040,33,24,71,317,27*7E
$GPGSV,3,3,12,29,00,000,18,14,00,000,,25,12,284,,28,01,078,*73
$GLGSV,2,1,08,74,20,112,21,75,59,057,31,87,09,202,23,85,53,036,29*62
$GLGSV,2,2,08,66,03,275,,86,64,188,,84,04,026,,67,00,000,*6E
$GPGSA,A,3,02,06,12,13,15,17,19,24,29,,,,1.2,0.9,0.9*33
$GPVTG,237.6,T,237.6,M,64.0,N,118.6,K,A*1F
$GPRMC,140821,A,3206.159754,N,03459.320978,E,64.0,237.6,130416,3.0,E,A*25
$GPGGA,140821,3206.159754,N,03459.320978,E,1,09,0.9,92.0,M,19.0,M,,*7F
$GPGSV,3,1,12,02,33,147,26,06,37,092,30,12,42,306,32,13,13,181,26*7B
$GPGSV,3,2,12,15,28,219,29,17,19,040,34,19,47,040,32,24,71,317,29*79
$GPGSV,3,3,12,29,00,000,18,14,00,000,,25,12,284,,28,01,078,*73
$GLGSV,1,1,0,*79
$GPGSA,A,3,02,06,12,13,15,17,19,24,29,,,,1.3,1.0,0.9*3A
$GPVTG,240.9,T,240.9,M,64.1,N,118.7,K,A*1F
$GPRMC,140822,A,3206.150175,N,03459.302295,E,64.1,240.9,130416,3.0,E,A*2C
$GPGGA,140822,3206.150175,N,03459.302295,E,1,09,1.0,91.0,M,19.0,M,,*73
$GPGSV,3,1,11,06,37,092,28,12,42,306,28,13,13,181,23,15,28,219,31*7D
$GPGSV,3,2,11,17,19,040,34,19,47,040,31,24,71,317,30,14,00,000,*7B
$GPGSV,3,3,11,25,12,284,,28,01,078,,29,00,000,*4C
$GLGSV,1,1,0,*79
$GPGSA,A,3,06,12,13,15,17,19,24,,,,,,1.4,1.1,0.9*35
$GPVTG,243.2,T,243.2,M,63.6,N,117.7,K,A*10
$GPRMC,140823,A,3206.141394,N,03459.283365,E,63.6,243.2,130416,3.0,E,A*2E
$GPGGA,140823,3206.141394,N,03459.283365,E,1,07,1.1,90.0,M,19.0,M,,*77
$GPGSV,3,1,11,06,37,092,28,12,42,306,28,13,13,181,23,15,28,219,31*7D
$GPGSV,3,2,11,17,19,040,34,19,47,040,31,24,71,317,30,14,00,000,*7B
$GPGSV,3,3,11,25,12,284,,28,01,078,,29,00,000,*4C
$GLGSV,1,1,0,*79
$GPGSA,A,3,06,12,13,15,17,19,24,,,,,,1.4,1.1,0.9*35
$GPVTG,243.2,T,243.2,M,63.5,N,117.7,K,A*13
$GPRMC,140824,A,3206.133413,N,03459.264814,E,63.5,243.2,130416,3.0,E,A*23
$GPGGA,140824,3206.133413,N,03459.264814,E,1,07,1.1,90.0,M,19.0,M,,*79
$GPGSV,3,1,11,02,33,147,33,06,37,092,26,12,42,306,31,13,13,181,27*79
$GPGSV,3,2,11,17,19,040,34,19,47,040,30,24,71,317,28,25,12,284,26*78
$GPGSV,3,3,11,14,00,000,,28,01,078,,29,00,000,*43
$GLGSV,1,1,0,*79
$GPGSA,A,3,02,06,12,13,17,19,24,25,,,,,1.2,0.9,0.8*3A
$GPVTG,249.3,T,249.3,M,64.1,N,118.8,K,A*10
$GPRMC,140825,A,3206.128333,N,03459.243911,E,64.1,249.3,130416,3.0,E,A*24
$GPGGA,140825,3206.128333,N,03459.243911,E,1,08,0.9,88.0,M,19.0,M,,*79
$GPGSV,3,1,11,02,33,147,31,12,42,306,32,13,13,181,26,17,19,040,36*7B
$GPGSV,3,2,11,19,47,040,33,24,71,317,29,25,12,284,26,14,00,000,*72
$GPGSV,3,3,11,15,28,219,,28,01,078,,29,00,000,*42
$GLGSV,1,1,0,*79
$GPGSA,A,3,02,12,13,17,19,24,25,,,,,,1.3,1.0,0.8*35
$GPVTG,252.8,T,252.8,M,64.2,N,118.9,K,A*12
$GPRMC,140826,A,3206.122674,N,03459.224025,E,64.2,252.8,130416,3.0,E,A*26
$GPGGA,140826,3206.122674,N,03459.224025,E,1,07,1.0,89.0,M,19.0,M,,*7F
$GPGSV,3,1,11,02,33,147,31,12,42,306,32,13,13,181,26,17,19,040,36*7B
$GPGSV,3,2,11,19,47,040,33,24,71,317,29,25,12,284,26,14,00,000,*72
$GPGSV,3,3,11,15,28,219,,28,01,078,,29,00,000,*42
$GLGSV,1,1,0,*79
$GPGSA,A,3,02,12,13,17,19,24,25,,,,,,1.3,1.0,0.8*35
$GPVTG,252.8,T,252.8,M,64.2,N,118.9,K,A*12
$GPRMC,140827,A,3206.117382,N,03459.203958,E,64.2,252.8,130416,3.0,E,A*2B
$GPGGA,140827,3206.117382,N,03459.203958,E,1,07,1.0,89.0,M,19.0,M,,*72
$GPGSV,3,1,12,02,33,147,33,06,37,092,20,12,42,306,30,13,13,181,23*79
$GPGSV,3,2,12,15,28,219,30,17,19,040,24,19,47,040,29,24,71,317,26*75
$GPGSV,3,3,12,25,12,284,20,14,00,000,,28,01,078,,29,00,000,*78
$GLGSV,1,1,0,*79
$GPGSA,A,3,02,06,12,13,15,17,19,24,25,,,,1.2,0.8,0.8*3F
$GPVTG,258.9,T,258.9,M,64.5,N,119.4,K,A*19
$GPRMC,140828,A,3206.114469,N,03459.184116,E,64.5,258.9,130416,3.0,E,A*27
$GPGGA,140828,3206.114469,N,03459.184116,E,1,09,0.8,90.0,M,19.0,M,,*7D
$GPGSV,3,1,11,02,33,147,32,06,37,092,26,12,42,306,31,13,13,181,24*7B
$GPGSV,3,2,11,15,28,219,24,17,19,040,34,24,71,317,29,25,12,284,25*74
$GPGSV,3,3,11,14,00,000,,28,01,078,,29,00,000,*43
$GLGSV,1,1,0,*79
$GPGSA,A,3,02,06,12,13,15,17,24,25,,,,,1.2,0.9,0.8*36
$GPVTG,261.9,T,261.9,M,64.8,N,120.0,K,A*1A
$GPRMC,140829,A,3206.112139,N,03459.163322,E,64.8,261.9,130416,3.0,E,A*2B
$GPGGA,140829,3206.112139,N,03459.163322,E,1,08,0.9,89.0,M,19.0,M,,*7E
$GPGSV,3,1,09,02,33,147,31,06,37,092,29,12,42,306,25,17,19,040,33*7F
$GPGSV,3,2,09,19,47,040,27,24,71,317,21,14,00,000,,28,01,078,*7C
$GPGSV,3,3,09,29,00,000,*4B
$GLGSV,1,1,0,*79
$GPGSA,A,3,02,06,12,17,19,24,,,,,,,1.6,1.3,0.9*31
$GPVTG,264.8,T,264.8,M,64.0,N,118.4,K,A*1D
$GPRMC,140830,A,3206.110276,N,03459.142682,E,64.0,264.8,130416,3.0,E,A*29
$GPGGA,140830,3206.110276,N,03459.142682,E,1,06,1.3,90.0,M,19.0,M,,*7D
$GPGSV,2,1,08,12,42,306,22,13,13,181,32,15,28,219,25,17,19,040,31*70
$GPGSV,2,2,08,25,12,284,28,14,00,000,,28,01,078,,29,00,000,*7B
$GLGSV,1,1,0,*79
$GPGSA,A,3,12,13,15,17,25,,,,,,,,1.4,1.1,0.9*3A
$GPVTG,265.5,T,265.5,M,64.8,N,120.1,K,A*1B
$GPRMC,140831,A,3206.109165,N,03459.121130,E,64.8,265.5,130416,3.0,E,A*2E
$GPGGA,140831,3206.109165,N,03459.121130,E,1,05,1.1,90.0,M,19.0,M,,*7F
$GPGSV,2,1,08,12,42,306,22,13,13,181,32,15,28,219,25,17,19,040,31*70
$GPGSV,2,2,08,25,12,284,28,14,00,000,,28,01,078,,29,00,000,*7B
$GLGSV,1,1,0,*79
$GPGSA,A,3,12,13,15,17,25,,,,,,,,1.4,1.1,0.9*3A
$GPVTG,265.5,T,265.5,M,64.8,N,120.1,K,A*1B
$GPRMC,140832,A,3206.107740,N,03459.099993,E,64.8,265.5,130416,3.0,E,A*21
$GPGGA,140832,3206.107740,N,03459.099993,E,1,05,1.1,90.0,M,19.0,M,,*70
$GPGSV,3,1,12,02,33,147,33,06,37,092,22,12,42,306,32,13,13,181,33*78
$GPGSV,3,2,12,15,28,219,31,17,19,040,33,19,47,040,33,24,71,317,29*76
$GPGSV,3,3,12,25,12,284,26,14,00,000,,28,01,078,,29,00,000,*7E
$GLGSV,1,1,0,*79
$GPGSA,A,3,02,06,12,13,15,17,19,24,25,,,,1.2,0.8,0.8*3F
