$GPRMC,074522.793,V,4254.931,N,07702.497,W,30.5,3.99,190416,,E*42
$GPGGA,074523.793,4254.931,N,07702.497,W,0,00,,,M,,M,,*5F
$GPGLL,4254.931,N,07702.497,W,074524.793,V*38
$GPVTG,3.99,T,,M,30.5,N,56.6,K*50
$GPRMC,074526.793,V,4254.933,N,07702.497,W,99.6,3.93,190416,,E*4E
$GPGGA,074527.793,4254.933,N,07702.497,W,0,00,,,M,,M,,*59
$GPGLL,4254.933,N,07702.497,W,074528.793,V*36
$GPVTG,3.93,T,,M,99.6,N,184.5,K*67
$GPRMC,074530.793,V,4254.935,N,07702.497,W,71.1,4.01,190416,,E*42
$GPGGA,074531.793,4254.935,N,07702.497,W,0,00,,,M,,M,,*58
$GPGLL,4254.935,N,07702.497,W,074532.793,V*3B
$GPVTG,4.01,T,,M,71.1,N,131.8,K*69
$GPRMC,074534.793,V,4254.937,N,07702.498,W,32.5,3.95,190416,,E*42
$GPGGA,074535.793,4254.937,N,07702.498,W,0,00,,,M,,M,,*51
$GPGLL,4254.937,N,07702.498,W,074536.793,V*32
$GPVTG,3.95,T,,M,32.5,N,60.2,K*5F
$GPRMC,074538.793,V,4254.939,N,07702.498,W,9.4,3.90,190416,,E*7C
$GPGGA,074539.793,4254.939,N,07702.498,W,0,00,,,M,,M,,*53
$GPGLL,4254.939,N,07702.498,W,074540.793,V*3D
$GPVTG,3.90,T,,M,9.4,N,17.4,K*65
$GPRMC,074542.793,V,4254.940,N,07702.498,W,93.3,3.79,190416,,E*4C
$GPGGA,074543.793,4254.940,N,07702.498,W,0,00,,,M,,M,,*50
$GPGLL,4254.940,N,07702.498,W,074544.793,V*37
$GPVTG,3.79,T,,M,93.3,N,172.7,K*67
$GPRMC,074546.793,V,4254.942,N,07702.499,W,96.5,3.75,190416,,E*44
$GPGGA,074547.793,4254.942,N,07702.499,W,0,00,,,M,,M,,*57
$GPGLL,4254.942,N,07702.499,W,074548.793,V*38
$GPVTG,3.75,T,,M,96.5,N,178.8,K*6D
$GPRMC,074550.793,V,4254.944,N,07702.500,W,26.2,3.78,190416,,E*45
$GPGGA,074551.793,4254.944,N,07702.500,W,0,00,,,M,,M,,*57
$GPGLL,4254.944,N,07702.500,W,074552.793,V*34
$GPVTG,3.78,T,,M,26.2,N,48.5,K*53
$GPRMC,074554.793,V,4254.945,N,07702.500,W,13.3,3.86,190416,,E*46
$GPGGA,074555.793,4254.945,N,07702.500,W,0,00,,,M,,M,,*52
$GPGLL,4254.945,N,07702.500,W,074556.793,V*31
$GPVTG,3.86,T,,M,13.3,N,24.6,K*5C
$GPRMC,074558.793,V,4254.947,N,07702.500,W,38.5,3.96,190416,,E*46
$GPGGA,074559.793,4254.947,N,07702.500,W,0,00,,,M,,M,,*5C
$GPGLL,4254.947,N,07702.500,W,074600.793,V*33
$GPVTG,3.96,T,,M,38.5,N,71.2,K*56
$GPRMC,074602.793,V,4254.949,N,07702.500,W,73.7,3.92,190416,,E*4D
$GPGGA,074603.793,4254.949,N,07702.500,W,0,00,,,M,,M,,*5E
$GPGLL,4254.949,N,07702.500,W,074604.793,V*39
$GPVTG,3.92,T,,M,73.7,N,136.4,K*6B
$GPRMC,074606.793,V,4254.951,N,07702.501,W,64.3,3.87,190416,,E*47
$GPGGA,074607.793,4254.951,N,07702.501,W,0,00,,,M,,M,,*52
$GPGLL,4254.951,N,07702.501,W,074608.793,V*3D
$GPVTG,3.87,T,,M,64.3,N,119.2,K*66
$GPRMC,074610.793,V,4254.953,N,07702.501,W,41.7,3.78,190416,,E*41
$GPGGA,074611.793,4254.953,N,07702.501,W,0,00,,,M,,M,,*57
$GPGLL,4254.953,N,07702.501,W,074612.793,V*34
$GPVTG,3.78,T,,M,41.7,N,77.2,K*5C
$GPRMC,074614.793,V,4254.954,N,07702.502,W,26.7,3.85,190416,,E*42
$GPGGA,074615.793,4254.954,N,07702.502,W,0,00,,,M,,M,,*57
$GPGLL,4254.954,N,07702.502,W,074616.793,V*34
$GPVTG,3.85,T,,M,26.7,N,49.5,K*55
$GPRMC,074618.793,V,4254.956,N,07702.502,W,88.8,3.90,190416,,E*43
$GPGGA,074619.793,4254.956,N,07702.502,W,0,00,,,M,,M,,*59
$GPGLL,4254.956,N,07702.502,W,074620.793,V*33
$GPVTG,3.90,T,,M,88.8,N,164.4,K*65
$GPRMC,074622.793,V,4254.958,N,07702.502,W,6.3,3.89,190416,,E*71
$GPGGA,074623.793,4254.958,N,07702.502,W,0,00,,,M,,M,,*5E
$GPGLL,4254.958,N,07702.502,W,074624.793,V*39
$GPVTG,3.89,T,,M,6.3,N,11.7,K*60
$GPRMC,074626.793,V,4254.960,N,07702.503,W,11.1,3.83,190416,,E*41
$GPGGA,074627.793,4254.960,N,07702.503,W,0,00,,,M,,M,,*50
$GPGLL,4254.960,N,07702.503,W,074628.793,V*3F
$GPVTG,3.83,T,,M,11.1,N,20.6,K*5D
$GPRMC,074630.793,V,4254.961,N,07702.504,W,28.5,3.73,190416,,E*41
$GPGGA,074631.793,4254.961,N,07702.504,W,0,00,,,M,,M,,*51
$GPGLL,4254.961,N,07702.504,W,074632.793,V*32
$GPVTG,3.73,T,,M,28.5,N,52.7,K*58
$GPRMC,074634.793,V,4254.963,N,07702.504,W,68.4,3.71,190416,,E*40
$GPGGA,074635.793,4254.963,N,07702.504,W,0,00,,,M,,M,,*57
$GPGLL,4254.963,N,07702.504,W,074636.793,V*34
$GPVTG,3.71,T,,M,68.4,N,126.8,K*62
$GPRMC,074638.793,V,4254.964,N,07702.505,W,34.1,3.73,190416,,E*44
$GPGGA,074639.793,4254.964,N,07702.505,W,0,00,,,M,,M,,*5D
$GPGLL,4254.964,N,07702.505,W,074640.793,V*33
$GPVTG,3.73,T,,M,34.1,N,63.2,K*56
$GPRMC,074642.793,V,4254.966,N,07702.506,W,31.0,3.76,190416,,E*49
$GPGGA,074643.793,4254.966,N,07702.506,W,0,00,,,M,,M,,*51
$GPGLL,4254.966,N,07702.506,W,074644.793,V*36
$GPVTG,3.76,T,,M,31.0,N,57.4,K*56
$GPRMC,074646.793,V,4254.968,N,07702.506,W,47.8,3.78,190416,,E*44
$GPGGA,074647.793,4254.968,N,07702.506,W,0,00,,,M,,M,,*5B
$GPGLL,4254.968,N,07702.506,W,074648.793,V*34
$GPVTG,3.78,T,,M,47.8,N,88.6,K*51
$GPRMC,074650.793,V,4254.970,N,07702.507,W,73.0,3.77,190416,,E*4B
$GPGGA,074651.793,4254.970,N,07702.507,W,0,00,,,M,,M,,*54
$GPGLL,4254.970,N,07702.507,W,074652.793,V*37
$GPVTG,3.77,T,,M,73.0,N,135.2,K*62
$GPRMC,074654.793,V,4254.971,N,07702.508,W,92.8,3.81,190416,,E*4F
$GPGGA,074655.793,4254.971,N,07702.508,W,0,00,,,M,,M,,*5E
$GPGLL,4254.971,N,07702.508,W,074656.793,V*3D
$GPVTG,3.81,T,,M,92.8,N,171.8,K*66
$GPRMC,074658.793,V,4254.973,N,07702.508,W,82.0,3.91,190416,,E*49
$GPGGA,074659.793,4254.973,N,07702.508,W,0,00,,,M,,M,,*50
$GPGLL,4254.973,N,07702.508,W,074700.793,V*3D
$GPVTG,3.91,T,,M,82.0,N,151.9,K*6D
$GPRMC,074702.793,V,4254.975,N,07702.508,W,12.7,3.98,190416,,E*46
$GPGGA,074703.793,4254.975,N,07702.508,W,0,00,,,M,,M,,*58
$GPGLL,4254.975,N,07702.508,W,074704.793,V*3F
$GPVTG,3.98,T,,M,12.7,N,23.6,K*51
$GPRMC,074706.793,V,4254.977,N,07702.508,W,72.7,3.96,190416,,E*48
$GPGGA,074707.793,4254.977,N,07702.508,W,0,00,,,M,,M,,*5E
$GPGLL,4254.977,N,07702.508,W,074708.793,V*31
$GPVTG,3.96,T,,M,72.7,N,134.6,K*6E
$GPRMC,074710.793,V,4254.978,N,07702.508,W,78.8,4.00,190416,,E*4D
$GPGGA,074711.793,4254.978,N,07702.508,W,0,00,,,M,,M,,*56
$GPGLL,4254.978,N,07702.508,W,074712.793,V*35
$GPVTG,4.00,T,,M,78.8,N,146.0,K*60
$GPRMC,074714.793,V,4254.980,N,07702.508,W,65.2,4.01,190416,,E*49
$GPGGA,074715.793,4254.980,N,07702.508,W,0,00,,,M,,M,,*55
$GPGLL,4254.980,N,07702.508,W,074716.793,V*36
$GPVTG,4.01,T,,M,65.2,N,120.8,K*6F
$GPRMC,074718.793,V,4254.982,N,07702.508,W,65.0,4.00,190416,,E*44
$GPGGA,074719.793,4254.982,N,07702.508,W,0,00,,,M,,M,,*5B
$GPGLL,4254.982,N,07702.508,W,074720.793,V*31
$GPVTG,4.00,T,,M,65.0,N,120.4,K*60
$GPRMC,074722.793,V,4254.984,N,07702.508,W,67.1,3.93,190416,,E*45
$GPGGA,074723.793,4254.984,N,07702.508,W,0,00,,,M,,M,,*54
$GPGLL,4254.984,N,07702.508,W,074724.793,V*33
$GPVTG,3.93,T,,M,67.1,N,124.3,K*6D
$GPRMC,074726.793,V,4254.986,N,07702.508,W,30.8,3.93,190416,,E*48
$GPGGA,074727.793,4254.986,N,07702.508,W,0,00,,,M,,M,,*52
$GPGLL,4254.986,N,07702.508,W,074728.793,V*3D
$GPVTG,3.93,T,,M,30.8,N,57.0,K*50
$GPRMC,074730.793,V,4254.987,N,07702.509,W,96.1,3.85,190416,,E*4D
$GPGGA,074731.793,4254.987,N,07702.509,W,0,00,,,M,,M,,*55
$GPGLL,4254.987,N,07702.509,W,074732.793,V*36
$GPVTG,3.85,T,,M,96.1,N,178.0,K*6E
$GPRMC,074734.793,V,4254.989,N,07702.509,W,57.8,3.92,190416,,E*45
$GPGGA,074735.793,4254.989,N,07702.509,W,0,00,,,M,,M,,*5F
$GPGLL,4254.989,N,07702.509,W,074736.793,V*3C
$GPVTG,3.92,T,,M,57.8,N,107.1,K*65
$GPRMC,074738.793,V,4254.991,N,07702.509,W,56.6,3.93,190416,,E*4E
$GPGGA,074739.793,4254.991,N,07702.509,W,0,00,,,M,,M,,*5A
$GPGLL,4254.991,N,07702.509,W,074740.793,V*34
$GPVTG,3.93,T,,M,56.6,N,104.9,K*60
$GPRMC,074742.793,V,4254.993,N,07702.509,W,3.1,3.99,190416,,E*7C
$GPGGA,074743.793,4254.993,N,07702.509,W,0,00,,,M,,M,,*55
$GPGLL,4254.993,N,07702.509,W,074744.793,V*32
$GPVTG,3.99,T,,M,3.1,N,5.7,K*53
$GPRMC,074746.793,V,4254.994,N,07702.509,W,65.6,4.08,190416,,E*47
$GPGGA,074747.793,4254.994,N,07702.509,W,0,00,,,M,,M,,*56
$GPGLL,4254.994,N,07702.509,W,074748.793,V*39
$GPVTG,4.08,T,,M,65.6,N,121.6,K*6D
$GPRMC,074750.793,V,4254.996,N,07702.509,W,7.6,4.09,190416,,E*77
$GPGGA,074751.793,4254.996,N,07702.509,W,0,00,,,M,,M,,*53
$GPGLL,4254.996,N,07702.509,W,074752.793,V*30
$GPVTG,4.09,T,,M,7.6,N,14.1,K*68
$GPRMC,074754.793,V,4254.998,N,07702.508,W,1.6,4.37,190416,,E*77
$GPGGA,074755.793,4254.998,N,07702.508,W,0,00,,,M,,M,,*58
$GPGLL,4254.998,N,07702.508,W,074756.793,V*3B
$GPVTG,4.37,T,,M,1.6,N,2.9,K*5C
$GPRMC,074758.793,V,4254.999,N,07702.507,W,73.8,4.47,190416,,E*49
$GPGGA,074759.793,4254.999,N,07702.507,W,0,00,,,M,,M,,*5A
$GPGLL,4254.999,N,07702.507,W,074800.793,V*39
$GPVTG,4.47,T,,M,73.8,N,136.8,K*67
$GPRMC,074802.793,V,4255.000,N,07702.505,W,89.8,4.50,190416,,E*40
$GPGGA,074803.793,4255.000,N,07702.505,W,0,00,,,M,,M,,*50
$GPGLL,4255.000,N,07702.505,W,074804.793,V*37
$GPVTG,4.50,T,,M,89.8,N,166.3,K*6A
$GPRMC,074806.793,V,4255.002,N,07702.504,W,20.5,4.47,190416,,E*4F
$GPGGA,074807.793,4255.002,N,07702.504,W,0,00,,,M,,M,,*57
$GPGLL,4255.002,N,07702.504,W,074808.793,V*38
$GPVTG,4.47,T,,M,20.5,N,38.0,K*5B
$GPRMC,074810.793,V,4255.003,N,07702.504,W,50.9,4.17,190416,,E*47
$GPGGA,074811.793,4255.003,N,07702.504,W,0,00,,,M,,M,,*51
$GPGLL,4255.003,N,07702.504,W,074812.793,V*32
$GPVTG,4.17,T,,M,50.9,N,94.3,K*50
$GPRMC,074814.793,V,4255.005,N,07702.503,W,62.7,4.26,190416,,E*4F
$GPGGA,074815.793,4255.005,N,07702.503,W,0,00,,,M,,M,,*54
$GPGLL,4255.005,N,07702.503,W,074816.793,V*37
$GPVTG,4.26,T,,M,62.7,N,116.2,K*67
$GPRMC,074818.793,V,4255.007,N,07702.502,W,51.1,4.36,190416,,E*47
$GPGGA,074819.793,4255.007,N,07702.502,W,0,00,,,M,,M,,*5B
$GPGLL,4255.007,N,07702.502,W,074820.793,V*31
$GPVTG,4.36,T,,M,51.1,N,94.6,K*5F
$GPRMC,074822.793,V,4255.007,N,07702.500,W,68.9,4.85,190416,,E*46
$GPGGA,074823.793,4255.007,N,07702.500,W,0,00,,,M,,M,,*50
$GPGLL,4255.007,N,07702.500,W,074824.793,V*37
$GPVTG,4.85,T,,M,68.9,N,127.5,K*6F
$GPRMC,074826.793,V,4255.008,N,07702.499,W,43.5,4.82,190416,,E*4E
$GPGGA,074827.793,4255.008,N,07702.499,W,0,00,,,M,,M,,*5A
$GPGLL,4255.008,N,07702.499,W,074828.793,V*35
$GPVTG,4.82,T,,M,43.5,N,80.5,K*51
$GPRMC,074830.793,V,4255.008,N,07702.497,W,22.5,4.78,190416,,E*45
$GPGGA,074831.793,4255.008,N,07702.497,W,0,00,,,M,,M,,*53
$GPGLL,4255.008,N,07702.497,W,074832.793,V*30
$GPVTG,4.78,T,,M,22.5,N,41.6,K*5D
$GPRMC,074834.793,V,4255.009,N,07702.495,W,47.8,4.74,190416,,E*40
$GPGGA,074835.793,4255.009,N,07702.495,W,0,00,,,M,,M,,*54
$GPGLL,4255.009,N,07702.495,W,074836.793,V*37
$GPVTG,4.74,T,,M,47.8,N,88.6,K*5A
$GPRMC,074838.793,V,4255.010,N,07702.493,W,49.0,4.75,190416,,E*45
$GPGGA,074839.793,4255.010,N,07702.493,W,0,00,,,M,,M,,*56
$GPGLL,4255.010,N,07702.493,W,074840.793,V*38
$GPVTG,4.75,T,,M,49.0,N,90.8,K*5A
$GPRMC,074842.793,V,4255.010,N,07702.492,W,39.0,4.76,190416,,E*4D
$GPGGA,074843.793,4255.010,N,07702.492,W,0,00,,,M,,M,,*5A
$GPGLL,4255.010,N,07702.492,W,074844.793,V*3D
$GPVTG,4.76,T,,M,39.0,N,72.2,K*58
$GPRMC,074846.793,V,4255.011,N,07702.490,W,18.8,4.70,190416,,E*47
$GPGGA,074847.793,4255.011,N,07702.490,W,0,00,,,M,,M,,*5D
$GPGLL,4255.011,N,07702.490,W,074848.793,V*32
$GPVTG,4.70,T,,M,18.8,N,34.8,K*5D
$GPRMC,074850.793,V,4255.012,N,07702.489,W,74.9,4.72,190416,,E*42
$GPGGA,074851.793,4255.012,N,07702.489,W,0,00,,,M,,M,,*51
$GPGLL,4255.012,N,07702.489,W,074852.793,V*32
$GPVTG,4.72,T,,M,74.9,N,138.7,K*66
$GPRMC,074854.793,V,4255.013,N,07702.487,W,31.2,4.64,190416,,E*44
$GPGGA,074855.793,4255.013,N,07702.487,W,0,00,,,M,,M,,*5A
$GPGLL,4255.013,N,07702.487,W,074856.793,V*39
$GPVTG,4.64,T,,M,31.2,N,57.8,K*5C
$GPRMC,074858.793,V,4255.014,N,07702.485,W,5.6,4.70,190416,,E*7B
$GPGGA,074859.793,4255.014,N,07702.485,W,0,00,,,M,,M,,*53
$GPGLL,4255.014,N,07702.485,W,074900.793,V*3E
$GPVTG,4.70,T,,M,5.6,N,10.4,K*65
$GPRMC,074902.793,V,4255.015,N,07702.484,W,95.4,4.64,190416,,E*4B
$GPGGA,074903.793,4255.015,N,07702.484,W,0,00,,,M,,M,,*5D
$GPGLL,4255.015,N,07702.484,W,074904.793,V*3A
$GPVTG,4.64,T,,M,95.4,N,176.7,K*69
$GPRMC,074906.793,V,4255.015,N,07702.482,W,78.9,4.75,190416,,E*47
$GPGGA,074907.793,4255.015,N,07702.482,W,0,00,,,M,,M,,*5F
$GPGLL,4255.015,N,07702.482,W,074908.793,V*30
$GPVTG,4.75,T,,M,78.9,N,146.0,K*63
$GPRMC,074910.793,V,4255.015,N,07702.481,W,75.5,5.05,190416,,E*44
$GPGGA,074911.793,4255.015,N,07702.481,W,0,00,,,M,,M,,*5B
$GPGLL,4255.015,N,07702.481,W,074912.793,V*38
$GPVTG,5.05,T,,M,75.5,N,139.8,K*64
$GPRMC,074914.793,V,4255.015,N,07702.479,W,83.8,4.91,190416,,E*4F
$GPGGA,074915.793,4255.015,N,07702.479,W,0,00,,,M,,M,,*58
$GPGLL,4255.015,N,07702.479,W,074916.793,V*3B
$GPVTG,4.91,T,,M,83.8,N,155.2,K*6C
$GPRMC,074918.793,V,4255.016,N,07702.477,W,54.9,4.85,190416,,E*40
$GPGGA,074919.793,4255.016,N,07702.477,W,0,00,,,M,,M,,*59
$GPGLL,4255.016,N,07702.477,W,074920.793,V*33
$GPVTG,4.85,T,,M,54.9,N,101.6,K*67
$GPRMC,074922.793,V,4255.016,N,07702.475,W,95.7,4.95,190416,,E*49
$GPGGA,074923.793,4255.016,N,07702.475,W,0,00,,,M,,M,,*52
$GPGLL,4255.016,N,07702.475,W,074924.793,V*35
$GPVTG,4.95,T,,M,95.7,N,177.3,K*61
$GPRMC,074926.793,V,4255.016,N,07702.473,W,37.2,4.92,190416,,E*41
$GPGGA,074927.793,4255.016,N,07702.473,W,0,00,,,M,,M,,*50
$GPGLL,4255.016,N,07702.473,W,074928.793,V*3F
$GPVTG,4.92,T,,M,37.2,N,69.0,K*56
$GPRMC,074930.793,V,4255.017,N,07702.472,W,13.7,4.71,190416,,E*48
$GPGGA,074931.793,4255.017,N,07702.472,W,0,00,,,M,,M,,*57
$GPGLL,4255.017,N,07702.472,W,074932.793,V*34
$GPVTG,4.71,T,,M,13.7,N,25.4,K*54
$GPRMC,074934.793,V,4255.018,N,07702.470,W,88.6,4.74,190416,,E*47
$GPGGA,074935.793,4255.018,N,07702.470,W,0,00,,,M,,M,,*5E
$GPGLL,4255.018,N,07702.470,W,074936.793,V*3D
$GPVTG,4.74,T,,M,88.6,N,164.1,K*63
$GPRMC,074938.793,V,4255.018,N,07702.469,W,98.6,4.69,190416,,E*4E
$GPGGA,074939.793,4255.018,N,07702.469,W,0,00,,,M,,M,,*5A
$GPGLL,4255.018,N,07702.469,W,074940.793,V*34
$GPVTG,4.69,T,,M,98.6,N,182.7,K*60
$GPRMC,074942.793,V,4255.019,N,07702.467,W,64.6,4.78,190416,,E*4F
$GPGGA,074943.793,4255.019,N,07702.467,W,0,00,,,M,,M,,*58
$GPGLL,4255.019,N,07702.467,W,074944.793,V*3F
$GPVTG,4.78,T,,M,64.6,N,119.7,K*61
$GPRMC,074946.793,V,4255.019,N,07702.465,W,84.7,4.88,190416,,E*49
$GPGGA,074947.793,4255.019,N,07702.465,W,0,00,,,M,,M,,*5E
$GPGLL,4255.019,N,07702.465,W,074948.793,V*31
$GPVTG,4.88,T,,M,84.7,N,156.8,K*65
$GPRMC,074950.793,V,4255.020,N,07702.463,W,82.6,4.96,190416,,E*4A
$GPGGA,074951.793,4255.020,N,07702.463,W,0,00,,,M,,M,,*55
$GPGLL,4255.020,N,07702.463,W,074952.793,V*36
$GPVTG,4.96,T,,M,82.6,N,153.0,K*60
$GPRMC,074954.793,V,4255.019,N,07702.461,W,83.8,5.04,190416,,E*43
$GPGGA,074955.793,4255.019,N,07702.461,W,0,00,,,M,,M,,*59
$GPGLL,4255.019,N,07702.461,W,074956.793,V*3A
$GPVTG,5.04,T,,M,83.8,N,155.3,K*60
$GPRMC,074958.793,V,4255.019,N,07702.460,W,50.8,5.13,190416,,E*46
$GPGGA,074959.793,4255.019,N,07702.460,W,0,00,,,M,,M,,*54
$GPGLL,4255.019,N,07702.460,W,075000.793,V*30
$GPVTG,5.13,T,,M,50.8,N,94.1,K*56
$GPRMC,075002.793,V,4255.018,N,07702.458,W,39.5,5.24,190416,,E*4D
$GPGGA,075003.793,4255.018,N,07702.458,W,0,00,,,M,,M,,*59
$GPGLL,4255.018,N,07702.458,W,075004.793,V*3E
$GPVTG,5.24,T,,M,39.5,N,73.1,K*59
$GPRMC,075006.793,V,4255.018,N,07702.456,W,4.4,5.28,190416,,E*74
$GPGGA,075007.793,4255.018,N,07702.456,W,0,00,,,M,,M,,*53
$GPGLL,4255.018,N,07702.456,W,075008.793,V*3C
$GPVTG,5.28,T,,M,4.4,N,8.2,K*55
$GPRMC,075010.793,V,4255.017,N,07702.455,W,78.6,5.21,190416,,E*4F
$GPGGA,075011.793,4255.017,N,07702.455,W,0,00,,,M,,M,,*58
$GPGLL,4255.017,N,07702.455,W,075012.793,V*3B
$GPVTG,5.21,T,,M,78.6,N,145.7,K*68
$GPRMC,075014.793,V,4255.017,N,07702.453,W,10.6,5.11,190416,,E*40
$GPGGA,075015.793,4255.017,N,07702.453,W,0,00,,,M,,M,,*5A
$GPGLL,4255.017,N,07702.453,W,075016.793,V*39
$GPVTG,5.11,T,,M,10.6,N,19.7,K*5D
$GPRMC,075018.793,V,4255.016,N,07702.452,W,83.3,5.43,190416,,E*44
$GPGGA,075019.793,4255.016,N,07702.452,W,0,00,,,M,,M,,*56
$GPGLL,4255.016,N,07702.452,W,075020.793,V*3C
$GPVTG,5.43,T,,M,83.3,N,154.3,K*69
$GPRMC,075022.793,V,4255.014,N,07702.450,W,11.2,5.45,190416,,E*41
$GPGGA,075023.793,4255.014,N,07702.450,W,0,00,,,M,,M,,*5F
$GPGLL,4255.014,N,07702.450,W,075024.793,V*38
$GPVTG,5.45,T,,M,11.2,N,20.7,K*53
$GPRMC,075026.793,V,4255.013,N,07702.449,W,5.7,5.38,190416,,E*70
$GPGGA,075027.793,4255.013,N,07702.449,W,0,00,,,M,,M,,*54
$GPGLL,4255.013,N,07702.449,W,075028.793,V*3B
$GPVTG,5.38,T,,M,5.7,N,10.6,K*6B
$GPRMC,075030.793,V,4255.012,N,07702.447,W,99.9,5.48,190416,,E*44
$GPGGA,075031.793,4255.012,N,07702.447,W,0,00,,,M,,M,,*5C
$GPGLL,4255.012,N,07702.447,W,075032.793,V*3F
$GPVTG,5.48,T,,M,99.9,N,185.0,K*6C
$GPRMC,075034.793,V,4255.011,N,07702.446,W,46.1,5.56,190416,,E*47
$GPGGA,075035.793,4255.011,N,07702.446,W,0,00,,,M,,M,,*5A
$GPGLL,4255.011,N,07702.446,W,075036.793,V*39
$GPVTG,5.56,T,,M,46.1,N,85.3,K*5B
$GPRMC,075038.793,V,4255.009,N,07702.445,W,12.7,5.62,190416,,E*41
$GPGGA,075039.793,4255.009,N,07702.445,W,0,00,,,M,,M,,*5C
$GPGLL,4255.009,N,07702.445,W,075040.793,V*32
$GPVTG,5.62,T,,M,12.7,N,23.5,K*51
$GPRMC,075042.793,V,4255.008,N,07702.444,W,71.8,5.58,190416,,E*4F
$GPGGA,075043.793,4255.008,N,07702.444,W,0,00,,,M,,M,,*51
$GPGLL,4255.008,N,07702.444,W,075044.793,V*36
$GPVTG,5.58,T,,M,71.8,N,132.9,K*6F
$GPRMC,075046.793,V,4255.006,N,07702.443,W,59.0,5.66,190416,,E*4D
$GPGGA,075047.793,4255.006,N,07702.443,W,0,00,,,M,,M,,*5C
$GPGLL,4255.006,N,07702.443,W,075048.793,V*33
$GPVTG,5.66,T,,M,59.0,N,109.3,K*62
$GPRMC,075050.793,V,4255.005,N,07702.442,W,72.3,5.67,190416,,E*43
$GPGGA,075051.793,4255.005,N,07702.442,W,0,00,,,M,,M,,*59
$GPGLL,4255.005,N,07702.442,W,075052.793,V*3A
$GPVTG,5.67,T,,M,72.3,N,133.9,K*6A
$GPRMC,075054.793,V,4255.004,N,07702.441,W,74.3,5.20,190416,,E*40
$GPGGA,075055.793,4255.004,N,07702.441,W,0,00,,,M,,M,,*5F
$GPGLL,4255.004,N,07702.441,W,075056.793,V*3C
$GPVTG,5.20,T,,M,74.3,N,137.5,K*67
$GPRMC,075058.793,V,4255.003,N,07702.439,W,62.9,5.25,190416,,E*4C
$GPGGA,075059.793,4255.003,N,07702.439,W,0,00,,,M,,M,,*5B
$GPGLL,4255.003,N,07702.439,W,075100.793,V*36
$GPVTG,5.25,T,,M,62.9,N,116.4,K*6D
$GPRMC,075102.793,V,4255.003,N,07702.437,W,51.7,5.26,190416,,E*41
$GPGGA,075103.793,4255.003,N,07702.437,W,0,00,,,M,,M,,*5B
$GPGLL,4255.003,N,07702.437,W,075104.793,V*3C
$GPVTG,5.26,T,,M,51.7,N,95.8,K*56
$GPRMC,075106.793,V,4255.002,N,07702.436,W,13.8,5.35,190416,,E*4E
$GPGGA,075107.793,4255.002,N,07702.436,W,0,00,,,M,,M,,*5F
$GPGLL,4255.002,N,07702.436,W,075108.793,V*30
$GPVTG,5.35,T,,M,13.8,N,25.5,K*5B
$GPRMC,075110.793,V,4255.001,N,07702.434,W,74.4,5.42,190416,,E*45
$GPGGA,075111.793,4255.001,N,07702.434,W,0,00,,,M,,M,,*59
$GPGLL,4255.001,N,07702.434,W,075112.793,V*3A
$GPVTG,5.42,T,,M,74.4,N,137.8,K*69
$GPRMC,075114.793,V,4255.000,N,07702.433,W,32.2,5.36,190416,,E*40
$GPGGA,075115.793,4255.000,N,07702.433,W,0,00,,,M,,M,,*5B
$GPGLL,4255.000,N,07702.433,W,075116.793,V*38
$GPVTG,5.36,T,,M,32.2,N,59.7,K*58
$GPRMC,075118.793,V,4254.999,N,07702.431,W,92.3,5.46,190416,,E*4A
$GPGGA,075119.793,4254.999,N,07702.431,W,0,00,,,M,,M,,*5D
$GPGLL,4254.999,N,07702.431,W,075120.793,V*37
$GPVTG,5.46,T,,M,92.3,N,171.0,K*68
$GPRMC,075122.793,V,4254.998,N,07702.430,W,83.4,5.39,190416,,E*4C
$GPGGA,075123.793,4254.998,N,07702.430,W,0,00,,,M,,M,,*54
$GPGLL,4254.998,N,07702.430,W,075124.793,V*33
$GPVTG,5.39,T,,M,83.4,N,154.5,K*65
$GPRMC,075126.793,V,4254.996,N,07702.429,W,18.8,5.43,190416,,E*4D
$GPGGA,075127.793,4254.996,N,07702.429,W,0,00,,,M,,M,,*56
$GPGLL,4254.996,N,07702.429,W,075128.793,V*39
$GPVTG,5.43,T,,M,18.8,N,34.9,K*5D
$GPRMC,075130.793,V,4254.995,N,07702.427,W,40.3,5.48,190416,,E*4A
$GPGGA,075131.793,4254.995,N,07702.427,W,0,00,,,M,,M,,*5C
$GPGLL,4254.995,N,07702.427,W,075132.793,V*3F
$GPVTG,5.48,T,,M,40.3,N,74.7,K*5A
$GPRMC,075134.793,V,4254.994,N,07702.426,W,87.2,5.53,190416,,E*4E
$GPGGA,075135.793,4254.994,N,07702.426,W,0,00,,,M,,M,,*58
$GPGLL,4254.994,N,07702.426,W,075136.793,V*3B
$GPVTG,5.53,T,,M,87.2,N,161.5,K*6D
$GPRMC,075138.793,V,4254.992,N,07702.425,W,64.9,5.57,190416,,E*45
$GPGGA,075139.793,4254.992,N,07702.425,W,0,00,,,M,,M,,*51
$GPGLL,4254.992,N,07702.425,W,075140.793,V*3F
$GPVTG,5.57,T,,M,64.9,N,120.2,K*6D
$GPRMC,075142.793,V,4254.992,N,07702.423,W,70.8,5.09,190416,,E*41
$GPGGA,075143.793,4254.992,N,07702.423,W,0,00,,,M,,M,,*5A
$GPGLL,4254.992,N,07702.423,W,075144.793,V*3D
$GPVTG,5.09,T,,M,70.8,N,131.1,K*61
$GPRMC,075146.793,V,4254.993,N,07702.421,W,93.2,4.74,190416,,E*4A
$GPGGA,075147.793,4254.993,N,07702.421,W,0,00,,,M,,M,,*5D
$GPGLL,4254.993,N,07702.421,W,075148.793,V*32
$GPVTG,4.74,T,,M,93.2,N,172.5,K*6E
$GPRMC,075150.793,V,4254.993,N,07702.420,W,2.9,4.79,190416,,E*72
$GPGGA,075151.793,4254.993,N,07702.420,W,0,00,,,M,,M,,*5B
$GPGLL,4254.993,N,07702.420,W,075152.793,V*38
$GPVTG,4.79,T,,M,2.9,N,5.5,K*51
$GPRMC,075154.793,V,4254.994,N,07702.418,W,79.7,4.86,190416,,E*48
$GPGGA,075155.793,4254.994,N,07702.418,W,0,00,,,M,,M,,*53
$GPGLL,4254.994,N,07702.418,W,075156.793,V*30
$GPVTG,4.86,T,,M,79.7,N,147.6,K*67
$GPRMC,075158.793,V,4254.993,N,07702.416,W,99.0,5.17,190416,,E*4D
$GPGGA,075159.793,4254.993,N,07702.416,W,0,00,,,M,,M,,*56
$GPGLL,4254.993,N,07702.416,W,075200.793,V*39
$GPVTG,5.17,T,,M,99.0,N,183.3,K*6A