$GPGSV,4,1,13,01,55,187,28,03,64,001,28,06,04,322,27,09,27,258,25*71
$GPGSV,4,2,13,11,29,189,23,17,11,278,27,26,10,097,25,31,22,043,25*77
$GPGSV,4,3,13,07,00,203,,16,04,125,,19,06,303,,22,53,082,*7D
$GPGSV,4,4,13,23,56,282,*41
$GLGSV,3,1,09,74,33,151,25,73,45,080,27,70,14,078,21,86,26,226,21*66
$GLGSV,3,2,09,88,05,333,21,87,30,291,19,72,33,319,26,80,11,029,*6F
$GLGSV,3,3,09,71,45,029,*50
$GPGGA,042156.0,3149.489149,N,03439.956603,E,1,05,1.0,19.9,M,19.0,M,,*61
$GNGNS,042156.0,3149.489149,N,03439.956603,E,AA,07,1.0,19.9,19.0,,*57
$GPVTG,189.1,T,186.2,M,0.5,N,1.0,K,A*2B
$GPRMC,042156.0,A,3149.489149,N,03439.956603,E,0.5,189.1,080416,2.9,E,A*01
$GPGSA,A,2,01,03,11,17,31,,,,,,,,1.3,1.0,0.9*3F
$GNGSA,A,2,01,03,11,17,31,,,,,,,,1.3,1.0,0.9*21
$GNGSA,A,2,72,74,,,,,,,,,,,1.3,1.0,0.9*21
$GPGSV,4,1,13,01,55,187,28,03,64,001,27,06,04,322,27,09,27,258,21*7A
$GPGSV,4,2,13,11,29,189,20,17,11,278,23,22,53,082,18,23,56,282,18*78
$GPGSV,4,3,13,26,10,097,24,31,22,043,24,07,00,203,,16,04,125,*71
$GPGSV,4,4,13,19,06,303,*45
$GLGSV,3,1,09,74,33,151,24,73,45,080,27,70,14,078,21,86,26,226,21*67
$GLGSV,3,2,09,88,05,333,23,87,30,291,18,72,33,319,23,80,11,029,*69
$GLGSV,3,3,09,71,45,029,*50
$GPGGA,042157.0,3149.489686,N,03439.955140,E,1,07,0.9,12.0,M,19.0,M,,*6F
$GNGNS,042157.0,3149.489686,N,03439.955140,E,AA,09,0.9,12.0,19.0,,*55
$GPVTG,189.1,T,186.2,M,0.0,N,0.0,K,A*2F
$GPRMC,042157.0,A,3149.489686,N,03439.955140,E,0.0,189.1,080416,2.9,E,A*02
$GPGSA,A,2,01,03,11,17,22,23,31,,,,,,1.2,0.9,0.8*36
$GNGSA,A,2,01,03,11,17,22,23,31,,,,,,1.2,0.9,0.8*28
$GNGSA,A,2,72,74,,,,,,,,,,,1.2,0.9,0.8*29
$GPGSV,4,1,13,01,55,187,29,03,64,001,27,06,04,322,27,09,27,258,21*7B
$GPGSV,4,2,13,11,29,189,21,17,11,278,24,22,53,082,17,23,56,282,17*7E
$GPGSV,4,3,13,26,10,097,24,31,22,043,25,07,00,203,,16,04,125,*70
$GPGSV,4,4,13,19,06,303,*45
$GLGSV,3,1,09,74,33,151,26,73,45,080,14,70,14,078,22,86,26,226,20*67
$GLGSV,3,2,09,88,05,333,24,87,30,291,19,72,33,319,23,80,11,029,*6F
$GLGSV,3,3,09,71,45,029,*50
$GPGGA,042158.0,3149.489668,N,03439.953732,E,1,07,0.9,11.6,M,19.0,M,,*60
$GNGNS,042158.0,3149.489668,N,03439.953732,E,AA,09,0.9,11.6,19.0,,*5A
$GPVTG,189.1,T,186.2,M,0.0,N,0.0,K,A*2F
$GPRMC,042158.0,A,3149.489668,N,03439.953732,E,0.0,189.1,080416,2.9,E,A*08
$GPGSA,A,2,01,03,11,17,22,23,31,,,,,,1.2,0.9,0.8*36
$GNGSA,A,2,01,03,11,17,22,23,31,,,,,,1.2,0.9,0.8*28
$GNGSA,A,2,72,74,,,,,,,,,,,1.2,0.9,0.8*29
$GPGSV,4,1,13,01,55,187,28,03,64,001,27,06,04,322,27,09,27,258,21*7A
$GPGSV,4,2,13,11,29,189,23,17,11,278,25,22,53,082,16,23,56,282,16*7D
$GPGSV,4,3,13,26,10,097,25,31,22,043,25,07,00,203,,16,04,125,*71
$GPGSV,4,4,13,19,06,303,*45
$GLGSV,3,1,09,74,33,151,27,73,45,080,14,70,14,078,21,86,26,226,24*61
$GLGSV,3,2,09,88,05,333,23,87,30,291,19,71,45,029,15,72,33,319,24*64
$GLGSV,3,3,09,80,11,029,*5F
$GPGGA,042159.0,3149.489667,N,03439.953441,E,1,07,0.9,10.2,M,19.0,M,,*6C
$GNGNS,042159.0,3149.489667,N,03439.953441,E,AA,09,0.9,10.2,19.0,,*56
$GPVTG,189.1,T,186.2,M,0.0,N,0.0,K,A*2F
$GPRMC,042159.0,A,3149.489667,N,03439.953441,E,0.0,189.1,080416,2.9,E,A*01
$GPGSA,A,2,01,03,11,17,22,23,31,,,,,,1.2,0.9,0.8*36
$GNGSA,A,2,01,03,11,17,22,23,31,,,,,,1.2,0.9,0.8*28
$GNGSA,A,2,72,74,,,,,,,,,,,1.2,0.9,0.8*29
$GPGSV,4,1,13,01,55,187,28,03,64,001,28,06,04,322,26,09,27,258,21*74
$GPGSV,4,2,13,11,29,189,25,17,11,278,25,22,53,082,16,23,56,282,15*78
$GPGSV,4,3,13,26,10,097,26,31,22,043,24,07,00,203,,16,04,125,*73
$GPGSV,4,4,13,19,06,303,*45
$GLGSV,3,1,09,74,33,151,27,73,45,080,14,70,14,078,21,86,26,226,25*60
$GLGSV,3,2,09,88,05,333,22,87,30,291,17,71,45,029,16,72,33,319,23*6F
$GLGSV,3,3,09,80,11,029,*5F
$GPGGA,042200.0,3149.490081,N,03439.952190,E,1,07,0.9,8.5,M,19.0,M,,*53
$GNGNS,042200.0,3149.490081,N,03439.952190,E,AA,09,0.9,8.5,19.0,,*69
$GPVTG,189.1,T,186.2,M,0.0,N,0.0,K,A*2F
$GPRMC,042200.0,A,3149.490081,N,03439.952190,E,0.0,189.1,080416,2.9,E,A*00
$GPGSA,A,2,01,03,11,17,22,23,31,,,,,,1.2,0.9,0.8*36
$GNGSA,A,2,01,03,11,17,22,23,31,,,,,,1.2,0.9,0.8*28
$GNGSA,A,2,72,74,,,,,,,,,,,1.2,0.9,0.8*29
