$GPGSA,A,1,,,,,,,,,,,,,,,*1E
$GPVTG,,T,,M,,N,,K,N*2C
$GPRMC,,V,,,,,,,,,,N*53
$GPGGA,,,,,,0,,,,,,,,*66
$GPGSV,3,1,11,01,12,177,,02,00,000,,03,58,115,,06,30,293,*7C
$GPGSV,3,2,11,07,38,216,,09,50,307,,16,25,085,,22,27,126,*74
$GPGSV,3,3,11,23,59,008,,26,16,056,,30,09,216,*43
$GLGSV,2,1,07,73,41,184,34,70,56,015,,86,11,289,,79,16,028,*64
$GLGSV,2,2,07,69,30,095,,85,06,240,,71,21,320,*5B
$GPGSA,A,1,,,,,,,,,,,,,,,*1E
$GPVTG,,T,,M,,N,,K,N*2C
$GPRMC,,V,,,,,,,,,,N*53
$GPGGA,,,,,,0,,,,,,,,*66
$GPGSA,A,1,,,,,,,,,,,,,,,*1E
$GPVTG,,T,,M,,N,,K,N*2C
$GPRMC,,V,,,,,,,,,,N*53
$GPGGA,,,,,,0,,,,,,,,*66
$GPGSV,3,1,11,03,58,115,36,07,38,216,25,23,59,008,28,26,16,056,24*72
$GPGSV,3,2,11,01,12,177,,02,00,000,,06,30,293,,09,50,307,*7C
$GPGSV,3,3,11,16,25,085,,22,27,126,,30,09,216,*4B
$GLGSV,2,1,07,73,41,184,37,70,56,015,31,69,30,095,28,86,11,289,*6C
$GLGSV,2,2,07,79,16,028,,85,06,240,,71,21,320,*58
$GPGSA,A,1,,,,,,,,,,,,,,,*1E
$GPVTG,,T,,M,,N,,K,N*2C
$GPRMC,,V,,,,,,,,,,N*53
$GPGGA,,,,,,0,,,,,,,,*66
$GPGSV,3,1,11,03,58,115,36,07,38,216,25,23,59,008,28,26,16,056,24*72
$GPGSV,3,2,11,01,12,177,,02,00,000,,06,30,293,,09,50,307,*7C
$GPGSV,3,3,11,16,25,085,,22,27,126,,30,09,216,*4B
$GLGSV,2,1,07,73,41,184,37,70,56,015,31,69,30,095,28,86,11,289,*6C
$GLGSV,2,2,07,79,16,028,,85,06,240,,71,21,320,*58
$GPGSA,A,1,,,,,,,,,,,,,,,*1E
$GPVTG,,T,,M,,N,,K,N*2C
$GPRMC,,V,,,,,,,,,,N*53
$GPGGA,,,,,,0,,,,,,,,*66
$GPGSV,3,1,11,03,58,115,37,07,38,216,26,09,50,307,33,16,25,085,25*7B
$GPGSV,3,2,11,23,59,008,28,26,16,056,25,01,12,177,,02,00,000,*71
$GPGSV,3,3,11,06,30,293,,22,27,126,,30,09,216,*4B
$GLGSV,2,1,07,73,41,184,37,70,56,015,32,86,11,289,29,79,16,028,26*69
$GLGSV,2,2,07,69,30,095,29,71,21,320,26,85,06,240,*54
$GPGSA,A,1,,,,,,,,,,,,,,,*1E
$GPVTG,,T,,M,,N,,K,N*2C
$GPRMC,,V,,,,,,,,,,N*53
$GPGGA,,,,,,0,,,,,,,,*66
$GPGSV,3,1,11,01,12,177,23,03,58,115,38,06,30,293,23,07,38,216,28*76
$GPGSV,3,2,11,09,50,307,33,16,25,085,28,22,27,126,24,23,59,008,29*7F
$GPGSV,3,3,11,26,16,056,23,02,00,000,,30,09,216,*45
$GLGSV,2,1,07,73,41,184,36,70,56,015,32,86,11,289,32,79,16,028,27*63
$GLGSV,2,2,07,69,30,095,29,71,21,320,23,85,06,240,*51
$GPGSA,A,1,,,,,,,,,,,,,,,*1E
$GPVTG,,T,,M,,N,,K,N*2C
$GPRMC,,V,,,,,,,,,,N*53
$GPGGA,,,,,,0,,,,,,,,*66
$GPGSV,3,1,11,01,12,177,27,03,58,115,39,06,30,293,28,07,38,216,23*73
$GPGSV,3,2,11,09,50,307,32,16,25,085,30,22,27,126,27,23,59,008,28*75
$GPGSV,3,3,11,26,16,056,27,02,00,000,,30,09,216,*41
$GLGSV,2,1,07,73,41,184,35,70,56,015,33,86,11,289,33,79,16,028,29*6E
$GLGSV,2,2,07,69,30,095,30,71,21,320,21,85,06,240,*5B
$GPGSA,A,3,01,03,06,07,09,16,22,23,26,,,,1.0,0.7,0.8*34
$GPVTG,91.6,T,91.6,M,48.6,N,90.0,K,A*20
$GPRMC,053039,A,3206.015896,N,03502.299658,E,48.6,91.6,140416,3.0,E,A*1F
$GPGGA,053039,3206.015896,N,03502.299658,E,1,09,0.7,220.0,M,19.0,M,,*41
$GPGSV,3,1,11,01,12,177,26,03,58,115,40,06,30,293,28,07,38,216,20*7F
$GPGSV,3,2,11,09,50,307,28,16,25,085,31,22,27,126,26,23,59,008,29*7F
$GPGSV,3,3,11,26,16,056,26,02,00,000,,30,09,216,*40
$GLGSV,2,1,07,73,41,184,35,70,56,015,34,86,11,289,34,79,16,028,27*60
$GLGSV,2,2,07,69,30,095,29,71,21,320,27,85,06,240,*55
$GPGSA,A,3,01,03,06,07,09,16,22,23,26,,,,1.0,0.7,0.8*34
$GPVTG,90.5,T,90.5,M,48.8,N,90.4,K,A*2A
$GPRMC,053040,A,3206.016417,N,03502.318296,E,48.8,90.5,140416,3.0,E,A*15
$GPGGA,053040,3206.016417,N,03502.318296,E,1,09,0.7,211.0,M,19.0,M,,*45
$GPGSV,3,1,11,01,12,177,27,03,58,115,40,06,30,293,31,07,38,216,20*76
$GPGSV,3,2,11,09,50,307,29,16,25,085,32,22,27,126,28,23,59,008,31*7A
$GPGSV,3,3,11,26,16,056,27,30,09,216,15,02,00,000,*45
$GLGSV,2,1,07,73,41,184,35,70,56,015,33,86,11,289,34,79,16,028,27*67
$GLGSV,2,2,07,69,30,095,28,71,21,320,30,85,06,240,*52
$GPGSA,A,3,01,03,06,07,09,16,22,23,26,30,,,1.0,0.7,0.8*37
$GPVTG,88.4,T,88.4,M,49.1,N,90.9,K,A*2F
$GPRMC,053041,A,3206.018857,N,03502.334898,E,49.1,88.4,140416,3.0,E,A*18
$GPGGA,053041,3206.018857,N,03502.334898,E,1,10,0.7,215.0,M,19.0,M,,*44
$GPGSV,3,1,11,01,12,177,27,03,58,115,40,06,30,293,32,07,38,216,28*7D
$GPGSV,3,2,11,09,50,307,33,16,25,085,33,22,27,126,26,23,59,008,32*7D
$GPGSV,3,3,11,26,16,056,28,30,09,216,21,02,00,000,*4D
$GLGSV,2,1,07,73,41,184,35,70,56,015,33,86,11,289,32,79,16,028,28*6E
$GLGSV,2,2,07,69,30,095,24,71,21,320,30,85,06,240,*5E
$GPGSA,A,3,01,03,06,07,09,16,22,23,26,30,,,1.0,0.6,0.7*39
$GPVTG,86.1,T,86.1,M,49.3,N,91.4,K,A*21
$GPRMC,053042,A,3206.021336,N,03502.351189,E,49.3,86.1,140416,3.0,E,A*1E
$GPGGA,053042,3206.021336,N,03502.351189,E,1,10,0.6,217.0,M,19.0,M,,*48
$GPGSV,3,1,11,01,12,177,27,03,58,115,39,06,30,293,34,07,38,216,30*7C
$GPGSV,3,2,11,09,50,307,36,16,25,085,35,22,27,126,18,23,59,008,34*75
$GPGSV,3,3,11,26,16,056,28,30,09,216,28,02,00,000,*44
$GLGSV,2,1,08,73,41,184,32,70,56,015,35,86,11,289,32,80,00,000,28*6B
$GLGSV,2,2,08,79,16,028,26,69,30,095,19,85,06,240,14,71,21,320,30*6D
$GPGSA,A,3,01,03,06,07,09,16,22,23,26,30,,,1.0,0.7,0.7*38
$GPVTG,83.8,T,83.8,M,49.5,N,91.6,K,A*25
$GPRMC,053043,A,3206.023197,N,03502.367085,E,49.5,83.8,140416,3.0,E,A*16
$GPGGA,053043,3206.023197,N,03502.367085,E,1,10,0.7,221.0,M,19.0,M,,*4E
$GPGSV,3,1,11,01,12,177,27,03,58,115,38,06,30,293,34,07,38,216,28*74
$GPGSV,3,2,11,09,50,307,36,16,25,085,33,22,27,126,19,23,59,008,35*73
$GPGSV,3,3,11,26,16,056,29,30,09,216,23,02,00,000,*4E
$GLGSV,2,1,08,73,41,184,31,70,56,015,36,86,11,289,33,80,00,000,27*65
$GLGSV,2,2,08,79,16,028,22,69,30,095,19,85,06,240,30,71,21,320,29*67
$GPGSA,A,3,01,03,06,07,09,16,22,23,26,30,,,1.0,0.7,0.7*38
$GPVTG,82.2,T,82.2,M,49.4,N,91.5,K,A*27
$GPRMC,053044,A,3206.024122,N,03502.382776,E,49.4,82.2,140416,3.0,E,A*12
$GPGGA,053044,3206.024122,N,03502.382776,E,1,10,0.7,222.0,M,19.0,M,,*43
$GPGSV,3,1,11,01,12,177,28,03,58,115,36,06,30,293,33,07,38,216,29*73
$GPGSV,3,2,11,09,50,307,34,16,25,085,33,22,27,126,29,23,59,008,36*71
$GPGSV,3,3,11,26,16,056,33,30,09,216,17,02,00,000,*42
$GLGSV,2,1,08,73,41,184,30,70,56,015,36,86,11,289,34,80,00,000,27*63
$GLGSV,2,2,08,79,16,028,22,69,30,095,15,85,06,240,30,71,21,320,27*65
$GPGSA,A,3,01,03,06,07,09,16,22,23,26,30,,,1.0,0.7,0.7*38
$GPVTG,80.3,T,80.3,M,49.5,N,91.7,K,A*24
$GPRMC,053045,A,3206.026321,N,03502.398515,E,49.5,80.3,140416,3.0,E,A*1E
$GPGGA,053045,3206.026321,N,03502.398515,E,1,10,0.7,225.0,M,19.0,M,,*4A
$GPGSV,3,1,11,01,12,177,27,03,58,115,35,06,30,293,28,07,38,216,31*7C
$GPGSV,3,2,11,09,50,307,32,16,25,085,33,22,27,126,33,23,59,008,36*7C
$GPGSV,3,3,11,26,16,056,34,30,09,216,26,02,00,000,*47
$GLGSV,2,1,08,73,41,184,27,70,56,015,37,86,11,289,36,80,00,000,27*66
$GLGSV,2,2,08,79,16,028,23,69,30,095,15,85,06,240,30,71,21,320,27*64
$GPGSA,A,3,01,03,06,07,09,16,22,23,26,30,,,1.0,0.6,0.7*39
$GPVTG,78.3,T,78.3,M,49.5,N,91.7,K,A*24
$GPRMC,053046,A,3206.029566,N,03502.414183,E,49.5,78.3,140416,3.0,E,A*18
$GPGGA,053046,3206.029566,N,03502.414183,E,1,10,0.6,225.0,M,19.0,M,,*4A
$GPGSV,3,1,11,01,12,177,26,03,58,115,35,06,30,293,30,07,38,216,32*77
$GPGSV,3,2,11,09,50,307,30,16,25,085,32,22,27,126,32,23,59,008,37*7F
$GPGSV,3,3,11,26,16,056,33,30,09,216,28,02,00,000,*4E
$GLGSV,2,1,08,73,41,184,33,70,56,015,37,86,11,289,36,80,00,000,23*67
$GLGSV,2,2,08,79,16,028,25,69,30,095,15,85,06,240,27,71,21,320,29*6A
$GPGSA,A,3,01,03,06,07,09,16,22,23,26,30,,,1.0,0.6,0.7*39
$GPVTG,76.4,T,76.4,M,49.5,N,91.6,K,A*25
$GPRMC,053047,A,3206.032447,N,03502.429757,E,49.5,76.4,140416,3.0,E,A*19
$GPGGA,053047,3206.032447,N,03502.429757,E,1,10,0.6,227.0,M,19.0,M,,*40
$GPGSV,3,1,11,01,12,177,24,03,58,115,36,06,30,293,32,07,38,216,31*77
$GPGSV,3,2,11,09,50,307,27,16,25,085,33,22,27,126,29,23,59,008,37*72
$GPGSV,3,3,11,26,16,056,27,30,09,216,24,02,00,000,*47
$GLGSV,2,1,08,73,41,184,36,70,56,015,36,86,11,289,35,80,00,000,20*63
$GLGSV,2,2,08,79,16,028,26,69,30,095,16,85,06,240,27,71,21,320,26*65
$GPGSA,A,3,01,03,06,07,09,16,22,23,26,30,,,1.0,0.7,0.7*38
$GPVTG,74.7,T,74.7,M,49.5,N,91.7,K,A*24
$GPRMC,053048,A,3206.035866,N,03502.445188,E,49.5,74.7,140416,3.0,E,A*11
$GPGGA,053048,3206.035866,N,03502.445188,E,1,10,0.7,229.0,M,19.0,M,,*46
$GPGSV,3,1,11,01,12,177,21,03,58,115,37,06,30,293,30,07,38,216,28*79
$GPGSV,3,2,11,09,50,307,23,16,25,085,31,22,27,126,30,23,59,008,38*73
$GPGSV,3,3,11,26,16,056,26,30,09,216,24,02,00,000,*46
$GLGSV,2,1,08,73,41,184,35,70,56,015,36,86,11,289,33,80,00,000,17*62
$GLGSV,2,2,08,79,16,028,23,69,30,095,21,85,06,240,18,71,21,320,23*6D
$GPGSA,A,3,01,03,06,07,09,16,22,23,26,30,,,1.0,0.6,0.7*39
$GPVTG,72.8,T,72.8,M,49.6,N,91.8,K,A*28
$GPRMC,053049,A,3206.040097,N,03502.460835,E,49.6,72.8,140416,3.0,E,A*16
$GPGGA,053049,3206.040097,N,03502.460835,E,1,10,0.6,230.0,M,19.0,M,,*42
$GPGSV,3,1,11,01,12,177,22,03,58,115,37,07,38,216,24,09,50,307,26*74
$GPGSV,3,2,11,16,25,085,30,22,27,126,32,23,59,008,38,26,16,056,28*73
$GPGSV,3,3,11,30,09,216,29,02,00,000,,06,30,293,*42
$GLGSV,2,1,08,73,41,184,33,70,56,015,36,86,11,289,31,80,00,000,18*69
$GLGSV,2,2,08,79,16,028,20,69,30,095,21,85,06,240,18,71,21,320,23*6E
$GPGSA,A,3,01,03,07,09,16,22,23,26,30,,,,1.0,0.7,0.7*3E
$GPVTG,71.4,T,71.4,M,49.8,N,92.2,K,A*2F
$GPRMC,053050,A,3206.044703,N,03502.476289,E,49.8,71.4,140416,3.0,E,A*1B
$GPGGA,053050,3206.044703,N,03502.476289,E,1,09,0.7,232.0,M,19.0,M,,*45
$GPGSV,3,1,11,01,12,177,19,03,58,115,36,07,38,216,29,09,50,307,29*7F
$GPGSV,3,2,11,16,25,085,27,22,27,126,33,23,59,008,39,26,16,056,31*7D
$GPGSV,3,3,11,30,09,216,33,02,00,000,,06,30,293,*49
$GLGSV,2,1,08,73,41,184,31,70,56,015,36,86,11,289,28,80,00,000,17*6C
$GLGSV,2,2,08,79,16,028,19,69,30,095,16,85,06,240,18,71,21,320,25*66
$GPGSA,A,3,01,03,07,09,16,22,23,26,30,,,,1.1,0.8,0.8*3F
$GPVTG,69.6,T,69.6,M,50.1,N,92.7,K,A*2B
$GPRMC,053051,A,3206.049258,N,03502.491388,E,50.1,69.6,140416,3.0,E,A*1F
$GPGGA,053051,3206.049258,N,03502.491388,E,1,09,0.8,232.0,M,19.0,M,,*44
$GPGSV,3,1,11,01,12,177,19,03,58,115,38,06,30,293,29,07,38,216,33*7F
$GPGSV,3,2,11,09,50,307,27,16,25,085,28,22,27,126,34,23,59,008,39*7A
$GPGSV,3,3,11,26,16,056,31,30,09,216,33,02,00,000,*46
$GLGSV,2,1,08,73,41,184,28,70,56,015,36,86,11,289,23,80,00,000,21*6A
$GLGSV,2,2,08,79,16,028,24,69,30,095,16,85,06,240,22,71,21,320,25*61
$GPGSA,A,3,01,03,06,07,09,16,22,23,26,30,,,1.0,0.7,0.7*38
$GPVTG,68.4,T,68.4,M,50.1,N,92.7,K,A*2B
$GPRMC,053052,A,3206.053860,N,03502.506075,E,50.1,68.4,140416,3.0,E,A*1B
$GPGGA,053052,3206.053860,N,03502.506075,E,1,10,0.7,234.0,M,19.0,M,,*42
$GPGSV,3,1,11,01,12,177,15,03,58,115,37,06,30,293,29,07,38,216,35*7A
$GPGSV,3,2,11,09,50,307,27,16,25,085,27,22,27,126,35,23,59,008,40*7A
$GPGSV,3,3,11,26,16,056,31,30,09,216,31,02,00,000,*44
$GLGSV,2,1,08,73,41,184,28,70,56,015,35,86,11,289,18,80,00,000,23*63
$GLGSV,2,2,08,79,16,028,23,69,30,095,20,85,06,240,28,71,21,320,29*65
$GPGSA,A,3,01,03,06,07,09,16,22,23,26,30,,,1.0,0.7,0.7*38
$GPVTG,67.3,T,67.3,M,50.2,N,93.0,K,A*2E
$GPRMC,053053,A,3206.059288,N,03502.521035,E,50.2,67.3,140416,3.0,E,A*16
$GPGGA,053053,3206.059288,N,03502.521035,E,1,10,0.7,235.0,M,19.0,M,,*45
$GPGSV,3,1,11,01,12,177,19,03,58,115,37,06,30,293,28,07,38,216,33*71
$GPGSV,3,2,11,09,50,307,27,16,25,085,26,22,27,126,33,23,59,008,41*7C
$GPGSV,3,3,11,26,16,056,29,30,09,216,31,02,00,000,*4D
$GLGSV,2,1,08,73,41,184,27,70,56,015,34,86,11,289,19,80,00,000,22*6D
$GLGSV,2,2,08,79,16,028,25,69,30,095,17,85,06,240,25,71,21,320,30*62
$GPGSA,A,3,01,03,06,07,09,16,22,23,26,30,,,1.0,0.7,0.7*38
$GPVTG,66.7,T,66.7,M,50.8,N,94.0,K,A*23
$GPRMC,053054,A,3206.064628,N,03502.536037,E,50.8,66.7,140416,3.0,E,A*1A
$GPGGA,053054,3206.064628,N,03502.536037,E,1,10,0.7,236.0,M,19.0,M,,*45
$GPGSV,3,1,11,01,12,177,19,03,58,115,38,06,30,293,30,07,38,216,32*76
$GPGSV,3,2,11,09,50,307,21,16,25,085,27,22,27,126,36,23,59,008,41*7E
$GPGSV,3,3,11,26,16,056,30,30,09,216,29,02,00,000,*4C
$GLGSV,2,1,08,73,41,184,26,70,56,015,34,86,11,289,20,80,00,000,20*64
$GLGSV,2,2,08,79,16,028,23,69,30,095,17,85,06,240,25,71,21,320,30*64
$GPGSA,A,3,01,03,06,07,09,16,22,23,26,30,,,1.0,0.7,0.7*38
$GPVTG,66.7,T,66.7,M,51.3,N,95.0,K,A*28
$GPRMC,053055,A,3206.069955,N,03502.551003,E,51.3,66.7,140416,3.0,E,A*1F
$GPGGA,053055,3206.069955,N,03502.551003,E,1,10,0.7,237.0,M,19.0,M,,*4B
$GPGSV,3,1,11,01,12,177,16,03,58,115,37,06,30,293,29,07,38,216,33*7F
$GPGSV,3,2,11,09,50,307,23,16,25,085,27,22,27,126,34,23,59,008,41*7E
$GPGSV,3,3,11,26,16,056,31,30,09,216,29,02,00,000,*4D
$GLGSV,2,1,08,73,41,184,27,70,56,015,35,86,11,289,22,80,00,000,22*64
$GLGSV,2,2,08,79,16,028,21,69,30,095,16,85,06,240,25,71,21,320,32*65
$GPGSA,A,3,01,03,06,07,09,16,22,23,26,30,,,1.0,0.7,0.7*38
$GPVTG,67.2,T,67.2,M,51.9,N,96.0,K,A*21
$GPRMC,053056,A,3206.075696,N,03502.566733,E,51.9,67.2,140416,3.0,E,A*1F
$GPGGA,053056,3206.075696,N,03502.566733,E,1,10,0.7,238.0,M,19.0,M,,*4A
$GPGSV,3,1,11,01,12,177,16,03,58,115,36,06,30,293,29,07,38,216,36*7B
$GPGSV,3,2,11,09,50,307,30,16,25,085,29,22,27,126,33,23,59,008,41*75
$GPGSV,3,3,11,26,16,056,30,30,09,216,32,02,00,000,*46
$GLGSV,2,1,08,73,41,184,27,70,56,015,36,86,11,289,21,80,00,000,22*64
$GLGSV,2,2,08,79,16,028,21,69,30,095,18,85,06,240,28,71,21,320,33*67
$GPGSA,A,3,01,03,06,07,09,16,22,23,26,30,,,1.0,0.7,0.7*38
$GPVTG,67.3,T,67.3,M,52.4,N,97.0,K,A*2E
$GPRMC,053057,A,3206.081292,N,03502.582416,E,52.4,67.3,140416,3.0,E,A*14
$GPGGA,053057,3206.081292,N,03502.582416,E,1,10,0.7,240.0,M,19.0,M,,*41
$GPGSV,3,1,11,01,12,177,19,03,58,115,36,06,30,293,28,07,38,216,36*75
$GPGSV,3,2,11,09,50,307,31,16,25,085,31,22,27,126,36,23,59,008,41*78
$GPGSV,3,3,11,26,16,056,31,30,09,216,30,02,00,000,*45
$GLGSV,2,1,08,73,41,184,27,70,56,015,36,86,11,289,25,80,00,000,22*60
$GLGSV,2,2,08,79,16,028,19,69,30,095,18,85,06,240,29,71,21,320,34*6A
$GPGSA,A,3,01,03,06,07,09,16,22,23,26,30,,,1.0,0.7,0.8*37
$GPVTG,67.3,T,67.3,M,52.9,N,97.9,K,A*2A
$GPRMC,053058,A,3206.086860,N,03502.598466,E,52.9,67.3,140416,3.0,E,A*1A
$GPGGA,053058,3206.086860,N,03502.598466,E,1,10,0.7,241.0,M,19.0,M,,*43
$GPGSV,3,1,11,01,12,177,19,03,58,115,36,06,30,293,28,07,38,216,36*75
$GPGSV,3,2,11,09,50,307,33,16,25,085,29,22,27,126,35,23,59,008,41*70
$GPGSV,3,3,11,26,16,056,31,30,09,216,26,02,00,000,*42
$GLGSV,2,1,08,73,41,184,27,70,56,015,36,86,11,289,21,80,00,000,22*64
$GLGSV,2,2,08,79,16,028,18,69,30,095,14,85,06,240,28,71,21,320,33*61
$GPGSA,A,3,01,03,06,07,09,16,22,23,26,30,,,1.0,0.7,0.8*37
$GPVTG,67.3,T,67.3,M,53.3,N,98.7,K,A*20
$GPRMC,053059,A,3206.092612,N,03502.614612,E,53.3,67.3,140416,3.0,E,A*18
$GPGGA,053059,3206.092612,N,03502.614612,E,1,10,0.7,242.0,M,19.0,M,,*49
$GPGSV,3,1,12,01,12,177,21,03,58,115,36,04,00,000,30,06,30,293,27*79
$GPGSV,3,2,12,07,38,216,36,09,50,307,32,16,25,085,30,22,27,126,35*76
$GPGSV,3,3,12,23,59,008,41,26,16,056,32,30,09,216,31,02,00,000,*74
$GLGSV,2,1,08,73,41,184,27,70,56,015,36,86,11,289,21,80,00,000,23*65
$GLGSV,2,2,08,79,16,028,19,69,30,095,20,85,06,240,28,71,21,320,34*60
$GPGSA,A,3,01,03,06,07,09,16,22,23,26,30,,,1.0,0.7,0.8*37
$GPVTG,67.3,T,67.3,M,53.8,N,99.6,K,A*2B
$GPRMC,053100,A,3206.098390,N,03502.630808,E,53.8,67.3,140416,3.0,E,A*18
$GPGGA,053100,3206.098390,N,03502.630808,E,1,10,0.7,242.0,M,19.0,M,,*42
$GPGSV,3,1,12,01,12,177,24,03,58,115,36,04,00,000,32,06,30,293,27*7E
$GPGSV,3,2,12,07,38,216,35,09,50,307,30,16,25,085,27,22,27,126,37*73
$GPGSV,3,3,12,23,59,008,41,26,16,056,31,30,09,216,31,02,00,000,*77
$GLGSV,2,1,08,73,41,184,25,70,56,015,36,86,11,289,19,80,00,000,22*6D
$GLGSV,2,2,08,79,16,028,18,69,30,095,18,85,06,240,30,71,21,320,34*63
$GPGSA,A,3,01,03,04,06,07,09,16,22,23,26,30,,1.0,0.7,0.8*33
$GPVTG,67.3,T,67.3,M,54.2,N,100.4,K,A*15
$GPRMC,053101,A,3206.104336,N,03502.647034,E,54.2,67.3,140416,3.0,E,A*1B
$GPGGA,053101,3206.104336,N,03502.647034,E,1,11,0.7,243.0,M,19.0,M,,*4C
$GPGSV,3,1,12,01,12,177,24,03,58,115,36,04,00,000,32,06,30,293,26*7F
$GPGSV,3,2,12,07,38,216,35,09,50,307,30,16,25,085,27,22,26,126,36*73
$GPGSV,3,3,12,23,59,009,41,26,16,056,31,30,09,216,32,02,00,000,*75
$GLGSV,2,1,08,73,41,184,24,70,56,015,36,86,11,289,19,80,00,000,20*6E
$GLGSV,2,2,08,79,16,028,19,69,30,095,18,85,06,240,30,71,21,320,34*62
$GPGSA,A,3,01,03,04,06,07,09,16,22,23,26,30,,1.0,0.7,0.8*33
$GPVTG,67.4,T,67.4,M,54.4,N,100.8,K,A*1F
$GPRMC,053102,A,3206.110061,N,03502.663432,E,54.4,67.4,140416,3.0,E,A*19
$GPGGA,053102,3206.110061,N,03502.663432,E,1,11,0.7,244.0,M,19.0,M,,*48
$GPGSV,3,1,12,01,12,177,26,03,58,115,36,04,00,000,33,06,30,293,27*7D
$GPGSV,3,2,12,07,38,216,35,09,50,307,30,16,25,085,25,22,26,126,35*72
$GPGSV,3,3,12,23,59,009,41,26,16,056,30,30,09,216,31,02,00,000,*77
$GLGSV,1,1,0,*79
$GPGSA,A,3,01,03,04,06,07,09,16,22,23,26,30,,1.2,0.8,0.8*3E
$GPVTG,67.7,T,67.7,M,54.3,N,100.7,K,A*17
$GPRMC,053103,A,3206.115573,N,03502.679577,E,54.3,67.7,140416,3.0,E,A*14
$GPGGA,053103,3206.115573,N,03502.679577,E,1,11,0.8,246.0,M,19.0,M,,*4C
$GPGSV,3,1,11,03,58,115,36,04,00,000,30,06,30,293,26,07,38,216,35*74
$GPGSV,3,2,11,09,50,307,30,16,25,085,30,22,26,126,35,23,59,009,40*7A
$GPGSV,3,3,11,26,16,056,31,30,09,216,31,02,00,000,*44
$GLGSV,1,1,0,*79
$GPGSA,A,3,03,04,06,07,09,16,22,23,26,30,,,1.2,0.9,0.8*3E
$GPVTG,68.4,T,68.4,M,54.7,N,101.4,K,A*11
$GPRMC,053104,A,3206.121256,N,03502.695996,E,54.7,68.4,140416,3.0,E,A*1D
$GPGGA,053104,3206.121256,N,03502.695996,E,1,10,0.9,246.0,M,19.0,M,,*4D
$GPGSV,3,1,12,03,58,115,36,04,00,000,30,06,30,293,26,07,38,216,33*71
$GPGSV,3,2,12,09,50,307,29,16,25,085,30,22,26,126,34,23,59,009,40*70
$GPGSV,3,3,12,26,16,056,31,30,09,216,29,01,12,177,,02,00,000,*7D
$GLGSV,1,1,0,*79
$GPGSA,A,3,03,04,06,07,09,16,22,23,26,30,,,1.2,0.9,0.8*3E
$GPVTG,69.3,T,69.3,M,54.4,N,100.8,K,A*1F
$GPRMC,053105,A,3206.126563,N,03502.712401,E,54.4,69.3,140416,3.0,E,A*12
$GPGGA,053105,3206.126563,N,03502.712401,E,1,10,0.9,247.0,M,19.0,M,,*46
$GPGSV,3,1,11,03,58,115,37,04,00,000,25,07,38,216,32,09,50,307,28*7D
$GPGSV,3,2,11,16,25,085,31,22,26,126,32,23,59,009,40,26,16,056,32*76
$GPGSV,3,3,11,30,09,216,28,01,12,177,,02,00,000,*4D
$GLGSV,1,1,0,*79
$GPGSA,A,3,03,04,07,09,16,22,23,26,30,,,,1.3,1.0,0.8*31
$GPVTG,71.6,T,71.6,M,55.5,N,102.8,K,A*1D
$GPRMC,053106,A,3206.131489,N,03502.729486,E,55.5,71.6,140416,3.0,E,A*19
$GPGGA,053106,3206.131489,N,03502.729486,E,1,09,1.0,248.0,M,19.0,M,,*4E
$GPGSV,3,1,10,01,12,177,27,03,58,115,39,04,00,000,24,06,30,293,24*74
$GPGSV,3,2,10,07,38,216,29,16,25,085,31,22,26,126,30,23,59,009,39*78
$GPGSV,3,3,10,26,16,056,32,02,00,000,*7B
$GLGSV,1,1,0,*79
$GPGSA,A,3,01,03,04,06,07,16,22,23,26,,,,1.3,0.9,0.9*35
$GPVTG,74.1,T,74.1,M,55.0,N,101.9,K,A*1A
$GPRMC,053107,A,3206.135883,N,03502.746915,E,55.0,74.1,140416,3.0,E,A*13
$GPGGA,053107,3206.135883,N,03502.746915,E,1,09,0.9,249.0,M,19.0,M,,*4A
$GPGSV,3,1,11,01,12,177,27,03,58,115,40,06,30,293,27,07,38,216,29*78
$GPGSV,3,2,11,09,50,307,24,16,25,085,33,22,26,126,32,23,59,009,38*74
$GPGSV,3,3,11,26,16,056,32,30,09,216,26,02,00,000,*41
$GLGSV,1,1,0,*79
$GPGSA,A,3,01,03,06,07,09,16,22,23,26,30,,,1.2,0.8,0.8*3A
$GPVTG,77.2,T,77.2,M,55.1,N,102.1,K,A*10
$GPRMC,053108,A,3206.139603,N,03502.764583,E,55.1,77.2,140416,3.0,E,A*14
$GPGGA,053108,3206.139603,N,03502.764583,E,1,10,0.8,250.0,M,19.0,M,,*4D
$GPGSV,3,1,12,01,12,177,29,03,58,115,40,04,00,000,24,06,30,293,29*7B
$GPGSV,3,2,12,07,38,216,32,09,50,307,31,16,25,085,34,22,26,126,27*77
$GPGSV,3,3,12,23,59,009,38,26,16,056,29,30,09,216,29,02,00,000,*78
$GLGSV,1,1,0,*79
$GPGSA,A,3,01,03,04,06,07,09,16,22,23,26,30,,1.2,0.8,0.8*3E
$GPVTG,79.4,T,79.4,M,55.2,N,102.2,K,A*10
$GPRMC,053109,A,3206.142673,N,03502.782391,E,55.2,79.4,140416,3.0,E,A*18
$GPGGA,053109,3206.142673,N,03502.782391,E,1,11,0.8,251.0,M,19.0,M,,*4A
$GPGSV,3,1,11,01,12,177,25,03,58,115,39,04,00,000,28,06,30,293,33*7D
$GPGSV,3,2,11,07,38,216,32,09,50,307,33,16,25,085,34,23,59,009,37*72
$GPGSV,3,3,11,26,16,056,29,30,09,216,30,02,00,000,*4C
$GLGSV,1,1,0,*79
$GPGSA,A,3,01,03,04,06,07,09,16,23,26,30,,,1.2,0.9,0.8*3F
$GPVTG,81.1,T,81.1,M,55.6,N,103.0,K,A*17
$GPRMC,053110,A,3206.144957,N,03502.800256,E,55.6,81.1,140416,3.0,E,A*16
$GPGGA,053110,3206.144957,N,03502.800256,E,1,10,0.9,252.0,M,19.0,M,,*41
$GPGSV,3,1,11,03,58,115,38,04,00,000,28,06,30,293,35,07,38,216,31*75
$GPGSV,3,2,11,09,50,307,33,16,25,085,33,22,26,126,26,23,59,009,37*78
$GPGSV,3,3,11,26,16,056,30,30,09,216,27,02,00,000,*42
$GLGSV,1,1,0,*79
$GPGSA,A,3,03,04,06,07,09,16,22,23,26,30,,,1.2,0.9,0.8*3E
$GPVTG,82.3,T,82.3,M,55.9,N,103.5,K,A*1D
$GPRMC,053111,A,3206.147251,N,03502.818687,E,55.9,82.3,140416,3.0,E,A*16
$GPGGA,053111,3206.147251,N,03502.818687,E,1,10,0.9,253.0,M,19.0,M,,*4E
$GPGSV,3,1,10,03,58,115,37,04,00,000,23,06,30,293,35,07,38,216,29*79
$GPGSV,3,2,10,09,50,307,37,16,25,085,31,23,59,009,37,26,16,056,31*78
$GPGSV,3,3,10,01,12,177,,02,00,000,*79
$GLGSV,1,1,0,*79
$GPGSA,A,3,03,04,06,07,09,16,23,26,,,,,1.5,1.2,0.9*31
$GPVTG,84.8,T,84.8,M,56.0,N,103.7,K,A*15
$GPRMC,053112,A,3206.148856,N,03502.836996,E,56.0,84.8,140416,3.0,E,A*13
$GPGGA,053112,3206.148856,N,03502.836996,E,1,08,1.2,254.0,M,19.0,M,,*48
$GPGSV,3,1,12,03,58,115,36,04,00,000,26,06,30,293,33,07,38,216,24*74
$GPGSV,3,2,12,09,50,307,35,16,25,085,29,23,59,009,34,26,16,056,30*73
$GPGSV,3,3,12,01,12,177,,02,00,000,,22,26,126,,30,09,216,*75
$GLGSV,1,1,0,*79
$GPGSA,A,3,03,04,06,07,09,16,23,26,,,,,1.5,1.2,0.9*31
$GPVTG,87.4,T,87.4,M,55.4,N,102.7,K,A*13
$GPRMC,053113,A,3206.149907,N,03502.854873,E,55.4,87.4,140416,3.0,E,A*10
$GPGGA,053113,3206.149907,N,03502.854873,E,1,08,1.2,255.0,M,19.0,M,,*42
$GPGSV,3,1,11,03,58,115,36,06,30,293,32,07,38,216,26,09,50,307,35*7A
$GPGSV,3,2,11,16,25,085,27,23,59,009,31,26,16,056,33,01,12,177,*75
$GPGSV,3,3,11,02,00,000,,22,26,126,,30,09,216,*45
$GLGSV,1,1,0,*79
$GPGSA,A,3,03,06,07,09,16,23,26,,,,,,1.5,1.2,0.9*35
$GPVTG,88.3,T,88.3,M,55.2,N,102.3,K,A*11
$GPRMC,053114,A,3206.150249,N,03502.872970,E,55.2,88.3,140416,3.0,E,A*16
$GPGGA,053114,3206.150249,N,03502.872970,E,1,07,1.2,256.0,M,19.0,M,,*46
$GPGSV,3,1,12,03,58,115,35,04,00,000,30,06,30,293,28,07,38,216,30*7F
$GPGSV,3,2,12,09,50,307,33,16,25,085,29,23,59,009,26,26,16,056,30*76
$GPGSV,3,3,12,01,12,177,,02,00,000,,22,26,126,,30,09,216,*75
$GLGSV,1,1,0,*79
$GPGSA,A,3,03,04,06,07,09,16,23,26,,,,,1.5,1.2,0.9*31
$GPVTG,90.6,T,90.6,M,56.0,N,103.7,K,A*15
$GPRMC,053115,A,3206.150278,N,03502.891315,E,56.0,90.6,140416,3.0,E,A*1C
$GPGGA,053115,3206.150278,N,03502.891315,E,1,08,1.2,258.0,M,19.0,M,,*40
$GPGSV,3,1,12,03,58,115,35,04,00,000,30,06,30,293,28,07,38,216,30*7F
$GPGSV,3,2,12,09,50,307,33,16,25,085,29,23,59,009,26,26,16,056,30*76
$GPGSV,3,3,12,01,12,177,,02,00,000,,22,26,126,,30,09,216,*75
$GLGSV,1,1,0,*79
$GPGSA,A,3,03,04,06,07,09,16,23,26,,,,,1.5,1.2,0.9*31
$GPVTG,90.6,T,90.6,M,56.0,N,103.7,K,A*15
$GPRMC,053116,A,3206.150121,N,03502.909630,E,56.0,90.6,140416,3.0,E,A*12
$GPGGA,053116,3206.150121,N,03502.909630,E,1,08,1.2,258.0,M,19.0,M,,*4E
$GPGSV,3,1,11,03,58,115,32,04,00,000,25,06,30,293,21,07,38,216,29*7E
$GPGSV,3,2,11,09,50,307,25,16,25,085,25,22,26,126,25,23,59,009,28*75
$GPGSV,3,3,11,01,12,177,,02,00,000,,30,09,216,*47
$GLGSV,1,1,0,*79
$GPGSA,A,3,03,04,06,07,09,16,22,23,,,,,1.5,1.2,0.9*35
$GPVTG,94.5,T,94.5,M,56.1,N,103.9,K,A*1A
$GPRMC,053117,A,3206.148476,N,03502.926528,E,56.1,94.5,140416,3.0,E,A*1C
$GPGGA,053117,3206.148476,N,03502.926528,E,1,08,1.2,258.0,M,19.0,M,,*46
$GPGSV,3,1,12,03,58,115,31,04,00,000,28,06,30,293,21,07,38,216,34*7F
$GPGSV,3,2,12,09,50,307,33,16,25,085,24,22,26,126,21,23,59,009,33*7E
$GPGSV,3,3,12,26,16,056,22,01,12,177,,02,00,000,,30,09,216,*74
$GLGSV,1,1,0,*79
$GPGSA,A,3,03,04,06,07,09,16,22,23,26,,,,1.4,1.0,0.9*32
$GPVTG,97.2,T,97.2,M,56.3,N,104.2,K,A*14
$GPRMC,053118,A,3206.146629,N,03502.945070,E,56.3,97.2,140416,3.0,E,A*1E
$GPGGA,053118,3206.146629,N,03502.945070,E,1,09,1.0,258.0,M,19.0,M,,*41
$GPGSV,3,1,12,03,58,115,31,04,00,000,29,06,30,293,21,07,38,216,34*7E
$GPGSV,3,2,12,09,50,307,35,16,25,085,28,22,26,126,22,23,59,009,33*77
$GPGSV,3,3,12,26,16,056,24,01,12,177,,02,00,000,,30,09,216,*72
$GLGSV,2,1,07,73,41,184,36,70,56,015,21,86,11,289,28,79,16,028,28*65
$GLGSV,2,2,07,69,30,095,25,71,21,320,23,85,06,240,*5D
$GPGSA,A,3,03,04,06,07,09,16,22,23,26,,,,1.1,0.7,0.8*30
$GPVTG,97.6,T,97.6,M,56.1,N,104.0,K,A*14
$GPRMC,053119,A,3206.144224,N,03502.963261,E,56.1,97.6,140416,3.0,E,A*14
$GPGGA,053119,3206.144224,N,03502.963261,E,1,09,0.7,258.0,M,19.0,M,,*4B
$GPGSV,3,1,12,03,58,115,30,04,00,000,29,06,30,293,18,07,38,216,36*77
$GPGSV,3,2,12,09,50,307,35,16,25,085,30,22,26,126,22,23,59,009,34*79
$GPGSV,3,3,12,26,16,056,20,01,12,177,,02,00,000,,30,09,216,*76
$GLGSV,2,1,07,73,41,184,35,70,56,015,27,86,11,289,24,79,16,028,26*62
$GLGSV,2,2,07,69,30,095,24,71,21,320,20,85,06,240,*5F
$GPGSA,A,3,03,04,06,07,09,16,22,23,26,,,,1.1,0.8,0.8*3F
$GPVTG,100.3,T,100.3,M,56.1,N,104.0,K,A*14
$GPRMC,053120,A,3206.141040,N,03502.981878,E,56.1,100.3,140416,3.0,E,A*2F
$GPGGA,053120,3206.141040,N,03502.981878,E,1,09,0.8,259.0,M,19.0,M,,*44
$GPGSV,3,1,12,01,12,177,19,03,58,115,31,04,00,000,26,06,30,293,21*74
$GPGSV,3,2,12,07,38,216,36,09,50,307,34,16,25,085,33,22,26,126,22*74
$GPGSV,3,3,12,23,59,009,34,26,16,056,20,30,09,216,20,02,00,000,*74
$GLGSV,2,1,07,73,41,184,36,70,56,015,31,86,11,289,28,79,16,028,26*6A
$GLGSV,2,2,07,69,30,095,24,85,06,240,20,71,21,320,20*5D
$GPGSA,A,3,01,03,04,06,07,09,16,22,23,26,30,,1.1,0.8,0.8*3D
$GPVTG,101.8,T,101.8,M,56.2,N,104.1,K,A*16
$GPRMC,053121,A,3206.138013,N,03503.000142,E,56.2,101.8,140416,3.0,E,A*2E
$GPGGA,053121,3206.138013,N,03503.000142,E,1,11,0.8,260.0,M,19.0,M,,*4F
$GPGSV,3,1,12,01,12,177,20,03,58,115,31,04,00,000,26,06,30,293,23*7C
$GPGSV,3,2,12,07,38,216,34,09,50,307,32,16,25,085,35,22,26,126,27*73
$GPGSV,3,3,12,23,59,009,33,26,16,056,24,30,09,216,28,02,00,000,*7F
$GLGSV,2,1,07,73,41,184,35,70,56,015,33,86,11,289,27,79,16,028,26*64
$GLGSV,2,2,07,69,30,095,22,85,06,240,21,71,21,320,26*5C
$GPGSA,A,3,01,03,04,06,07,09,16,22,23,26,30,,0.9,0.6,0.7*35
$GPVTG,103.1,T,103.1,M,56.4,N,104.5,K,A*14
$GPRMC,053122,A,3206.134261,N,03503.018177,E,56.4,103.1,140416,3.0,E,A*24
$GPGGA,053122,3206.134261,N,03503.018177,E,1,11,0.6,261.0,M,19.0,M,,*47
$GPGSV,3,1,12,01,12,177,26,03,58,115,32,04,00,000,27,06,30,293,26*7D
$GPGSV,3,2,12,07,38,216,33,09,50,307,28,16,25,085,34,22,26,126,30*78
$GPGSV,3,3,12,23,59,009,31,26,16,056,27,30,09,216,28,02,00,000,*7E
$GLGSV,1,1,0,*79
$GPGSA,A,3,01,03,04,06,07,09,16,22,23,26,30,,1.2,0.8,0.8*3E
$GPVTG,103.9,T,103.9,M,56.9,N,105.3,K,A*1E
$GPRMC,053123,A,3206.130432,N,03503.035026,E,56.9,103.9,140416,3.0,E,A*2E
$GPGGA,053123,3206.130432,N,03503.035026,E,1,11,0.8,259.0,M,19.0,M,,*4D
$GPGSV,3,1,12,01,12,177,26,03,58,115,31,04,00,000,28,06,30,293,30*76
$GPGSV,3,2,12,07,38,216,35,09,50,307,24,16,25,085,34,22,26,126,29*7A
$GPGSV,3,3,12,23,59,009,29,26,16,056,29,30,09,216,24,02,00,000,*75
$GLGSV,1,1,0,*79
$GPGSA,A,3,01,03,04,06,07,09,16,22,23,26,30,,1.2,0.8,0.8*3E
$GPVTG,104.0,T,104.0,M,57.4,N,106.3,K,A*11
$GPRMC,053124,A,3206.126835,N,03503.053021,E,57.4,104.0,140416,3.0,E,A*20
$GPGGA,053124,3206.126835,N,03503.053021,E,1,11,0.8,261.0,M,19.0,M,,*4A
$GPGSV,3,1,12,01,12,177,24,03,58,115,32,04,00,000,29,06,30,293,29*7E
$GPGSV,3,2,12,07,38,216,35,09,50,307,23,16,25,085,34,22,26,126,29*7D
$GPGSV,3,3,12,23,59,009,30,26,16,056,29,30,09,216,29,02,00,000,*70
$GLGSV,1,1,0,*79
$GPGSA,A,3,01,03,04,06,07,09,16,22,23,26,30,,1.2,0.8,0.8*3E
$GPVTG,103.8,T,103.8,M,57.6,N,106.7,K,A*17
$GPRMC,053125,A,3206.123026,N,03503.071501,E,57.6,103.8,140416,3.0,E,A*24
$GPGGA,053125,3206.123026,N,03503.071501,E,1,11,0.8,261.0,M,19.0,M,,*43
$GPGSV,3,1,11,01,12,177,23,03,58,115,31,04,00,000,30,06,30,293,30*79
$GPGSV,3,2,11,07,38,216,36,16,25,085,36,22,26,126,28,23,59,009,31*71
$GPGSV,3,3,11,26,16,056,30,30,09,216,27,02,00,000,*42
$GLGSV,1,1,0,*79
$GPGSA,A,3,01,03,04,06,07,16,22,23,26,30,,,1.2,0.9,0.8*36
$GPVTG,104.1,T,104.1,M,57.2,N,105.9,K,A*1E
$GPRMC,053126,A,3206.119513,N,03503.089939,E,57.2,104.1,140416,3.0,E,A*27
$GPGGA,053126,3206.119513,N,03503.089939,E,1,10,0.9,261.0,M,19.0,M,,*4A
$GPGSV,3,1,12,01,12,177,23,03,58,115,32,04,00,000,30,06,30,293,29*71
$GPGSV,3,2,12,07,38,216,35,16,25,085,36,22,26,126,25,23,59,009,30*7D
$GPGSV,3,3,12,26,16,056,31,30,09,216,25,02,00,000,,09,50,307,*7A
$GLGSV,1,1,0,*79
$GPGSA,A,3,01,03,04,06,07,16,22,23,26,30,,,1.2,0.9,0.8*36
$GPVTG,102.8,T,102.8,M,58.2,N,107.7,K,A*1D
$GPRMC,053127,A,3206.115775,N,03503.108596,E,58.2,102.8,140416,3.0,E,A*29
$GPGGA,053127,3206.115775,N,03503.108596,E,1,10,0.9,262.0,M,19.0,M,,*47
$GPGSV,3,1,11,03,58,115,32,04,00,000,28,06,30,293,29,07,38,216,36*75
$GPGSV,3,2,11,09,50,307,25,16,25,085,35,22,26,126,26,23,59,009,29*76
$GPGSV,3,3,11,26,16,056,27,30,09,216,24,02,00,000,*47
$GLGSV,1,1,0,*79
$GPGSA,A,3,03,04,06,07,09,16,22,23,26,30,,,1.2,0.9,0.8*3E
$GPVTG,102.4,T,102.4,M,58.9,N,109.0,K,A*1F
$GPRMC,053128,A,3206.112390,N,03503.127445,E,58.9,102.4,140416,3.0,E,A*2B
$GPGGA,053128,3206.112390,N,03503.127445,E,1,10,0.9,263.0,M,19.0,M,,*43
$GPGSV,3,1,12,03,58,115,32,04,00,000,28,06,30,293,28,07,38,216,34*75
$GPGSV,3,2,12,09,50,307,23,16,25,085,34,22,26,126,27,23,59,009,30*7B
$GPGSV,3,3,12,26,16,056,25,30,09,216,23,01,12,177,,02,00,000,*72
$GLGSV,1,1,0,*79
$GPGSA,A,3,03,04,06,07,09,16,22,23,26,30,,,1.2,0.9,0.8*3E
$GPVTG,102.2,T,102.2,M,59.1,N,109.4,K,A*12
$GPRMC,053129,A,3206.108755,N,03503.146697,E,59.1,102.2,140416,3.0,E,A*29
$GPGGA,053129,3206.108755,N,03503.146697,E,1,10,0.9,264.0,M,19.0,M,,*49
$GPGSV,3,1,12,03,58,115,32,04,00,000,28,06,30,293,28,07,38,216,34*75
$GPGSV,3,2,12,09,50,307,23,16,25,085,34,22,26,126,27,23,59,009,30*7B
$GPGSV,3,3,12,26,16,056,25,30,09,216,23,01,12,177,,02,00,000,*72
$GLGSV,1,1,0,*79
$GPGSA,A,3,03,04,06,07,09,16,22,23,26,30,,,1.2,0.9,0.8*3E
$GPVTG,102.2,T,102.2,M,59.1,N,109.4,K,A*12
$GPRMC,053130,A,3206.105292,N,03503.165575,E,59.1,102.2,140416,3.0,E,A*2C
$GPGGA,053130,3206.105292,N,03503.165575,E,1,10,0.9,265.0,M,19.0,M,,*4D
$GPGSV,3,1,10,03,58,115,32,04,00,000,25,06,30,293,29,07,38,216,36*79
$GPGSV,3,2,10,16,25,085,33,22,26,126,28,23,59,009,28,30,09,216,24*78
$GPGSV,3,3,10,02,00,000,,26,16,056,*7A
$GLGSV,1,1,0,*79
$GPGSA,A,3,03,04,06,07,16,22,23,30,,,,,1.4,1.1,0.9*3D
$GPVTG,103.2,T,103.2,M,59.6,N,110.4,K,A*1D
$GPRMC,053131,A,3206.101558,N,03503.184701,E,59.6,103.2,140416,3.0,E,A*20
$GPGGA,053131,3206.101558,N,03503.184701,E,1,08,1.1,266.0,M,19.0,M,,*44
$GPGSV,3,1,11,03,58,115,33,04,00,000,25,06,30,293,30,07,38,216,35*72
$GPGSV,3,2,11,09,50,307,26,16,25,085,32,22,26,126,27,23,59,009,28*72
$GPGSV,3,3,11,01,12,177,,02,00,000,,26,16,056,*48
$GLGSV,1,1,0,*79
$GPGSA,A,3,03,04,06,07,09,16,22,23,,,,,1.5,1.2,0.9*35
$GPVTG,103.6,T,103.6,M,60.3,N,111.6,K,A*11
$GPRMC,053132,A,3206.097655,N,03503.204065,E,60.3,103.6,140416,3.0,E,A*26
$GPGGA,053132,3206.097655,N,03503.204065,E,1,08,1.2,266.0,M,19.0,M,,*4A
$GPGSV,3,1,11,03,58,115,33,06,30,293,29,07,38,216,35,09,50,307,27*74
$GPGSV,3,2,11,16,25,085,31,22,26,126,26,23,59,009,31,01,12,177,*77
$GPGSV,3,3,11,02,00,000,,26,16,056,,30,09,216,*44
$GLGSV,1,1,0,*79
$GPGSA,A,3,03,06,07,09,16,22,23,,,,,,1.5,1.2,0.9*31
$GPVTG,103.5,T,103.5,M,60.4,N,111.9,K,A*19
$GPRMC,053133,A,3206.093733,N,03503.223544,E,60.4,103.5,140416,3.0,E,A*25
$GPGGA,053133,3206.093733,N,03503.223544,E,1,07,1.2,266.0,M,19.0,M,,*42
$GPGSV,3,1,11,03,58,115,34,06,30,293,29,07,38,216,35,09,50,307,25*71
$GPGSV,3,2,11,16,25,085,28,22,26,126,28,23,59,009,31,01,12,177,*71
$GPGSV,3,3,11,02,00,000,,26,16,056,,30,09,216,*44
$GLGSV,1,1,0,*79
$GPGSA,A,3,03,06,07,09,16,22,23,,,,,,1.5,1.2,0.9*31
$GPVTG,104.0,T,104.0,M,61.2,N,113.4,K,A*11
$GPRMC,053134,A,3206.089698,N,03503.242714,E,61.2,104.0,140416,3.0,E,A*2C
$GPGGA,053134,3206.089698,N,03503.242714,E,1,07,1.2,266.0,M,19.0,M,,*4E
$GPGSV,3,1,11,03,58,115,34,06,30,293,29,07,38,216,35,09,50,307,25*71
$GPGSV,3,2,11,16,25,085,28,22,26,126,28,23,59,009,31,01,12,177,*71
$GPGSV,3,3,11,02,00,000,,26,16,056,,30,09,216,*44
$GLGSV,1,1,0,*79
$GPGSA,A,3,03,06,07,09,16,22,23,,,,,,1.5,1.2,0.9*31
$GPVTG,104.0,T,104.0,M,61.2,N,113.4,K,A*11
$GPRMC,053135,A,3206.085588,N,03503.262142,E,61.2,104.0,140416,3.0,E,A*24
$GPGGA,053135,3206.085588,N,03503.262142,E,1,07,1.2,266.0,M,19.0,M,,*46
$GPGSV,3,1,11,03,58,115,35,06,30,293,29,07,38,216,36,09,50,307,27*71
$GPGSV,3,2,11,16,25,085,23,22,26,126,23,23,59,009,30,01,12,177,*70
$GPGSV,3,3,11,02,00,000,,26,16,056,,30,09,216,*44
$GLGSV,1,1,0,*79
$GPGSA,A,3,03,06,07,09,16,22,23,,,,,,1.5,1.2,0.9*31
$GPVTG,104.1,T,104.1,M,62.7,N,116.2,K,A*14
$GPRMC,053136,A,3206.080620,N,03503.282696,E,62.7,104.1,140416,3.0,E,A*24
$GPGGA,053136,3206.080620,N,03503.282696,E,1,07,1.2,265.0,M,19.0,M,,*42
$GPGSV,3,1,11,03,58,115,36,06,30,293,29,07,38,216,31,09,50,307,28*7A
$GPGSV,3,2,11,16,25,085,23,22,26,126,26,23,59,009,32,01,12,177,*77
$GPGSV,3,3,11,02,00,000,,26,16,056,,30,09,216,*44
$GLGSV,1,1,0,*79
$GPGSA,A,3,03,06,07,09,16,22,23,,,,,,1.5,1.2,0.9*31
$GPVTG,104.0,T,104.0,M,63.5,N,117.6,K,A*12
$GPRMC,053137,A,3206.076111,N,03503.302788,E,63.5,104.0,140416,3.0,E,A*2C
$GPGGA,053137,3206.076111,N,03503.302788,E,1,07,1.2,264.0,M,19.0,M,,*49
$GPGSV,3,1,11,03,58,115,36,06,30,293,26,07,38,216,33,09,50,307,28*77
$GPGSV,3,2,11,16,25,085,22,22,26,126,27,23,59,009,31,01,12,177,*74
$GPGSV,3,3,11,02,00,000,,26,16,056,,30,09,216,*44
$GLGSV,1,1,0,*79
$GPGSA,A,3,03,06,07,09,16,22,23,,,,,,1.5,1.2,0.9*31
$GPVTG,104.1,T,104.1,M,64.3,N,119.1,K,A*1A
$GPRMC,053138,A,3206.071713,N,03503.322867,E,64.3,104.1,140416,3.0,E,A*2C
$GPGGA,053138,3206.071713,N,03503.322867,E,1,07,1.2,264.0,M,19.0,M,,*49
$GPGSV,3,1,11,03,58,115,37,06,30,293,28,07,38,216,34,09,50,307,28*7F
$GPGSV,3,2,11,16,25,085,23,22,26,126,24,23,59,009,32,01,12,177,*75
$GPGSV,3,3,11,02,00,000,,26,16,056,,30,09,216,*44
$GLGSV,1,1,0,*79
$GPGSA,A,3,03,06,07,09,16,22,23,,,,,,1.5,1.2,0.9*31
$GPVTG,103.9,T,103.9,M,64.8,N,120.0,K,A*1A
$GPRMC,053139,A,3206.067345,N,03503.343569,E,64.8,103.9,140416,3.0,E,A*2D
$GPGGA,053139,3206.067345,N,03503.343569,E,1,07,1.2,264.0,M,19.0,M,,*4C
$GPGSV,3,1,11,03,58,115,37,06,30,293,29,07,38,216,32,09,50,307,27*77
$GPGSV,3,2,11,16,25,085,28,22,26,126,30,23,59,009,33,01,12,177,*7A
$GPGSV,3,3,11,02,00,000,,26,16,056,,30,09,216,*44
$GLGSV,1,1,0,*79
$GPGSA,A,3,03,06,07,09,16,22,23,,,,,,1.5,1.2,0.9*31
$GPVTG,104.0,T,104.0,M,65.8,N,121.8,K,A*12
$GPRMC,053140,A,3206.063235,N,03503.363960,E,65.8,104.0,140416,3.0,E,A*29
$GPGGA,053140,3206.063235,N,03503.363960,E,1,07,1.2,262.0,M,19.0,M,,*41
$GPGSV,3,1,11,03,58,115,38,06,30,293,28,07,38,216,33,09,50,307,29*76
$GPGSV,3,2,11,16,25,085,27,22,26,126,32,23,59,009,32,01,12,177,*76
$GPGSV,3,3,11,02,00,000,,26,16,056,,30,09,216,*44
$GLGSV,1,1,0,*79
$GPGSA,A,3,03,06,07,09,16,22,23,,,,,,1.5,1.2,0.9*31
$GPVTG,104.0,T,104.0,M,66.6,N,123.4,K,A*11
$GPRMC,053141,A,3206.058997,N,03503.385025,E,66.6,104.0,140416,3.0,E,A*2E
$GPGGA,053141,3206.058997,N,03503.385025,E,1,07,1.2,261.0,M,19.0,M,,*48
$GPGSV,3,1,11,01,12,177,25,03,58,115,38,06,30,293,28,07,38,216,32*70
$GPGSV,3,2,11,09,50,307,31,16,25,085,25,22,26,126,30,23,59,009,35*78
$GPGSV,3,3,11,02,00,000,,26,16,056,,30,09,216,*44
$GLGSV,1,1,0,*79
$GPGSA,A,3,01,03,06,07,09,16,22,23,,,,,1.3,1.0,0.9*34
$GPVTG,104.1,T,104.1,M,66.9,N,124.0,K,A*1D
$GPRMC,053142,A,3206.054432,N,03503.406146,E,66.9,104.1,140416,3.0,E,A*25
$GPGGA,053142,3206.054432,N,03503.406146,E,1,08,1.0,261.0,M,19.0,M,,*40
$GPGSV,3,1,11,01,12,177,27,03,58,115,38,06,30,293,28,07,38,216,32*72
$GPGSV,3,2,11,09,50,307,31,16,25,085,25,22,26,126,30,23,59,009,35*78
$GPGSV,3,3,11,02,00,000,,26,16,056,,30,09,216,*44
$GLGSV,1,1,0,*79
$GPGSA,A,3,01,03,06,07,09,16,22,23,,,,,1.3,1.0,0.9*34
$GPVTG,104.1,T,104.1,M,67.3,N,124.7,K,A*11
$GPRMC,053143,A,3206.049927,N,03503.427134,E,67.3,104.1,140416,3.0,E,A*2C
$GPGGA,053143,3206.049927,N,03503.427134,E,1,08,1.0,260.0,M,19.0,M,,*43
$GPGSV,3,1,11,01,12,177,29,03,58,115,39,06,30,293,28,07,38,216,29*77
$GPGSV,3,2,11,09,50,307,31,16,25,085,25,22,26,126,29,23,59,009,35*70
$GPGSV,3,3,11,30,09,216,26,02,00,000,,26,16,056,*40
$GLGSV,1,1,0,*79
$GPGSA,A,3,01,03,06,07,09,16,22,23,30,,,,1.3,0.9,0.9*3F
$GPVTG,104.2,T,104.2,M,67.4,N,124.8,K,A*19
$GPRMC,053144,A,3206.045217,N,03503.448437,E,67.4,104.2,140416,3.0,E,A*24
$GPGGA,053144,3206.045217,N,03503.448437,E,1,09,0.9,259.0,M,19.0,M,,*4C
$GPGSV,3,1,10,01,12,177,27,03,58,115,38,06,30,293,27,07,38,216,28*77
$GPGSV,3,2,10,09,50,307,30,16,25,085,25,22,26,126,30,23,59,009,34*79
$GPGSV,3,3,10,02,00,000,,26,16,056,*7A
$GLGSV,1,1,0,*79
$GPGSA,A,3,01,03,06,07,09,16,22,23,,,,,1.3,1.0,0.9*34
$GPVTG,104.2,T,104.2,M,67.5,N,125.1,K,A*10
$GPRMC,053145,A,3206.040843,N,03503.469671,E,67.5,104.2,140416,3.0,E,A*29
$GPGGA,053145,3206.040843,N,03503.469671,E,1,08,1.0,258.0,M,19.0,M,,*48
$GPGSV,3,1,11,01,12,177,23,03,58,115,38,06,30,293,28,07,38,216,33*77
$GPGSV,3,2,11,09,50,307,29,16,25,085,26,22,26,126,30,23,59,009,36*71
$GPGSV,3,3,11,30,09,216,29,02,00,000,,26,16,056,*4F
$GLGSV,1,1,0,*79
$GPGSA,A,3,01,03,06,07,09,16,22,23,30,,,,1.3,0.9,0.9*3F
$GPVTG,104.0,T,104.0,M,68.1,N,126.1,K,A*18
$GPRMC,053146,A,3206.036221,N,03503.491279,E,68.1,104.0,140416,3.0,E,A*27
$GPGGA,053146,3206.036221,N,03503.491279,E,1,09,0.9,256.0,M,19.0,M,,*48
$GPGSV,3,1,10,01,12,177,25,03,58,115,37,06,30,293,28,07,38,216,31*7D
$GPGSV,3,2,10,09,50,307,31,22,26,126,28,23,59,009,34,30,09,216,27*71
$GPGSV,3,3,10,02,00,000,,26,16,056,*7A
$GLGSV,1,1,0,*79
$GPGSA,A,3,01,03,06,07,09,22,23,30,,,,,1.4,1.1,0.9*36
$GPVTG,104.1,T,104.1,M,68.3,N,126.4,K,A*1F
$GPRMC,053147,A,3206.031620,N,03503.513029,E,68.3,104.1,140416,3.0,E,A*2B
$GPGGA,053147,3206.031620,N,03503.513029,E,1,08,1.1,255.0,M,19.0,M,,*4C
$GPGSV,3,1,11,01,12,177,28,03,58,115,38,06,30,293,27,07,38,216,35*75
$GPGSV,3,2,11,09,50,307,30,16,25,085,29,22,26,126,31,23,59,009,33*72
$GPGSV,3,3,11,26,16,056,24,30,09,216,29,02,00,000,*49
$GLGSV,1,1,0,*79
$GPGSA,A,3,01,03,06,07,09,16,22,23,26,30,,,1.2,0.8,0.8*3A
$GPVTG,103.9,T,103.9,M,68.4,N,126.7,K,A*1B
$GPRMC,053148,A,3206.027130,N,03503.534774,E,68.4,103.9,140416,3.0,E,A*27
$GPGGA,053148,3206.027130,N,03503.534774,E,1,10,0.8,255.0,M,19.0,M,,*49
$GPGSV,3,1,10,01,12,177,26,03,58,115,37,06,30,293,27,07,38,216,34*74
$GPGSV,3,2,10,09,50,307,30,16,25,085,28,22,26,126,32,23,59,009,34*76
$GPGSV,3,3,10,30,09,216,25,02,00,000,*72
$GLGSV,1,1,0,*79
$GPGSA,A,3,01,03,06,07,09,16,22,23,30,,,,1.3,0.9,0.9*3F
$GPVTG,104.1,T,104.1,M,69.1,N,127.9,K,A*10
$GPRMC,053149,A,3206.022401,N,03503.556787,E,69.1,104.1,140416,3.0,E,A*27
$GPGGA,053149,3206.022401,N,03503.556787,E,1,09,0.9,255.0,M,19.0,M,,*4B
$GPGSV,3,1,11,01,12,177,26,03,58,115,36,06,30,293,28,07,38,216,35*7A
$GPGSV,3,2,11,09,50,307,30,16,25,085,30,22,26,126,30,23,59,009,33*7B
$GPGSV,3,3,11,30,09,216,30,02,00,000,,26,16,056,*47
$GLGSV,1,1,0,*79
$GPGSA,A,3,01,03,06,07,09,16,22,23,30,,,,1.3,0.9,0.9*3F
$GPVTG,103.9,T,103.9,M,68.1,N,126.1,K,A*18
$GPRMC,053150,A,3206.017465,N,03503.578110,E,68.1,103.9,140416,3.0,E,A*21
$GPGGA,053150,3206.017465,N,03503.578110,E,1,09,0.9,254.0,M,19.0,M,,*42
$GPGSV,3,1,11,01,12,177,27,03,58,115,37,06,30,293,28,07,38,216,34*7B
$GPGSV,3,2,11,09,50,307,25,16,25,085,29,22,26,126,29,23,59,009,34*78
$GPGSV,3,3,11,26,16,056,25,30,09,216,30,02,00,000,*40
$GLGSV,1,1,0,*79
$GPGSA,A,3,01,03,06,07,09,16,22,23,26,30,,,1.2,0.8,0.8*3A
$GPVTG,103.9,T,103.9,M,67.6,N,125.2,K,A*10
$GPRMC,053151,A,3206.013273,N,03503.599954,E,67.6,103.9,140416,3.0,E,A*2A
$GPGGA,053151,3206.013273,N,03503.599954,E,1,10,0.8,254.0,M,19.0,M,,*48
$GPGSV,3,1,11,01,12,177,23,03,58,115,36,06,30,293,28,07,38,216,35*7F
$GPGSV,3,2,11,09,50,307,26,16,25,085,28,22,26,126,27,23,59,009,31*71
$GPGSV,3,3,11,26,16,056,27,30,09,216,30,02,00,000,*42
$GLGSV,1,1,0,*79
$GPGSA,A,3,01,03,06,07,09,16,22,23,26,30,,,1.2,0.8,0.8*3A
$GPVTG,104.0,T,104.0,M,66.9,N,123.9,K,A*13
$GPRMC,053152,A,3206.008958,N,03503.621485,E,66.9,104.0,140416,3.0,E,A*20
$GPGGA,053152,3206.008958,N,03503.621485,E,1,10,0.8,255.0,M,19.0,M,,*43
$GPGSV,3,1,11,01,12,177,25,03,58,115,34,06,30,293,29,07,38,216,36*79
$GPGSV,3,2,11,09,50,307,23,16,25,085,31,22,26,126,28,23,59,009,31*73
$GPGSV,3,3,11,26,16,056,26,30,09,216,27,02,00,000,*45
$GLGSV,1,1,0,*79
$GPGSA,A,3,01,03,06,07,09,16,22,23,26,30,,,1.2,0.8,0.8*3A
$GPVTG,104.1,T,104.1,M,66.1,N,122.5,K,A*16
$GPRMC,053153,A,3206.004454,N,03503.642916,E,66.1,104.1,140416,3.0,E,A*27
$GPGGA,053153,3206.004454,N,03503.642916,E,1,10,0.8,255.0,M,19.0,M,,*4D
$GPGSV,3,1,10,01,12,177,25,03,58,115,33,06,30,293,30,07,38,216,34*75
$GPGSV,3,2,10,16,25,085,31,22,26,126,29,23,59,009,33,26,16,056,23*79
$GPGSV,3,3,10,30,09,216,26,02,00,000,*71
$GLGSV,1,1,0,*79
$GPGSA,A,3,01,03,06,07,16,22,23,26,30,,,,1.2,0.9,0.8*32
$GPVTG,104.4,T,104.4,M,65.4,N,121.2,K,A*14
$GPRMC,053154,A,3205.999965,N,03503.664366,E,65.4,104.4,140416,3.0,E,A*2B
$GPGGA,053154,3205.999965,N,03503.664366,E,1,09,0.9,254.0,M,19.0,M,,*4A
$GPGSV,3,1,09,03,58,115,33,06,30,293,31,07,38,216,36,16,25,085,33*77
$GPGSV,3,2,09,22,26,126,31,23,59,009,32,30,09,216,30,02,00,000,*79
$GPGSV,3,3,09,09,50,307,*48
$GLGSV,1,1,0,*79
$GPGSA,A,3,03,06,07,16,22,23,30,,,,,,1.4,1.1,0.9*39
$GPVTG,104.5,T,104.5,M,64.7,N,119.8,K,A*17
$GPRMC,053155,A,3205.995368,N,03503.684565,E,64.7,104.5,140416,3.0,E,A*29
$GPGGA,053155,3205.995368,N,03503.684565,E,1,07,1.1,254.0,M,19.0,M,,*4C
$GPGSV,3,1,11,01,12,177,24,03,58,115,32,06,30,293,30,07,38,216,36*76
$GPGSV,3,2,11,16,25,085,33,22,26,126,28,23,59,009,31,26,16,056,24*7E
$GPGSV,3,3,11,30,09,216,28,02,00,000,,09,50,307,*46
$GLGSV,1,1,0,*79
$GPGSA,A,3,01,03,06,07,16,22,23,26,30,,,,1.2,0.9,0.8*32
$GPVTG,104.0,T,104.0,M,64.0,N,118.4,K,A*1D
$GPRMC,053156,A,3205.991100,N,03503.704644,E,64.0,104.0,140416,3.0,E,A*29
$GPGGA,053156,3205.991100,N,03503.704644,E,1,09,0.9,254.0,M,19.0,M,,*49
$GPGSV,3,1,09,03,58,115,32,06,30,293,32,07,38,216,38,16,25,085,35*7D
$GPGSV,3,2,09,22,26,126,28,23,59,009,33,30,09,216,25,02,00,000,*74
$GPGSV,3,3,09,09,50,307,*48
$GLGSV,1,1,0,*79
$GPGSA,A,3,03,06,07,16,22,23,30,,,,,,1.4,1.1,0.9*39
$GPVTG,103.5,T,103.5,M,63.8,N,118.1,K,A*17
$GPRMC,053157,A,3205.987129,N,03503.725548,E,63.8,103.5,140416,3.0,E,A*25
$GPGGA,053157,3205.987129,N,03503.725548,E,1,07,1.1,254.0,M,19.0,M,,*4F
$GPGSV,3,1,11,01,12,177,22,03,58,115,31,06,30,293,31,07,38,216,36*72
$GPGSV,3,2,11,09,50,307,27,16,25,085,35,22,26,126,28,23,59,009,32*70
$GPGSV,3,3,11,30,09,216,29,02,00,000,,26,16,056,*4F
$GLGSV,1,1,0,*79
$GPGSA,A,3,01,03,06,07,09,16,22,23,30,,,,1.3,0.9,0.9*3F
$GPVTG,103.6,T,103.6,M,63.5,N,117.6,K,A*12
$GPRMC,053158,A,3205.982930,N,03503.745985,E,63.5,103.6,140416,3.0,E,A*2A
$GPGGA,053158,3205.982930,N,03503.745985,E,1,09,0.9,254.0,M,19.0,M,,*49
$GPGSV,3,1,11,01,12,177,25,03,58,115,30,06,30,293,30,07,38,216,38*7B
$GPGSV,3,2,11,09,50,307,30,16,25,085,36,22,26,126,32,23,59,009,34*78
$GPGSV,3,3,11,26,16,056,26,30,09,216,29,02,00,000,*4B
$GLGSV,1,1,0,*79
$GPGSA,A,3,01,03,06,07,09,16,22,23,26,30,,,1.2,0.8,0.8*3A
$GPVTG,103.7,T,103.7,M,63.4,N,117.4,K,A*11
$GPRMC,053159,A,3205.978937,N,03503.765944,E,63.4,103.7,140416,3.0,E,A*26
$GPGGA,053159,3205.978937,N,03503.765944,E,1,10,0.8,255.0,M,19.0,M,,*4D
$GPGSV,3,1,11,01,12,177,25,03,58,115,28,06,30,293,29,07,38,216,33*71
$GPGSV,3,2,11,09,50,307,30,16,25,085,35,22,26,126,29,23,59,009,31*74
$GPGSV,3,3,11,26,16,056,24,30,09,216,32,02,00,000,*43
$GLGSV,1,1,0,*79
$GPGSA,A,3,01,03,06,07,09,16,22,23,26,30,,,1.2,0.8,0.8*3A
$GPVTG,103.9,T,103.9,M,63.1,N,116.9,K,A*18
$GPRMC,053200,A,3205.974937,N,03503.786116,E,63.1,103.9,140416,3.0,E,A*2C
$GPGGA,053200,3205.974937,N,03503.786116,E,1,10,0.8,259.0,M,19.0,M,,*40
$GPGSV,3,1,11,01,12,177,25,03,58,115,28,06,30,293,29,07,38,216,33*71
$GPGSV,3,2,11,09,50,307,30,16,25,085,35,22,26,126,29,23,59,009,31*74
$GPGSV,3,3,11,26,16,056,24,30,09,216,32,02,00,000,*43
$GLGSV,1,1,0,*79
$GPGSA,A,3,01,03,06,07,09,16,22,23,26,30,,,1.2,0.8,0.8*3A
$GPVTG,103.9,T,103.9,M,63.1,N,116.9,K,A*18
$GPRMC,053201,A,3205.970705,N,03503.806146,E,63.1,103.9,140416,3.0,E,A*24
$GPGGA,053201,3205.970705,N,03503.806146,E,1,10,0.8,260.0,M,19.0,M,,*42
$GPGSV,3,1,12,01,12,177,27,03,58,115,28,04,00,000,25,06,30,293,30*72
$GPGSV,3,2,12,07,38,216,37,09,50,307,30,16,25,085,34,22,26,126,29*7D
$GPGSV,3,3,12,23,59,009,32,26,16,056,27,30,09,216,29,02,00,000,*7C
$GLGSV,1,1,0,*79
$GPGSA,A,3,01,03,04,06,07,09,16,22,23,26,30,,1.2,0.8,0.8*3E
$GPVTG,103.9,T,103.9,M,62.6,N,116.0,K,A*17
$GPRMC,053202,A,3205.967288,N,03503.826811,E,62.6,103.9,140416,3.0,E,A*2E
$GPGGA,053202,3205.967288,N,03503.826811,E,1,11,0.8,262.0,M,19.0,M,,*4D
$GPGSV,3,1,12,01,12,177,29,03,58,115,29,04,00,000,24,06,30,293,30*7C
$GPGSV,3,2,12,07,38,216,33,09,50,307,30,16,25,085,35,22,26,126,30*70
$GPGSV,3,3,12,23,59,009,31,26,16,056,28,30,09,216,26,02,00,000,*7F
$GLGSV,1,1,0,*79
$GPGSA,A,3,01,03,04,06,07,09,16,22,23,26,30,,1.2,0.8,0.8*3E
$GPVTG,104.1,T,104.1,M,62.6,N,115.9,K,A*1D
$GPRMC,053203,A,3205.962994,N,03503.846637,E,62.6,104.1,140416,3.0,E,A*2F
$GPGGA,053203,3205.962994,N,03503.846637,E,1,11,0.8,266.0,M,19.0,M,,*47
$GPGSV,3,1,12,01,12,177,28,03,58,115,31,04,00,000,25,06,30,293,29*7D
$GPGSV,3,2,12,07,38,216,34,09,50,307,30,16,25,085,35,22,26,126,29*7F
$GPGSV,3,3,12,23,59,009,31,26,16,056,26,30,09,216,31,02,00,000,*77
$GLGSV,1,1,0,*79
$GPGSA,A,3,01,03,04,06,07,09,16,22,23,26,30,,1.2,0.8,0.8*3E
$GPVTG,104.2,T,104.2,M,62.6,N,115.8,K,A*1C
$GPRMC,053204,A,3205.958749,N,03503.866747,E,62.6,104.2,140416,3.0,E,A*28
$GPGGA,053204,3205.958749,N,03503.866747,E,1,11,0.8,267.0,M,19.0,M,,*42
$GPGSV,3,1,12,01,12,177,28,03,58,115,30,04,00,000,26,06,30,293,29*7F
$GPGSV,3,2,12,07,38,216,31,09,50,307,31,16,25,085,34,22,26,126,31*73
$GPGSV,3,3,12,23,59,009,33,26,16,056,27,30,09,216,31,02,00,000,*74
$GLGSV,1,1,0,*79
$GPGSA,A,3,01,03,04,06,07,09,16,22,23,26,30,,1.2,0.8,0.8*3E
$GPVTG,104.6,T,104.6,M,62.5,N,115.8,K,A*1F
$GPRMC,053205,A,3205.954024,N,03503.886238,E,62.5,104.6,140416,3.0,E,A*2D
$GPGGA,053205,3205.954024,N,03503.886238,E,1,11,0.8,268.0,M,19.0,M,,*4F
$GPGSV,3,1,12,01,12,177,29,03,58,115,30,04,00,000,25,06,30,293,31*74
$GPGSV,3,2,12,07,38,216,32,09,50,307,28,16,25,085,34,22,26,126,30*79
$GPGSV,3,3,12,23,59,009,32,26,16,056,27,30,09,216,30,02,00,000,*74
$GLGSV,1,1,0,*79
$GPGSA,A,3,01,03,04,06,07,09,16,22,23,26,30,,1.2,0.8,0.8*3E
$GPVTG,105.0,T,105.0,M,62.3,N,115.4,K,A*15
$GPRMC,053206,A,3205.949577,N,03503.906163,E,62.3,105.0,140416,3.0,E,A*24
$GPGGA,053206,3205.949577,N,03503.906163,E,1,11,0.8,271.0,M,19.0,M,,*4F
$GPGSV,3,1,12,01,12,177,30,03,58,115,31,04,00,000,25,06,30,293,31*7D
$GPGSV,3,2,12,07,38,216,35,09,50,307,28,16,25,085,34,22,26,126,32*7C
$GPGSV,3,3,12,23,59,009,31,26,16,056,24,30,09,216,27,02,00,000,*72
$GLGSV,1,1,0,*79
$GPGSA,A,3,01,03,04,06,07,09,16,22,23,26,30,,1.2,0.8,0.8*3E
$GPVTG,104.6,T,104.6,M,62.2,N,115.1,K,A*11
$GPRMC,053207,A,3205.945161,N,03503.926002,E,62.2,104.6,140416,3.0,E,A*28
$GPGGA,053207,3205.945161,N,03503.926002,E,1,11,0.8,271.0,M,19.0,M,,*45
$GPGSV,3,1,11,01,12,177,28,03,58,115,30,04,00,000,27,06,30,293,32*77
$GPGSV,3,2,11,07,38,216,34,16,25,085,33,22,26,126,30,23,59,009,30*7E
$GPGSV,3,3,11,26,16,056,24,30,09,216,31,02,00,000,*40
$GLGSV,1,1,0,*79
$GPGSA,A,3,01,03,04,06,07,16,22,23,26,30,,,1.2,0.9,0.8*36
$GPVTG,105.8,T,105.8,M,62.3,N,115.4,K,A*15
$GPRMC,053208,A,3205.940430,N,03503.945843,E,62.3,105.8,140416,3.0,E,A*25
$GPGGA,053208,3205.940430,N,03503.945843,E,1,10,0.9,273.0,M,19.0,M,,*44
$GPGSV,3,1,12,01,12,177,29,03,58,115,33,04,00,000,24,06,30,293,32*75
$GPGSV,3,2,12,07,38,216,30,16,25,085,29,22,26,126,31,23,59,009,33*70
$GPGSV,3,3,12,26,16,056,25,30,09,216,29,02,00,000,,09,50,307,*73
$GLGSV,1,1,0,*79
$GPGSA,A,3,01,03,04,06,07,16,22,23,26,30,,,1.2,0.9,0.8*36
$GPVTG,106.7,T,106.7,M,62.7,N,116.1,K,A*17
$GPRMC,053209,A,3205.935541,N,03503.965969,E,62.7,106.7,140416,3.0,E,A*22
$GPGGA,053209,3205.935541,N,03503.965969,E,1,10,0.9,275.0,M,19.0,M,,*4D
$GPGSV,3,1,11,01,12,177,27,02,00,000,23,03,58,115,33,04,00,000,25*76
$GPGSV,3,2,11,06,30,293,31,07,38,216,35,16,25,085,29,22,26,126,29*74
$GPGSV,3,3,11,23,59,009,31,30,09,216,28,09,50,307,*42
$GLGSV,1,1,0,*79
$GPGSA,A,3,01,02,03,04,06,07,16,22,23,30,,,1.3,1.0,0.9*38
$GPVTG,106.9,T,106.9,M,63.1,N,116.8,K,A*19
$GPRMC,053210,A,3205.930599,N,03503.985405,E,63.1,106.9,140416,3.0,E,A*2A
$GPGGA,053210,3205.930599,N,03503.985405,E,1,10,1.0,276.0,M,19.0,M,,*47
$GPGSV,3,1,12,01,12,177,26,02,00,000,26,03,58,115,33,04,00,000,23*77
$GPGSV,3,2,12,06,30,293,32,07,38,216,37,09,50,307,23,16,25,085,27*7B
$GPGSV,3,3,12,22,26,126,29,23,59,009,32,26,16,056,24,30,09,216,28*76
$GLGSV,1,1,0,*79
$GPGSA,A,3,01,02,03,04,06,07,09,16,22,23,26,30,1.2,0.8,0.8*3C
$GPVTG,107.2,T,107.2,M,63.4,N,117.4,K,A*11
$GPRMC,053211,A,3205.925503,N,03504.004900,E,63.4,107.2,140416,3.0,E,A*2C
$GPGGA,053211,3205.925503,N,03504.004900,E,1,12,0.8,277.0,M,19.0,M,,*44
$GPGSV,3,1,12,01,12,177,30,02,00,000,26,03,58,115,33,04,00,000,25*76
$GPGSV,3,2,12,06,30,293,31,07,38,216,32,09,50,307,24,16,25,085,27*7A
$GPGSV,3,3,12,22,26,126,32,23,59,009,32,26,16,056,23,30,09,216,29*7A
$GLGSV,1,1,0,*79
$GPGSA,A,3,01,02,03,04,06,07,09,16,22,23,26,30,1.2,0.8,0.8*3C
$GPVTG,107.3,T,107.3,M,63.7,N,117.9,K,A*1F
$GPRMC,053212,A,3205.920372,N,03504.024743,E,63.7,107.3,140416,3.0,E,A*23
$GPGGA,053212,3205.920372,N,03504.024743,E,1,12,0.8,278.0,M,19.0,M,,*46
$GPGSV,3,1,10,01,12,177,30,02,00,000,27,03,58,115,34,04,00,000,28*7F
$GPGSV,3,2,10,06,30,293,31,07,38,216,36,22,26,126,34,23,59,009,29*73
$GPGSV,3,3,10,26,16,056,25,30,09,216,27*75
$GLGSV,1,1,0,*79
$GPGSA,A,3,01,02,03,04,06,07,22,23,26,30,,,1.2,0.9,0.8*33
$GPVTG,107.4,T,107.4,M,64.0,N,118.5,K,A*1C
$GPRMC,053213,A,3205.915017,N,03504.044607,E,64.0,107.4,140416,3.0,E,A*24
$GPGGA,053213,3205.915017,N,03504.044607,E,1,10,0.9,279.0,M,19.0,M,,*44
$GPGSV,3,1,12,01,12,177,26,02,00,000,28,03,58,115,35,04,00,000,27*7B
$GPGSV,3,2,12,06,30,293,31,07,38,216,35,22,26,126,33,23,59,009,31*7C
$GPGSV,3,3,12,26,16,056,23,30,09,216,30,09,50,307,,16,25,085,*72
$GLGSV,1,1,0,*79
$GPGSA,A,3,01,02,03,04,06,07,22,23,26,30,,,1.2,0.9,0.8*33
$GPVTG,108.0,T,108.0,M,64.4,N,119.2,K,A*1E
$GPRMC,053214,A,3205.909849,N,03504.064556,E,64.4,108.0,140416,3.0,E,A*27
$GPGGA,053214,3205.909849,N,03504.064556,E,1,10,0.9,280.0,M,19.0,M,,*4E
$GPGSV,3,1,12,01,12,177,28,02,00,000,27,03,58,115,36,04,00,000,27*79
$GPGSV,3,2,12,06,30,293,30,07,38,216,37,22,26,126,32,23,59,009,32*7D
$GPGSV,3,3,12,26,16,056,26,30,09,216,29,09,50,307,,16,25,085,*7F
$GLGSV,1,1,0,*79
$GPGSA,A,3,01,02,03,04,06,07,22,23,26,30,,,1.2,0.9,0.8*33
$GPVTG,108.4,T,108.4,M,64.7,N,119.8,K,A*17
$GPRMC,053215,A,3205.904256,N,03504.084728,E,64.7,108.4,140416,3.0,E,A*2D
$GPGGA,053215,3205.904256,N,03504.084728,E,1,10,0.9,282.0,M,19.0,M,,*41
$GPGSV,3,1,12,01,12,177,28,02,00,000,25,03,58,115,35,04,00,000,25*7A
$GPGSV,3,2,12,06,30,293,29,07,38,216,37,09,50,307,23,22,26,126,31*7A
$GPGSV,3,3,12,23,59,009,31,26,16,056,27,30,09,216,29,16,25,085,*70
$GLGSV,1,1,0,*79
$GPGSA,A,3,01,02,03,04,06,07,09,22,23,26,30,,1.2,0.9,0.8*3A
$GPVTG,108.4,T,108.4,M,65.0,N,120.4,K,A*17
$GPRMC,053216,A,3205.898973,N,03504.104608,E,65.0,108.4,140416,3.0,E,A*2A
$GPGGA,053216,3205.898973,N,03504.104608,E,1,11,0.9,283.0,M,19.0,M,,*40
$GPGSV,3,1,12,01,12,177,28,02,00,000,25,03,58,115,35,04,00,000,25*7A
$GPGSV,3,2,12,06,30,293,29,07,38,216,37,09,50,307,23,22,26,126,31*7A
$GPGSV,3,3,12,23,59,009,31,26,16,056,27,30,09,216,29,16,25,085,*70
$GLGSV,1,1,0,*79
$GPGSA,A,3,01,02,03,04,06,07,09,22,23,26,30,,1.2,0.9,0.8*3A
$GPVTG,108.4,T,108.4,M,65.0,N,120.4,K,A*17
$GPRMC,053217,A,3205.893256,N,03504.124780,E,65.0,108.4,140416,3.0,E,A*2F
$GPGGA,053217,3205.893256,N,03504.124780,E,1,11,0.9,284.0,M,19.0,M,,*42
$GPGSV,3,1,11,02,00,000,24,03,58,115,34,04,00,000,27,06,30,293,31*7D
$GPGSV,3,2,11,07,38,216,33,09,50,307,25,22,26,126,32,23,59,009,30*79
$GPGSV,3,3,11,26,16,056,24,30,09,216,26,16,25,085,*49
$GLGSV,1,1,0,*79
$GPGSA,A,3,02,03,04,06,07,09,22,23,26,30,,,1.3,0.9,0.8*3A
$GPVTG,107.7,T,107.7,M,65.1,N,120.6,K,A*14
$GPRMC,053218,A,3205.887753,N,03504.145491,E,65.1,107.7,140416,3.0,E,A*2C
$GPGGA,053218,3205.887753,N,03504.145491,E,1,10,0.9,286.0,M,19.0,M,,*4F
$GPGSV,3,1,11,02,00,000,24,03,58,115,34,04,00,000,27,06,30,293,31*7D
$GPGSV,3,2,11,07,38,216,33,09,50,307,25,22,26,126,32,23,59,009,30*79
$GPGSV,3,3,11,26,16,056,24,30,09,216,26,16,25,085,*49
$GLGSV,1,1,0,*79
$GPGSA,A,3,02,03,04,06,07,09,22,23,26,30,,,1.3,0.9,0.8*3A
$GPVTG,107.7,T,107.7,M,65.1,N,120.5,K,A*17
$GPRMC,053219,A,3205.882251,N,03504.165772,E,65.1,107.7,140416,3.0,E,A*23
$GPGGA,053219,3205.882251,N,03504.165772,E,1,10,0.9,286.0,M,19.0,M,,*40
$GPGSV,3,1,12,03,58,115,35,04,00,000,28,06,30,293,30,07,38,216,37*78
$GPGSV,3,2,12,09,50,307,22,16,25,085,24,22,26,126,32,23,59,009,31*7E
$GPGSV,3,3,12,26,16,056,22,01,12,177,,02,00,000,,30,09,216,*74
$GLGSV,1,1,0,*79
$GPGSA,A,3,03,04,06,07,09,16,22,23,26,,,,1.4,1.0,0.9*32
$GPVTG,108.1,T,108.1,M,65.7,N,121.7,K,A*12
$GPRMC,053220,A,3205.876120,N,03504.186219,E,65.7,108.1,140416,3.0,E,A*2D
$GPGGA,053220,3205.876120,N,03504.186219,E,1,09,1.0,289.0,M,19.0,M,,*4E
$GPGSV,3,1,11,03,58,115,35,04,00,000,24,06,30,293,31,07,38,216,38*79
$GPGSV,3,2,11,09,50,307,21,22,26,126,31,23,59,009,31,26,16,056,24*70
$GPGSV,3,3,11,01,12,177,,02,00,000,,30,09,216,*47
$GLGSV,1,1,0,*79
$GPGSA,A,3,03,04,06,07,09,22,23,26,,,,,1.4,1.1,0.9*34
$GPVTG,108.0,T,108.0,M,66.0,N,122.1,K,A*13
$GPRMC,053221,A,3205.870214,N,03504.206869,E,66.0,108.0,140416,3.0,E,A*2D
$GPGGA,053221,3205.870214,N,03504.206869,E,1,08,1.1,290.0,M,19.0,M,,*43
$GPGSV,3,1,12,03,58,115,34,04,00,000,23,06,30,293,30,07,38,216,35*70
$GPGSV,3,2,12,09,50,307,24,16,25,085,23,22,26,126,32,23,59,009,31*7F
$GPGSV,3,3,12,26,16,056,27,01,12,177,,02,00,000,,30,09,216,*71
$GLGSV,1,1,0,*79
$GPGSA,A,3,03,04,06,07,09,16,22,23,26,,,,1.4,1.0,0.9*32
$GPVTG,108.0,T,108.0,M,66.0,N,122.2,K,A*10
$GPRMC,053222,A,3205.864677,N,03504.227413,E,66.0,108.0,140416,3.0,E,A*28
$GPGGA,053222,3205.864677,N,03504.227413,E,1,09,1.0,292.0,M,19.0,M,,*44
$GPGSV,3,1,12,03,58,115,34,04,00,000,23,06,30,293,30,07,38,216,35*70
$GPGSV,3,2,12,09,50,307,24,16,25,085,23,22,26,126,32,23,59,009,31*7F
$GPGSV,3,3,12,26,16,056,27,01,12,177,,02,00,000,,30,09,216,*71
$GLGSV,1,1,0,*79
$GPGSA,A,3,03,04,06,07,09,16,22,23,26,,,,1.4,1.0,0.9*32
$GPVTG,108.0,T,108.0,M,66.0,N,122.2,K,A*10
$GPRMC,053223,A,3205.858993,N,03504.247932,E,66.0,108.0,140416,3.0,E,A*2B
$GPGGA,053223,3205.858993,N,03504.247932,E,1,09,1.0,293.0,M,19.0,M,,*46
$GPGSV,3,1,12,03,58,115,35,04,00,000,24,06,30,293,31,07,38,216,35*77
$GPGSV,3,2,12,09,50,307,24,22,26,126,31,23,59,009,32,26,16,056,26*77
$GPGSV,3,3,12,01,12,177,,02,00,000,,16,25,085,,30,09,216,*79
$GLGSV,1,1,0,*79
$GPGSA,A,3,03,04,06,07,09,22,23,26,,,,,1.4,1.1,0.9*34
$GPVTG,108.3,T,108.3,M,65.8,N,121.9,K,A*13
$GPRMC,053224,A,3205.853199,N,03504.268422,E,65.8,108.3,140416,3.0,E,A*2C
$GPGGA,053224,3205.853199,N,03504.268422,E,1,08,1.1,295.0,M,19.0,M,,*4F
$GPGSV,3,1,12,03,58,115,35,04,00,000,24,06,30,293,31,07,38,216,35*77
$GPGSV,3,2,12,09,50,307,24,22,26,126,31,23,59,009,32,26,16,056,26*77
$GPGSV,3,3,12,01,12,177,,02,00,000,,16,25,085,,30,09,216,*79
$GLGSV,1,1,0,*79
$GPGSA,A,3,03,04,06,07,09,22,23,26,,,,,1.4,1.1,0.9*34
$GPVTG,108.3,T,108.3,M,65.8,N,121.9,K,A*13
$GPRMC,053225,A,3205.847433,N,03504.288844,E,65.8,108.3,140416,3.0,E,A*2F
$GPGGA,053225,3205.847433,N,03504.288844,E,1,08,1.1,296.0,M,19.0,M,,*4F
$GPGSV,3,1,11,03,58,115,35,06,30,293,30,07,38,216,34,09,50,307,27*7B
$GPGSV,3,2,11,22,26,126,33,23,59,009,28,26,16,056,25,01,12,177,*73
$GPGSV,3,3,11,02,00,000,,16,25,085,,30,09,216,*49
$GLGSV,1,1,0,*79
$GPGSA,A,3,03,06,07,09,22,23,26,,,,,,1.4,1.1,0.9*30
$GPVTG,108.1,T,108.1,M,66.0,N,122.2,K,A*10
$GPRMC,053226,A,3205.842019,N,03504.309093,E,66.0,108.1,140416,3.0,E,A*26
$GPGGA,053226,3205.842019,N,03504.309093,E,1,07,1.1,298.0,M,19.0,M,,*4E
$GPGSV,3,1,11,03,58,115,35,06,30,293,32,07,38,216,36,09,50,307,27*7B
$GPGSV,3,2,11,22,26,126,33,23,59,009,31,26,16,056,26,01,12,177,*78
$GPGSV,3,3,11,02,00,000,,16,25,085,,30,09,216,*49
$GLGSV,1,1,0,*79
$GPGSA,A,3,03,06,07,09,22,23,26,,,,,,1.4,1.1,0.9*30
$GPVTG,107.9,T,107.9,M,66.1,N,122.3,K,A*10
$GPRMC,053227,A,3205.836273,N,03504.329977,E,66.1,107.9,140416,3.0,E,A*2D
$GPGGA,053227,3205.836273,N,03504.329977,E,1,07,1.1,299.0,M,19.0,M,,*42
$GPGSV,3,1,11,03,58,115,35,06,30,293,32,07,38,216,36,09,50,307,27*7B
$GPGSV,3,2,11,22,26,126,33,23,59,009,31,26,16,056,26,01,12,177,*78
$GPGSV,3,3,11,02,00,000,,16,25,085,,30,09,216,*49
$GLGSV,1,1,0,*79
$GPGSA,A,3,03,06,07,09,22,23,26,,,,,,1.4,1.1,0.9*30
$GPVTG,107.9,T,107.9,M,66.1,N,122.3,K,A*10
$GPRMC,053228,A,3205.830630,N,03504.350535,E,66.1,107.9,140416,3.0,E,A*23
$GPGGA,053228,3205.830630,N,03504.350535,E,1,07,1.1,300.0,M,19.0,M,,*4D
$GPGSV,3,1,10,03,58,115,33,06,30,293,32,07,38,216,37,09,50,307,27*7D
$GPGSV,3,2,10,22,26,126,32,23,59,009,26,26,16,056,24,01,12,177,*7C
$GPGSV,3,3,10,02,00,000,,30,09,216,*75
$GLGSV,1,1,0,*79
$GPGSA,A,3,03,06,07,09,22,23,26,,,,,,1.4,1.1,0.9*30
$GPVTG,108.0,T,108.0,M,65.7,N,121.7,K,A*12
$GPRMC,053229,A,3205.824647,N,03504.370785,E,65.7,108.0,140416,3.0,E,A*2F
$GPGGA,053229,3205.824647,N,03504.370785,E,1,07,1.1,303.0,M,19.0,M,,*41
$GPGSV,3,1,10,03,58,115,33,06,30,293,32,07,38,216,37,09,50,307,27*7D
$GPGSV,3,2,10,22,26,126,32,23,59,009,26,26,16,056,24,01,12,177,*7C
$GPGSV,3,3,10,02,00,000,,30,09,216,*75
$GLGSV,1,1,0,*79
$GPGSA,A,3,03,06,07,09,22,23,26,,,,,,1.4,1.1,0.9*30
$GPVTG,108.0,T,108.0,M,65.7,N,121.7,K,A*12
$GPRMC,053230,A,3205.818982,N,03504.391213,E,65.7,108.0,140416,3.0,E,A*2B
$GPGGA,053230,3205.818982,N,03504.391213,E,1,07,1.1,303.0,M,19.0,M,,*45
$GPGSV,3,1,11,03,58,115,34,06,30,293,32,07,38,216,35,09,50,307,23*7D
$GPGSV,3,2,11,22,26,126,32,23,59,009,29,26,16,056,22,01,12,177,*74
$GPGSV,3,3,11,02,00,000,,16,25,085,,30,09,216,*49
$GLGSV,1,1,0,*79
$GPGSA,A,3,03,06,07,09,22,23,26,,,,,,1.4,1.1,0.9*30
$GPVTG,107.9,T,107.9,M,65.2,N,120.8,K,A*19
$GPRMC,053231,A,3205.813302,N,03504.411304,E,65.2,107.9,140416,3.0,E,A*28
$GPGGA,053231,3205.813302,N,03504.411304,E,1,07,1.1,306.0,M,19.0,M,,*40
$GPGSV,3,1,10,03,58,115,34,06,30,293,30,07,38,216,32,09,50,307,20*7A
$GPGSV,3,2,10,22,26,126,33,23,59,009,29,01,12,177,,02,00,000,*76
$GPGSV,3,3,10,16,25,085,,30,09,216,*7A
$GLGSV,1,1,0,*79
$GPGSA,A,3,03,06,07,09,22,23,,,,,,,1.6,1.3,0.9*34
$GPVTG,108.1,T,108.1,M,65.2,N,120.7,K,A*16
$GPRMC,053232,A,3205.807801,N,03504.431734,E,65.2,108.1,140416,3.0,E,A*24
$GPGGA,053232,3205.807801,N,03504.431734,E,1,06,1.3,308.0,M,19.0,M,,*46
$GPGSV,3,1,11,03,58,115,33,06,30,293,30,07,38,216,34,09,50,307,22*78
$GPGSV,3,2,11,22,26,126,31,23,59,009,28,26,16,056,21,01,12,177,*75
$GPGSV,3,3,11,02,00,000,,16,25,085,,30,09,216,*49
$GLGSV,1,1,0,*79
$GPGSA,A,3,03,06,07,09,22,23,26,,,,,,1.4,1.1,0.9*30
$GPVTG,107.9,T,107.9,M,64.9,N,120.2,K,A*19
$GPRMC,053233,A,3205.802196,N,03504.452289,E,64.9,107.9,140416,3.0,E,A*2C
$GPGGA,053233,3205.802196,N,03504.452289,E,1,07,1.1,309.0,M,19.0,M,,*41
$GPGSV,3,1,09,01,12,177,30,03,58,115,34,06,30,293,31,07,38,216,34*7F
$GPGSV,3,2,09,22,26,126,31,23,59,009,27,30,09,216,26,02,00,000,*7A
$GPGSV,3,3,09,16,25,085,*4D
$GLGSV,1,1,0,*79
$GPGSA,A,3,01,03,06,07,22,23,30,,,,,,1.4,1.1,0.9*3F
$GPVTG,108.2,T,108.2,M,65.3,N,121.0,K,A*11
$GPRMC,053234,A,3205.796601,N,03504.472451,E,65.3,108.2,140416,3.0,E,A*2E
$GPGGA,053234,3205.796601,N,03504.472451,E,1,07,1.1,310.0,M,19.0,M,,*44
$GPGSV,3,1,11,01,12,177,29,03,58,115,34,06,30,293,31,07,38,216,35*7F
$GPGSV,3,2,11,09,50,307,24,22,26,126,32,23,59,009,29,26,16,056,25*7E
$GPGSV,3,3,11,30,09,216,25,02,00,000,,16,25,085,*4E
$GLGSV,1,1,0,*79
$GPGSA,A,3,01,03,06,07,09,22,23,26,30,,,,1.2,0.9,0.8*3C
$GPVTG,108.1,T,108.1,M,65.2,N,120.7,K,A*16
$GPRMC,053235,A,3205.790992,N,03504.492468,E,65.2,108.1,140416,3.0,E,A*2A
$GPGGA,053235,3205.790992,N,03504.492468,E,1,09,0.9,310.0,M,19.0,M,,*45
$GPGSV,3,1,11,01,12,177,25,03,58,115,33,06,30,293,30,07,38,216,36*76
$GPGSV,3,2,11,09,50,307,23,22,26,126,32,23,59,009,29,26,16,056,25*79
$GPGSV,3,3,11,30,09,216,27,02,00,000,,16,25,085,*4C
$GLGSV,1,1,0,*79
$GPGSA,A,3,01,03,06,07,09,22,23,26,30,,,,1.2,0.9,0.8*3C
$GPVTG,107.7,T,107.7,M,64.9,N,120.2,K,A*19
$GPRMC,053236,A,3205.785207,N,03504.512541,E,64.9,107.7,140416,3.0,E,A*2A
