$GPRMC,075434.289,V,3854.929,N,07702.499,W,13.3,2.91,190416,,E*4F
$GPGGA,075435.289,3854.929,N,07702.499,W,0,00,,,M,,M,,*5C
$GPGLL,3854.929,N,07702.499,W,075436.289,V*3F
$GPVTG,2.91,T,,M,13.3,N,24.6,K*5B
$GPGSA,A,3,17,18,18,19,08,07,,,,,,,0.7,0.8,0.8*34
$GPGSV,2,1,06,17,70,227,24,18,08,261,65,18,36,128,66,19,52,319,42*7E
$GPGSV,2,2,06,08,86,181,70,07,62,257,70*72
$GPRMC,075441.289,V,3854.929,N,07702.501,W,46.5,2.96,190416,,E*4C
$GPGGA,075442.289,3854.929,N,07702.501,W,0,04,0.8,,M,,M,,*7E
$GPGLL,3854.929,N,07702.501,W,075443.289,V*3D
$GPVTG,2.96,T,,M,46.5,N,86.2,K*56
$GPRMC,075445.289,V,3854.929,N,07702.503,W,16.0,3.03,190416,,E*47
$GPGGA,075446.289,3854.929,N,07702.503,W,0,04,0.8,,M,,M,,*78
$GPGLL,3854.929,N,07702.503,W,075447.289,V*3B
$GPVTG,3.03,T,,M,16.0,N,29.6,K*5A
$GPRMC,075449.289,V,3854.929,N,07702.504,W,60.1,2.98,190416,,E*4F
$GPGGA,075450.289,3854.929,N,07702.504,W,0,04,0.8,,M,,M,,*78
$GPGLL,3854.929,N,07702.504,W,075451.289,V*3B
$GPVTG,2.98,T,,M,60.1,N,111.3,K*66
$GPRMC,075453.289,V,3854.930,N,07702.506,W,34.1,3.09,190416,,E*46
$GPGGA,075454.289,3854.930,N,07702.506,W,0,04,0.8,,M,,M,,*76
$GPGLL,3854.930,N,07702.506,W,075455.289,V*35
$GPVTG,3.09,T,,M,34.1,N,63.2,K*5B
$GPGSA,A,3,17,18,18,19,08,07,,,,,,,0.9,0.3,0.8*31
$GPGSV,2,1,06,17,71,306,56,18,08,152,87,18,39,140,54,19,24,271,85*72
$GPGSV,2,2,06,08,38,322,22,07,73,115,25*7E
$GPRMC,075500.289,V,3854.930,N,07702.508,W,34.8,3.09,190416,,E*46
$GPGGA,075501.289,3854.930,N,07702.508,W,0,04,0.3,,M,,M,,*72
$GPGLL,3854.930,N,07702.508,W,075502.289,V*38
$GPVTG,3.09,T,,M,34.8,N,64.5,K*52
$GPRMC,075504.289,V,3854.930,N,07702.510,W,0.8,3.13,190416,,E*77
$GPGGA,075505.289,3854.930,N,07702.510,W,0,04,0.3,,M,,M,,*7F
$GPGLL,3854.930,N,07702.510,W,075506.289,V*35
$GPVTG,3.13,T,,M,0.8,N,1.5,K*5D
$GPRMC,075508.289,V,3854.931,N,07702.512,W,90.5,3.16,190416,,E*49
$GPGGA,075509.289,3854.931,N,07702.512,W,0,04,0.3,,M,,M,,*70
$GPGLL,3854.931,N,07702.512,W,075510.289,V*31
$GPVTG,3.16,T,,M,90.5,N,167.7,K*6F
$GPRMC,075512.289,V,3854.931,N,07702.513,W,4.0,3.09,190416,,E*75
$GPGGA,075513.289,3854.931,N,07702.513,W,0,04,0.3,,M,,M,,*7A
$GPGLL,3854.931,N,07702.513,W,075514.289,V*34
$GPVTG,3.09,T,,M,4.0,N,7.4,K*5D
$GPRMC,075516.289,V,3854.931,N,07702.515,W,48.3,3.18,190416,,E*4C
$GPGGA,075517.289,3854.931,N,07702.515,W,0,04,0.3,,M,,M,,*78
$GPGLL,3854.931,N,07702.515,W,075518.289,V*3E
$GPVTG,3.18,T,,M,48.3,N,89.5,K*51
$GPGSA,A,3,17,18,18,19,08,07,,,,,,,0.4,0.4,0.8*3B
$GPGSV,2,1,06,17,55,221,82,18,66,285,27,18,12,039,88,19,67,045,78*75
$GPGSV,2,2,06,08,56,250,42,07,58,018,31*74
$GPRMC,075523.289,V,3854.932,N,07702.517,W,25.8,3.26,190416,,E*46
$GPGGA,075524.289,3854.932,N,07702.517,W,0,04,0.4,,M,,M,,*7E
$GPGLL,3854.932,N,07702.517,W,075525.289,V*31
$GPVTG,3.26,T,,M,25.8,N,47.8,K*53
$GPRMC,075527.289,V,3854.933,N,07702.518,W,35.3,3.44,190416,,E*42
$GPGGA,075528.289,3854.933,N,07702.518,W,0,04,0.4,,M,,M,,*7C
$GPGLL,3854.933,N,07702.518,W,075529.289,V*33
$GPVTG,3.44,T,,M,35.3,N,65.3,K*56
$GPRMC,075531.289,V,3854.934,N,07702.520,W,33.8,3.35,190416,,E*42
$GPGGA,075532.289,3854.934,N,07702.520,W,0,04,0.4,,M,,M,,*7B
$GPGLL,3854.934,N,07702.520,W,075533.289,V*34
$GPVTG,3.35,T,,M,33.8,N,62.5,K*5C
$GPRMC,075535.289,V,3854.935,N,07702.521,W,32.0,3.41,190416,,E*4C
$GPGGA,075536.289,3854.935,N,07702.521,W,0,04,0.4,,M,,M,,*7F
$GPGLL,3854.935,N,07702.521,W,075537.289,V*30
$GPVTG,3.41,T,,M,32.0,N,59.3,K*58
$GPRMC,075539.289,V,3854.936,N,07702.523,W,70.6,3.34,190416,,E*43
$GPGGA,075540.289,3854.936,N,07702.523,W,0,04,0.4,,M,,M,,*7F
$GPGLL,3854.936,N,07702.523,W,075541.289,V*30
$GPVTG,3.34,T,,M,70.6,N,130.7,K*60
$GPRMC,075543.289,V,3854.937,N,07702.524,W,37.8,3.24,190416,,E*44
$GPGGA,075544.289,3854.937,N,07702.524,W,0,04,0.4,,M,,M,,*7D
$GPGLL,3854.937,N,07702.524,W,075545.289,V*32
$GPVTG,3.24,T,,M,37.8,N,70.0,K*5E
$GPRMC,075547.289,V,3854.938,N,07702.526,W,13.8,3.32,190416,,E*4C
$GPGGA,075548.289,3854.938,N,07702.526,W,0,04,0.4,,M,,M,,*7C
$GPGLL,3854.938,N,07702.526,W,075549.289,V*33
$GPVTG,3.32,T,,M,13.8,N,25.6,K*59
$GPGSA,A,2,17,18,18,19,08,07,,,,,,,0.0,0.4,0.0*36
$GPGSV,2,1,06,17,40,011,77,18,84,066,31,18,38,079,74,19,57,308,40*73
$GPGSV,2,2,06,08,34,024,17,07,16,059,69*73
$GPRMC,075554.289,V,3854.939,N,07702.527,W,44.4,3.31,190416,,E*43
$GPGGA,075555.289,3854.939,N,07702.527,W,0,04,0.4,,M,,M,,*70
$GPGLL,3854.939,N,07702.527,W,075556.289,V*3D
$GPVTG,3.31,T,,M,44.4,N,82.3,K*5C
$GPRMC,075558.289,V,3854.939,N,07702.529,W,83.1,3.21,190416,,E*4E
$GPGGA,075559.289,3854.939,N,07702.529,W,0,04,0.4,,M,,M,,*72
$GPGLL,3854.939,N,07702.529,W,075600.289,V*33
$GPVTG,3.21,T,,M,83.1,N,153.9,K*64
$GPRMC,075602.289,V,3854.940,N,07702.531,W,20.4,3.20,190416,,E*48
$GPGGA,075603.289,3854.940,N,07702.531,W,0,04,0.4,,M,,M,,*79
$GPGLL,3854.940,N,07702.531,W,075604.289,V*30
$GPVTG,3.20,T,,M,20.4,N,37.7,K*54
$GPGSA,A,3,17,18,18,19,08,07,,,,,,,0.3,0.3,0.9*3A
$GPGSV,2,1,06,17,27,018,48,18,59,047,74,18,08,089,36,19,59,301,46*7E
$GPGSV,2,2,06,08,76,262,38,07,40,357,49*74
$GPRMC,075609.289,V,3854.940,N,07702.533,W,83.0,3.15,190416,,E*4A
$GPGGA,075610.289,3854.940,N,07702.533,W,0,04,0.3,,M,,M,,*7E
$GPGLL,3854.940,N,07702.533,W,075611.289,V*36
$GPVTG,3.15,T,,M,83.0,N,153.7,K*6C
$GPRMC,075613.289,V,3854.941,N,07702.534,W,6.3,3.49,190416,,E*70
$GPGGA,075614.289,3854.941,N,07702.534,W,0,04,0.3,,M,,M,,*7C
$GPGLL,3854.941,N,07702.534,W,075615.289,V*34
$GPVTG,3.49,T,,M,6.3,N,11.7,K*6C
$GPRMC,075617.289,V,3854.943,N,07702.535,W,32.1,3.42,190416,,E*49
$GPGGA,075618.289,3854.943,N,07702.535,W,0,04,0.3,,M,,M,,*73
$GPGLL,3854.943,N,07702.535,W,075619.289,V*3B
$GPVTG,3.42,T,,M,32.1,N,59.4,K*5D
$GPRMC,075621.289,V,3854.944,N,07702.537,W,94.4,3.41,190416,,E*43
$GPGGA,075622.289,3854.944,N,07702.537,W,0,04,0.3,,M,,M,,*7F
$GPGLL,3854.944,N,07702.537,W,075623.289,V*37
$GPVTG,3.41,T,,M,94.4,N,174.8,K*65
$GPRMC,075625.289,V,3854.945,N,07702.538,W,33.6,3.49,190416,,E*4E
$GPGGA,075626.289,3854.945,N,07702.538,W,0,04,0.3,,M,,M,,*75
$GPGLL,3854.945,N,07702.538,W,075627.289,V*3D
$GPVTG,3.49,T,,M,33.6,N,62.1,K*5D
$GPRMC,075629.289,V,3854.946,N,07702.539,W,82.9,3.41,190416,,E*4D
$GPGGA,075630.289,3854.946,N,07702.539,W,0,04,0.3,,M,,M,,*70
$GPGLL,3854.946,N,07702.539,W,075631.289,V*38
$GPVTG,3.41,T,,M,82.9,N,153.5,K*67
$GPRMC,075633.289,V,3854.947,N,07702.541,W,46.8,3.34,190416,,E*43
$GPGGA,075634.289,3854.947,N,07702.541,W,0,04,0.3,,M,,M,,*7A
$GPGLL,3854.947,N,07702.541,W,075635.289,V*32
$GPVTG,3.34,T,,M,46.8,N,86.7,K*57
$GPRMC,075637.289,V,3854.948,N,07702.543,W,59.8,3.33,190416,,E*43
$GPGGA,075638.289,3854.948,N,07702.543,W,0,04,0.3,,M,,M,,*7B
$GPGLL,3854.948,N,07702.543,W,075639.289,V*33
$GPVTG,3.33,T,,M,59.8,N,110.8,K*6F
$GPRMC,075641.289,V,3854.949,N,07702.544,W,65.0,3.29,190416,,E*48
$GPGGA,075642.289,3854.949,N,07702.544,W,0,04,0.3,,M,,M,,*70
$GPGLL,3854.949,N,07702.544,W,075643.289,V*38
$GPVTG,3.29,T,,M,65.0,N,120.4,K*6C
$GPRMC,075645.289,V,3854.949,N,07702.546,W,15.3,3.30,190416,,E*42
$GPGGA,075646.289,3854.949,N,07702.546,W,0,04,0.3,,M,,M,,*76
$GPGLL,3854.949,N,07702.546,W,075647.289,V*3E
$GPVTG,3.30,T,,M,15.3,N,28.3,K*5E
$GPRMC,075649.289,V,3854.950,N,07702.548,W,55.6,3.19,190416,,E*42
$GPGGA,075650.289,3854.950,N,07702.548,W,0,04,0.3,,M,,M,,*77
$GPGLL,3854.950,N,07702.548,W,075651.289,V*3F
$GPVTG,3.19,T,,M,55.6,N,103.0,K*6F
$GPGSA,A,2,17,18,18,19,08,07,,,,,,,0.8,0.5,0.4*3B
$GPGSV,2,1,06,17,11,229,43,18,49,303,52,18,23,002,50,19,86,052,44*79
$GPGSV,2,2,06,08,14,185,68,07,45,319,44*7D
$GPRMC,075656.289,V,3854.951,N,07702.549,W,59.8,3.23,190416,,E*47
$GPGGA,075657.289,3854.951,N,07702.549,W,0,04,0.5,,M,,M,,*76
$GPGLL,3854.951,N,07702.549,W,075658.289,V*36
$GPVTG,3.23,T,,M,59.8,N,110.8,K*6E
$GPRMC,075700.289,V,3854.951,N,07702.551,W,42.9,3.21,190416,,E*45
$GPGGA,075701.289,3854.951,N,07702.551,W,0,04,0.5,,M,,M,,*7D
$GPGLL,3854.951,N,07702.551,W,075702.289,V*31
$GPVTG,3.21,T,,M,42.9,N,79.4,K*55
$GPRMC,075704.289,V,3854.951,N,07702.553,W,39.8,3.13,190416,,E*4F
$GPGGA,075705.289,3854.951,N,07702.553,W,0,04,0.5,,M,,M,,*7B
$GPGLL,3854.951,N,07702.553,W,075706.289,V*37
$GPVTG,3.13,T,,M,39.8,N,73.7,K*50
$GPGSA,A,3,17,18,18,19,08,07,,,,,,,0.6,0.6,0.1*32
$GPGSV,2,1,06,17,09,114,52,18,30,184,28,18,70,030,26,19,47,248,24*77
$GPGSV,2,2,06,08,35,140,61,07,28,308,69*7A
$GPRMC,075711.289,V,3854.952,N,07702.554,W,42.0,3.20,190416,,E*4B
$GPGGA,075712.289,3854.952,N,07702.554,W,0,04,0.6,,M,,M,,*7A
$GPGLL,3854.952,N,07702.554,W,075713.289,V*37
$GPVTG,3.20,T,,M,42.0,N,77.8,K*5F
$GPRMC,075715.289,V,3854.953,N,07702.556,W,98.0,3.27,190416,,E*4C
$GPGGA,075716.289,3854.953,N,07702.556,W,0,04,0.6,,M,,M,,*7D
$GPGLL,3854.953,N,07702.556,W,075717.289,V*30
$GPVTG,3.27,T,,M,98.0,N,181.4,K*6B
$GPRMC,075719.289,V,3854.954,N,07702.558,W,18.5,3.32,190416,,E*40
$GPGGA,075720.289,3854.954,N,07702.558,W,0,04,0.6,,M,,M,,*71
$GPGLL,3854.954,N,07702.558,W,075721.289,V*3C
$GPVTG,3.32,T,,M,18.5,N,34.2,K*5B
$GPRMC,075723.289,V,3854.955,N,07702.559,W,68.7,3.41,190416,,E*48
$GPGGA,075724.289,3854.955,N,07702.559,W,0,04,0.6,,M,,M,,*75
$GPGLL,3854.955,N,07702.559,W,075725.289,V*38
$GPVTG,3.41,T,,M,68.7,N,127.3,K*68
$GPGSA,A,2,17,18,18,19,08,07,,,,,,,0.5,0.6,0.1*30
$GPGSV,2,1,06,17,33,287,28,18,44,245,78,18,15,105,24,19,07,317,77*7D
$GPGSV,2,2,06,08,71,215,34,07,10,168,43*7E
$GPRMC,075730.289,V,3854.956,N,07702.561,W,22.6,3.40,190416,,E*4C
$GPGGA,075731.289,3854.956,N,07702.561,W,0,04,0.6,,M,,M,,*79
$GPGLL,3854.956,N,07702.561,W,075732.289,V*36
$GPVTG,3.40,T,,M,22.6,N,41.8,K*5C
$GPRMC,075734.289,V,3854.957,N,07702.562,W,55.8,3.44,190416,,E*40
$GPGGA,075735.289,3854.957,N,07702.562,W,0,04,0.6,,M,,M,,*7F
$GPGLL,3854.957,N,07702.562,W,075736.289,V*30
$GPVTG,3.44,T,,M,55.8,N,103.4,K*6D
$GPGSA,A,2,17,18,18,19,08,07,,,,,,,0.7,0.1,0.1*35
$GPGSV,2,1,06,17,31,243,47,18,09,251,18,18,52,156,59,19,08,290,81*73
$GPGSV,2,2,06,08,27,069,18,07,36,308,22*7D
$GPRMC,075741.289,V,3854.958,N,07702.563,W,29.1,3.47,190416,,E*4D
$GPGGA,075742.289,3854.958,N,07702.563,W,0,04,0.1,,M,,M,,*76
$GPGLL,3854.958,N,07702.563,W,075743.289,V*3C
$GPVTG,3.47,T,,M,29.1,N,53.9,K*55
$GPRMC,075745.289,V,3854.960,N,07702.564,W,43.0,3.58,190416,,E*46
$GPGGA,075746.289,3854.960,N,07702.564,W,0,04,0.1,,M,,M,,*7E
$GPGLL,3854.960,N,07702.564,W,075747.289,V*34
$GPVTG,3.58,T,,M,43.0,N,79.6,K*51
$GPGSA,A,2,17,18,18,19,08,07,,,,,,,0.3,0.2,0.4*37
$GPGSV,2,1,06,17,80,270,83,18,88,244,52,18,44,082,20,19,39,308,56*7B
$GPGSV,2,2,06,08,81,326,73,07,70,248,32*72
$GPRMC,075752.289,V,3854.961,N,07702.566,W,55.9,3.53,190416,,E*46
$GPGGA,075753.289,3854.961,N,07702.566,W,0,04,0.2,,M,,M,,*7A
$GPGLL,3854.961,N,07702.566,W,075754.289,V*35
$GPVTG,3.53,T,,M,55.9,N,103.6,K*68
$GPRMC,075756.289,V,3854.962,N,07702.567,W,80.7,3.50,190416,,E*45
$GPGGA,075757.289,3854.962,N,07702.567,W,0,04,0.2,,M,,M,,*7C
$GPGLL,3854.962,N,07702.567,W,075758.289,V*3B
$GPVTG,3.50,T,,M,80.7,N,149.5,K*60
$GPRMC,075800.289,V,3854.963,N,07702.568,W,12.1,3.51,190416,,E*4B
$GPGGA,075801.289,3854.963,N,07702.568,W,0,04,0.2,,M,,M,,*7E
$GPGLL,3854.963,N,07702.568,W,075802.289,V*35
$GPVTG,3.51,T,,M,12.1,N,22.5,K*50
$GPRMC,075804.289,V,3854.965,N,07702.569,W,42.5,3.59,190416,,E*41
$GPGGA,075805.289,3854.965,N,07702.569,W,0,04,0.2,,M,,M,,*7D
$GPGLL,3854.965,N,07702.569,W,075806.289,V*36
$GPVTG,3.59,T,,M,42.5,N,78.7,K*54
$GPRMC,075808.289,V,3854.966,N,07702.570,W,8.5,3.55,190416,,E*74
$GPGGA,075809.289,3854.966,N,07702.570,W,0,04,0.2,,M,,M,,*7A
$GPGLL,3854.966,N,07702.570,W,075810.289,V*3A
$GPVTG,3.55,T,,M,8.5,N,15.7,K*6D
$GPRMC,075812.289,V,3854.968,N,07702.572,W,19.3,3.53,190416,,E*43
$GPGGA,075813.289,3854.968,N,07702.572,W,0,04,0.2,,M,,M,,*7D
$GPGLL,3854.968,N,07702.572,W,075814.289,V*32
$GPVTG,3.53,T,,M,19.3,N,35.8,K*50
$GPRMC,075816.289,V,3854.969,N,07702.573,W,68.1,3.36,190416,,E*40
$GPGGA,075817.289,3854.969,N,07702.573,W,0,04,0.2,,M,,M,,*79
$GPGLL,3854.969,N,07702.573,W,075818.289,V*3E
$GPVTG,3.36,T,,M,68.1,N,126.1,K*6D
$GPRMC,075820.289,V,3854.970,N,07702.575,W,23.9,3.37,190416,,E*4D
$GPGGA,075821.289,3854.970,N,07702.575,W,0,04,0.2,,M,,M,,*72
$GPGLL,3854.970,N,07702.575,W,075822.289,V*39
$GPVTG,3.37,T,,M,23.9,N,44.2,K*5D
$GPRMC,075824.289,V,3854.970,N,07702.576,W,0.0,3.29,190416,,E*7D
$GPGGA,075825.289,3854.970,N,07702.576,W,0,04,0.2,,M,,M,,*75
$GPGLL,3854.970,N,07702.576,W,075826.289,V*3E
$GPVTG,3.29,T,,M,0.0,N,0.0,K*58
$GPRMC,075828.289,V,3854.971,N,07702.578,W,67.8,3.28,190416,,E*46
$GPGGA,075829.289,3854.971,N,07702.578,W,0,04,0.2,,M,,M,,*76
$GPGLL,3854.971,N,07702.578,W,075830.289,V*36
$GPVTG,3.28,T,,M,67.8,N,125.6,K*60
$GPRMC,075832.289,V,3854.972,N,07702.579,W,62.8,3.32,190416,,E*41
$GPGGA,075833.289,3854.972,N,07702.579,W,0,04,0.2,,M,,M,,*7F
$GPGLL,3854.972,N,07702.579,W,075834.289,V*30
$GPVTG,3.32,T,,M,62.8,N,116.4,K*6C
$GPGSA,A,2,17,18,18,19,08,07,,,,,,,0.4,0.0,0.5*33
$GPGSV,2,1,06,17,50,094,60,18,80,232,66,18,52,045,47,19,22,190,31*78
$GPGSV,2,2,06,08,22,187,88,07,11,358,21*73
$GPRMC,075839.289,V,3854.973,N,07702.581,W,69.1,3.35,190416,,E*49
$GPGGA,075840.289,3854.973,N,07702.581,W,0,04,0.0,,M,,M,,*7F
$GPGLL,3854.973,N,07702.581,W,075841.289,V*34
$GPVTG,3.35,T,,M,69.1,N,128.0,K*60
$GPRMC,075843.289,V,3854.974,N,07702.582,W,9.3,3.42,190416,,E*74
$GPGGA,075844.289,3854.974,N,07702.582,W,0,04,0.0,,M,,M,,*7F
$GPGLL,3854.974,N,07702.582,W,075845.289,V*34
$GPVTG,3.42,T,,M,9.3,N,17.2,K*6B
$GPRMC,075847.289,V,3854.975,N,07702.584,W,33.8,3.51,190416,,E*47
$GPGGA,075848.289,3854.975,N,07702.584,W,0,04,0.0,,M,,M,,*74
$GPGLL,3854.975,N,07702.584,W,075849.289,V*3F
$GPVTG,3.51,T,,M,33.8,N,62.6,K*5D
$GPRMC,075851.289,V,3854.977,N,07702.585,W,97.5,3.58,190416,,E*49
$GPGGA,075852.289,3854.977,N,07702.585,W,0,04,0.0,,M,,M,,*7C
$GPGLL,3854.977,N,07702.585,W,075853.289,V*37
$GPVTG,3.58,T,,M,97.5,N,180.6,K*6A
$GPRMC,075855.289,V,3854.978,N,07702.586,W,28.3,3.66,190416,,E*4E
$GPGGA,075856.289,3854.978,N,07702.586,W,0,04,0.0,,M,,M,,*74
$GPGLL,3854.978,N,07702.586,W,075857.289,V*3F
$GPVTG,3.66,T,,M,28.3,N,52.5,K*58
$GPRMC,075859.289,V,3854.980,N,07702.586,W,16.9,3.70,190416,,E*45
$GPGGA,075900.289,3854.980,N,07702.586,W,0,04,0.0,,M,,M,,*71
$GPGLL,3854.980,N,07702.586,W,075901.289,V*3A
$GPVTG,3.70,T,,M,16.9,N,31.3,K*5B
$GPRMC,075903.289,V,3854.982,N,07702.587,W,1.6,3.79,190416,,E*78
$GPGGA,075904.289,3854.982,N,07702.587,W,0,04,0.0,,M,,M,,*76
$GPGLL,3854.982,N,07702.587,W,075905.289,V*3D
$GPVTG,3.79,T,,M,1.6,N,3.0,K*59
$GPRMC,075907.289,V,3854.983,N,07702.587,W,90.1,3.86,190416,,E*42
$GPGGA,075908.289,3854.983,N,07702.587,W,0,04,0.0,,M,,M,,*7B
$GPGLL,3854.983,N,07702.587,W,075909.289,V*30
$GPVTG,3.86,T,,M,90.1,N,166.9,K*6D
$GPRMC,075911.289,V,3854.985,N,07702.588,W,59.5,3.96,190416,,E*4C
$GPGGA,075912.289,3854.985,N,07702.588,W,0,04,0.0,,M,,M,,*79
$GPGLL,3854.985,N,07702.588,W,075913.289,V*32
$GPVTG,3.96,T,,M,59.5,N,110.2,K*67
$GPGSA,A,3,17,18,18,19,08,07,,,,,,,0.3,0.6,0.2*34
$GPGSV,2,1,06,17,36,320,39,18,87,314,78,18,61,135,82,19,12,123,28*79
$GPGSV,2,2,06,08,30,010,48,07,16,138,25*74
$GPRMC,075918.289,V,3854.987,N,07702.588,W,73.2,3.92,190416,,E*4C
$GPGGA,075919.289,3854.987,N,07702.588,W,0,04,0.6,,M,,M,,*76
$GPGLL,3854.987,N,07702.588,W,075920.289,V*30
$GPVTG,3.92,T,,M,73.2,N,135.6,K*6F
$GPRMC,075922.289,V,3854.989,N,07702.588,W,63.5,3.88,190416,,E*46
$GPGGA,075923.289,3854.989,N,07702.588,W,0,04,0.6,,M,,M,,*71
$GPGLL,3854.989,N,07702.588,W,075924.289,V*3A
$GPVTG,3.88,T,,M,63.5,N,117.6,K*62
$GPRMC,075926.289,V,3854.990,N,07702.588,W,4.9,3.88,190416,,E*77
$GPGGA,075927.289,3854.990,N,07702.588,W,0,04,0.6,,M,,M,,*7D
$GPGLL,3854.990,N,07702.588,W,075928.289,V*3E
$GPVTG,3.88,T,,M,4.9,N,9.2,K*55
$GPRMC,075930.289,V,3854.992,N,07702.589,W,6.3,3.84,190416,,E*77
$GPGGA,075931.289,3854.992,N,07702.589,W,0,04,0.6,,M,,M,,*79
$GPGLL,3854.992,N,07702.589,W,075932.289,V*36
$GPVTG,3.84,T,,M,6.3,N,11.6,K*6C
$GPRMC,075934.289,V,3854.994,N,07702.589,W,93.4,3.88,190416,,E*42
$GPGGA,075935.289,3854.994,N,07702.589,W,0,04,0.6,,M,,M,,*7B
$GPGLL,3854.994,N,07702.589,W,075936.289,V*34
$GPVTG,3.88,T,,M,93.4,N,173.1,K*69
$GPRMC,075938.289,V,3854.996,N,07702.589,W,53.1,4.12,190416,,E*41
$GPGGA,075939.289,3854.996,N,07702.589,W,0,04,0.6,,M,,M,,*75
$GPGLL,3854.996,N,07702.589,W,075940.289,V*37
$GPVTG,4.12,T,,M,53.1,N,98.4,K*55
$GPRMC,075942.289,V,3854.998,N,07702.589,W,27.0,4.08,190416,,E*4B
$GPGGA,075943.289,3854.998,N,07702.589,W,0,04,0.6,,M,,M,,*76
$GPGLL,3854.998,N,07702.589,W,075944.289,V*3D
$GPVTG,4.08,T,,M,27.0,N,50.0,K*5C
$GPRMC,075946.289,V,3854.999,N,07702.589,W,44.2,4.02,190416,,E*43
$GPGGA,075947.289,3854.999,N,07702.589,W,0,04,0.6,,M,,M,,*73
$GPGLL,3854.999,N,07702.589,W,075948.289,V*30
$GPVTG,4.02,T,,M,44.2,N,81.9,K*54
