$GPGSV,4,1,14,03,69,056,26,04,,,31,09,38,279,29,22,40,108,24*4A
$GPGSV,4,2,14,23,61,322,34,26,16,078,26,31,07,037,22,01,34,181,*7F
$GPGSV,4,3,14,06,19,314,,07,17,206,,11,13,181,,16,15,108,*76
$GPGSV,4,4,14,17,04,260,,19,03,285,*7E
$GLGSV,3,1,10,74,56,135,25,73,40,047,26,70,04,098,14,65,09,303,31*6E
$GLGSV,3,2,10,88,14,314,29,87,23,265,16,71,40,060,27,72,44,343,27*60
$GLGSV,3,3,10,86,07,212,,75,15,182,*61
$GPGGA,050456.0,3146.918110,N,03438.375490,E,1,07,1.5,67.1,M,19.0,M,,*65
$GNGNS,050456.0,3146.918110,N,03438.375490,E,AN,07,1.5,67.1,19.0,,*5E
$GPVTG,189.1,T,186.2,M,0.0,N,0.0,K,A*2F
$GPRMC,050456.0,A,3146.918110,N,03438.375490,E,0.0,189.1,080416,2.9,E,A*06
$GPGSA,A,2,03,06,09,22,23,26,31,,,,,,1.7,1.5,0.9*33
$GNGSA,A,2,03,06,09,22,23,26,31,,,,,,1.7,1.5,0.9*2D
$GNGSA,A,2,,,,,,,,,,,,,1.7,1.5,0.9*26
$GPGSV,4,1,14,03,69,056,30,04,,,31,06,19,314,24,09,38,279,26*47
$GPGSV,4,2,14,19,03,285,13,22,40,108,27,23,61,322,34,26,16,078,26*7E
$GPGSV,4,3,14,31,07,037,23,01,34,181,,07,17,206,,11,13,181,*7A
$GPGSV,4,4,14,16,15,108,,17,04,260,*70
$GLGSV,3,1,10,74,56,135,25,73,40,047,25,70,04,098,14,65,09,303,26*6B
$GLGSV,3,2,10,88,14,314,29,87,23,265,16,71,40,060,29,72,44,343,27*6E
$GLGSV,3,3,10,86,07,212,,75,15,182,*61
$GPGGA,050457.0,3146.920084,N,03438.377305,E,1,08,1.4,67.0,M,19.0,M,,*65
$GNGNS,050457.0,3146.920084,N,03438.377305,E,AN,08,1.4,67.0,19.0,,*5E
$GPVTG,189.1,T,186.2,M,0.0,N,0.0,K,A*2F
$GPRMC,050457.0,A,3146.920084,N,03438.377305,E,0.0,189.1,080416,2.9,E,A*09
$GPGSA,A,2,03,06,09,19,22,23,26,31,,,,,1.6,1.4,0.8*3A
$GNGSA,A,2,03,06,09,19,22,23,26,31,,,,,1.6,1.4,0.8*24
$GNGSA,A,2,,,,,,,,,,,,,1.6,1.4,0.8*27
$GPGSV,4,1,14,03,69,056,33,04,,,31,06,19,314,24,09,38,279,22*40
$GPGSV,4,2,14,19,03,285,13,22,40,108,28,23,61,322,35,26,16,078,25*73
$GPGSV,4,3,14,31,07,037,25,01,34,181,,07,17,206,,11,13,181,*7C
$GPGSV,4,4,14,16,15,108,,17,04,260,*70
$GLGSV,3,1,10,74,56,135,27,73,40,047,30,70,04,098,14,65,09,303,27*6C
$GLGSV,3,2,10,88,14,314,29,87,23,265,15,71,40,060,31,72,44,343,32*60
$GLGSV,3,3,10,86,07,212,,75,15,182,*61
$GPGGA,050458.0,3146.920551,N,03438.377524,E,1,08,1.4,66.9,M,19.0,M,,*6A
$GNGNS,050458.0,3146.920551,N,03438.377524,E,AN,08,1.4,66.9,19.0,,*51
$GPVTG,189.1,T,186.2,M,0.0,N,0.0,K,A*2F
$GPRMC,050458.0,A,3146.920551,N,03438.377524,E,0.0,189.1,080416,2.9,E,A*0E
$GPGSA,A,2,03,06,09,19,22,23,26,31,,,,,1.6,1.4,0.8*3A
$GNGSA,A,2,03,06,09,19,22,23,26,31,,,,,1.6,1.4,0.8*24
$GNGSA,A,2,,,,,,,,,,,,,1.6,1.4,0.8*27
$GPGSV,4,1,14,03,69,056,32,04,,,31,06,19,314,22,09,38,279,22*47
$GPGSV,4,2,14,19,03,285,13,22,40,108,29,23,61,322,36,26,16,078,26*72
$GPGSV,4,3,14,31,07,037,24,01,34,181,,07,17,206,,11,13,181,*7D
$GPGSV,4,4,14,16,15,108,,17,04,260,*70
$GLGSV,3,1,10,74,56,135,26,73,40,047,28,70,04,098,13,65,09,303,21*65
$GLGSV,3,2,10,88,14,314,28,87,23,265,15,71,40,060,31,72,44,343,30*63
$GLGSV,3,3,10,86,07,212,,75,15,182,*61
$GPGGA,050459.0,3146.920381,N,03438.377569,E,1,08,1.4,66.9,M,19.0,M,,*69
$GNGNS,050459.0,3146.920381,N,03438.377569,E,AN,08,1.4,66.9,19.0,,*52
$GPVTG,189.1,T,186.2,M,0.0,N,0.0,K,A*2F
$GPRMC,050459.0,A,3146.920381,N,03438.377569,E,0.0,189.1,080416,2.9,E,A*0D
$GPGSA,A,2,03,06,09,19,22,23,26,31,,,,,1.6,1.4,0.8*3A
$GNGSA,A,2,03,06,09,19,22,23,26,31,,,,,1.6,1.4,0.8*24
$GNGSA,A,2,,,,,,,,,,,,,1.6,1.4,0.8*27
$GPGSV,4,1,14,03,69,056,32,04,,,31,06,19,314,21,09,38,279,22*44
$GPGSV,4,2,14,19,03,285,13,22,40,108,28,23,61,322,35,26,16,078,26*70
$GPGSV,4,3,14,31,07,037,24,01,34,181,,07,17,206,,11,13,181,*7D
$GPGSV,4,4,14,16,15,108,,17,04,260,*70
$GLGSV,3,1,10,74,56,135,26,73,40,047,27,70,04,098,13,65,09,303,19*61
$GLGSV,3,2,10,88,14,314,26,87,23,265,14,71,40,060,31,72,44,343,29*64
$GLGSV,3,3,10,86,07,212,,75,15,182,*61
$GPGGA,050500.0,3146.920655,N,03438.377512,E,1,08,1.4,66.8,M,19.0,M,,*65
$GNGNS,050500.0,3146.920655,N,03438.377512,E,AN,08,1.4,66.8,19.0,,*5E
$GPVTG,189.1,T,186.2,M,0.0,N,0.0,K,A*2F
$GPRMC,050500.0,A,3146.920655,N,03438.377512,E,0.0,189.1,080416,2.9,E,A*00
$GPGSA,A,2,03,06,09,19,22,23,26,31,,,,,1.6,1.4,0.8*3A
$GNGSA,A,2,03,06,09,19,22,23,26,31,,,,,1.6,1.4,0.8*24
$GNGSA,A,2,,,,,,,,,,,,,1.6,1.4,0.8*27
$GPGSV,4,1,14,03,69,056,33,04,,,30,06,19,314,23,09,38,279,22*46
$GPGSV,4,2,14,19,03,285,13,22,40,108,28,23,61,322,36,26,16,078,22*77
$GPGSV,4,3,14,31,07,037,23,01,34,181,,07,17,206,,11,13,181,*7A
$GPGSV,4,4,14,16,15,108,,17,04,260,*70
$GLGSV,3,1,10,74,56,135,25,73,40,047,28,70,04,098,12,65,09,303,25*63
$GLGSV,3,2,10,88,14,314,27,87,23,265,14,71,40,060,32,72,44,343,30*6E
$GLGSV,3,3,10,86,07,212,,75,15,182,*61
$GPGGA,050501.0,3146.919351,N,03438.378142,E,1,08,1.4,66.7,M,19.0,M,,*6E
$GNGNS,050501.0,3146.919351,N,03438.378142,E,AN,08,1.4,66.7,19.0,,*55
$GPVTG,189.1,T,186.2,M,0.0,N,0.0,K,A*2F
$GPRMC,050501.0,A,3146.919351,N,03438.378142,E,0.0,189.1,080416,2.9,E,A*04
$GPGSA,A,2,03,06,09,19,22,23,26,31,,,,,1.6,1.4,0.8*3A
$GNGSA,A,2,03,06,09,19,22,23,26,31,,,,,1.6,1.4,0.8*24
$GNGSA,A,2,,,,,,,,,,,,,1.6,1.4,0.8*27
$GPGSV,4,1,14,03,69,056,35,04,,,27,06,19,314,31,09,38,279,22*45
$GPGSV,4,2,14,19,03,285,13,22,40,108,30,23,61,322,35,26,16,078,22*7D
$GPGSV,4,3,14,31,07,037,26,01,34,181,,07,17,206,,11,13,181,*7F
$GPGSV,4,4,14,16,15,108,,17,04,260,*70
$GLGSV,3,1,10,74,56,135,25,73,40,047,31,70,04,098,12,65,09,303,30*6F
$GLGSV,3,2,10,88,14,314,29,87,23,265,14,71,40,060,31,72,44,343,32*61
$GLGSV,3,3,10,86,07,212,,75,15,182,*61
$GPGGA,050502.0,3146.918607,N,03438.378593,E,1,08,1.4,66.7,M,19.0,M,,*62
$GNGNS,050502.0,3146.918607,N,03438.378593,E,AN,08,1.4,66.7,19.0,,*59
$GPVTG,189.1,T,186.2,M,0.0,N,0.0,K,A*2F
$GPRMC,050502.0,A,3146.918607,N,03438.378593,E,0.0,189.1,080416,2.9,E,A*08
$GPGSA,A,2,03,06,09,19,22,23,26,31,,,,,1.6,1.4,0.8*3A
$GNGSA,A,2,03,06,09,19,22,23,26,31,,,,,1.6,1.4,0.8*24
$GNGSA,A,2,,,,,,,,,,,,,1.6,1.4,0.8*27
$GPGSV,4,1,14,03,69,056,35,04,,,24,06,19,314,32,09,38,279,24*43
$GPGSV,4,2,14,19,03,285,21,22,40,108,30,23,61,322,35,26,16,078,16*7B
$GPGSV,4,3,14,31,07,037,25,01,34,181,,07,17,206,,11,13,181,*7C
$GPGSV,4,4,14,16,15,108,,17,04,260,*70
$GLGSV,3,1,10,74,56,135,23,73,40,047,31,70,04,098,12,65,09,303,31*68
$GLGSV,3,2,10,88,14,314,29,87,23,265,14,71,40,060,31,72,44,343,30*63
$GLGSV,3,3,10,86,07,212,,75,15,182,*61
$GPGGA,050503.0,3146.918697,N,03438.378563,E,1,08,1.4,66.7,M,19.0,M,,*65
$GNGNS,050503.0,3146.918697,N,03438.378563,E,AN,08,1.4,66.7,19.0,,*5E
$GPVTG,189.1,T,186.2,M,0.0,N,0.0,K,A*2F
$GPRMC,050503.0,A,3146.918697,N,03438.378563,E,0.0,189.1,080416,2.9,E,A*0F
$GPGSA,A,2,03,06,09,19,22,23,26,31,,,,,1.6,1.4,0.8*3A
$GNGSA,A,2,03,06,09,19,22,23,26,31,,,,,1.6,1.4,0.8*24
$GNGSA,A,2,,,,,,,,,,,,,1.6,1.4,0.8*27
$GPGSV,4,1,14,03,69,056,33,04,,,25,06,19,314,30,09,38,279,21*43
$GPGSV,4,2,14,19,03,285,21,22,40,108,29,23,61,322,35,26,16,078,18*7D
$GPGSV,4,3,14,31,07,037,25,01,34,181,,07,17,206,,11,13,181,*7C
$GPGSV,4,4,14,16,15,108,,17,04,260,*70
$GLGSV,3,1,10,74,56,135,25,73,40,047,29,70,04,098,12,75,15,182,12*61
$GLGSV,3,2,10,65,09,303,28,88,14,314,29,87,23,265,15,71,40,060,31*60
$GLGSV,3,3,10,72,44,343,31,86,07,212,*6F
$GPGGA,050504.0,3146.902975,N,03438.377944,E,1,08,1.4,52.1,M,19.0,M,,*6D
$GNGNS,050504.0,3146.902975,N,03438.377944,E,AN,08,1.4,52.1,19.0,,*56
$GPVTG,189.1,T,186.2,M,0.5,N,0.8,K,A*22
$GPRMC,050504.0,A,3146.902975,N,03438.377944,E,0.5,189.1,080416,2.9,E,A*03
$GPGSA,A,2,03,06,09,19,22,23,26,31,,,,,1.6,1.4,0.8*3A
$GNGSA,A,2,03,06,09,19,22,23,26,31,,,,,1.6,1.4,0.8*24
$GNGSA,A,2,,,,,,,,,,,,,1.6,1.4,0.8*27
$GPGSV,4,1,14,03,69,056,30,04,,,24,06,19,314,31,09,38,279,28*49
$GPGSV,4,2,14,19,03,285,21,22,40,108,28,23,61,322,23,26,16,078,21*71
$GPGSV,4,3,14,31,07,037,21,01,34,181,,07,17,206,,11,13,181,*78
$GPGSV,4,4,14,16,15,108,,17,04,260,*70
$GLGSV,3,1,10,74,56,135,25,73,40,047,30,70,04,098,12,75,15,182,12*69
$GLGSV,3,2,10,65,09,303,28,88,14,314,29,87,23,265,15,71,40,060,20*60
$GLGSV,3,3,10,72,44,343,28,86,07,212,*67
$GPGGA,050505.0,3146.903483,N,03438.378121,E,1,08,1.4,50.2,M,19.0,M,,*6C
$GNGNS,050505.0,3146.903483,N,03438.378121,E,AN,08,1.4,50.2,19.0,,*57
$GPVTG,189.1,T,186.2,M,0.0,N,0.0,K,A*2F
$GPRMC,050505.0,A,3146.903483,N,03438.378121,E,0.0,189.1,080416,2.9,E,A*06
$GPGSA,A,2,03,06,09,19,22,23,26,31,,,,,1.6,1.4,0.8*3A
$GNGSA,A,2,03,06,09,19,22,23,26,31,,,,,1.6,1.4,0.8*24
$GNGSA,A,2,,,,,,,,,,,,,1.6,1.4,0.8*27
$GPGSV,4,1,14,03,69,056,28,04,,,27,06,19,314,25,09,38,279,22*4C
$GPGSV,4,2,14,19,03,285,15,22,40,108,30,23,61,322,25,26,16,078,22*7A
$GPGSV,4,3,14,31,07,037,17,01,34,181,,07,17,206,,11,13,181,*7D
$GPGSV,4,4,14,16,15,108,,17,04,260,*70
$GLGSV,3,1,10,74,56,135,27,73,40,047,32,70,04,098,12,75,15,182,12*69
$GLGSV,3,2,10,65,09,303,28,88,14,314,22,87,23,265,17,71,40,060,25*6C
$GLGSV,3,3,10,72,44,343,31,86,07,212,*6F
$GPGGA,050506.0,3146.903354,N,03438.378448,E,1,08,1.4,49.2,M,19.0,M,,*60
$GNGNS,050506.0,3146.903354,N,03438.378448,E,AN,08,1.4,49.2,19.0,,*5B
$GPVTG,189.1,T,186.2,M,0.0,N,0.0,K,A*2F
$GPRMC,050506.0,A,3146.903354,N,03438.378448,E,0.0,189.1,080416,2.9,E,A*02
$GPGSA,A,2,03,06,09,19,22,23,26,31,,,,,1.6,1.4,0.8*3A
$GNGSA,A,2,03,06,09,19,22,23,26,31,,,,,1.6,1.4,0.8*24
$GNGSA,A,2,,,,,,,,,,,,,1.6,1.4,0.8*27
$GPGSV,4,1,14,03,69,056,29,04,,,28,06,19,314,20,09,38,279,23*46
$GPGSV,4,2,14,19,03,285,15,22,40,108,30,23,61,322,24,26,16,078,20*79
$GPGSV,4,3,14,31,07,037,19,01,34,181,,07,17,206,,11,13,181,*73
$GPGSV,4,4,14,16,15,108,,17,04,260,*70
$GLGSV,3,1,10,74,56,135,29,73,40,047,31,70,04,098,12,75,15,182,12*64
$GLGSV,3,2,10,65,09,303,31,88,14,314,21,87,23,265,17,71,40,060,25*67
$GLGSV,3,3,10,72,44,343,30,86,07,212,*6E
$GPGGA,050507.0,3146.903045,N,03438.378367,E,1,08,1.4,48.9,M,19.0,M,,*62
$GNGNS,050507.0,3146.903045,N,03438.378367,E,AN,08,1.4,48.9,19.0,,*59
$GPVTG,189.1,T,186.2,M,0.0,N,0.0,K,A*2F
$GPRMC,050507.0,A,3146.903045,N,03438.378367,E,0.0,189.1,080416,2.9,E,A*0A
$GPGSA,A,2,03,06,09,19,22,23,26,31,,,,,1.6,1.4,0.8*3A
$GNGSA,A,2,03,06,09,19,22,23,26,31,,,,,1.6,1.4,0.8*24
$GNGSA,A,2,,,,,,,,,,,,,1.6,1.4,0.8*27
$GPGSV,4,1,14,03,69,056,26,04,,,29,06,19,314,19,09,38,279,19*4B
$GPGSV,4,2,14,19,03,285,15,22,40,108,31,23,61,322,21,26,16,078,23*7E
$GPGSV,4,3,14,31,07,037,19,01,34,181,,07,17,206,,11,13,181,*73
$GPGSV,4,4,14,16,15,108,,17,04,260,*70
$GLGSV,3,1,10,74,56,135,26,73,40,047,32,70,04,098,12,75,15,182,12*68
$GLGSV,3,2,10,65,09,303,29,88,14,314,17,87,23,265,17,71,40,060,26*68
$GLGSV,3,3,10,72,44,343,31,86,07,212,*6F
$GPGGA,050508.0,3146.902662,N,03438.378203,E,1,08,1.3,48.7,M,19.0,M,,*65
$GNGNS,050508.0,3146.902662,N,03438.378203,E,