$GPGSV,4,1,13,01,55,187,29,03,64,001,28,06,04,322,27,09,27,258,22*77
$GPGSV,4,2,13,11,29,189,25,17,11,278,25,22,53,082,16,23,56,282,15*78
$GPGSV,4,3,13,26,10,097,26,31,22,043,25,07,00,203,,16,04,125,*72
$GPGSV,4,4,13,19,06,303,*45
$GLGSV,3,1,09,74,33,151,27,73,45,080,14,70,14,078,21,86,26,226,25*60
$GLGSV,3,2,09,88,05,333,23,87,30,291,19,71,45,029,16,72,33,319,23*60
$GLGSV,3,3,09,80,11,029,*5F
$GPGGA,042201.0,3149.490255,N,03439.952051,E,1,07,0.9,8.5,M,19.0,M,,*55
$GNGNS,042201.0,3149.490255,N,03439.952051,E,AA,09,0.9,8.5,19.0,,*6F
$GPVTG,189.1,T,186.2,M,0.0,N,0.0,K,A*2F
$GPRMC,042201.0,A,3149.490255,N,03439.952051,E,0.0,189.1,080416,2.9,E,A*06
$GPGSA,A,2,01,03,11,17,22,23,31,,,,,,1.2,0.9,0.8*36
$GNGSA,A,2,01,03,11,17,22,23,31,,,,,,1.2,0.9,0.8*28
$GNGSA,A,2,72,74,,,,,,,,,,,1.2,0.9,0.8*29
$GPGSV,4,1,13,01,55,187,27,03,64,001,27,06,04,322,26,09,27,258,21*74
$GPGSV,4,2,13,11,29,189,20,17,11,278,21,22,53,082,16,23,56,282,15*79
$GPGSV,4,3,13,26,10,097,24,31,22,043,25,07,00,203,,16,04,125,*70
$GPGSV,4,4,13,19,06,303,*45
$GLGSV,3,1,09,74,33,151,22,73,45,080,14,70,14,078,20,86,26,226,19*6B
$GLGSV,3,2,09,88,05,333,22,87,30,291,18,71,45,029,16,72,33,319,21*62
$GLGSV,3,3,09,80,11,029,*5F
$GPGGA,042202.0,3149.490450,N,03439.951278,E,1,07,0.9,8.8,M,19.0,M,,*52
$GNGNS,042202.0,3149.490450,N,03439.951278,E,AA,09,0.9,8.8,19.0,,*68
$GPVTG,189.1,T,186.2,M,0.0,N,0.0,K,A*2F
$GPRMC,042202.0,A,3149.490450,N,03439.951278,E,0.0,189.1,080416,2.9,E,A*0C
$GPGSA,A,2,01,03,11,17,22,23,31,,,,,,1.2,0.9,0.8*36
$GNGSA,A,2,01,03,11,17,22,23,31,,,,,,1.2,0.9,0.8*28
$GNGSA,A,2,72,74,,,,,,,,,,,1.2,0.9,0.8*29
$GPGSV,4,1,13,01,55,187,19,03,64,001,28,06,04,322,25,09,27,258,18*7F
$GPGSV,4,2,13,11,29,189,23,17,11,278,23,22,53,082,29,23,56,282,17*76
$GPGSV,4,3,13,26,10,097,20,31,22,043,30,07,00,203,,16,04,125,*70
$GPGSV,4,4,13,19,06,303,*45
$GLGSV,3,1,09,74,33,151,28,73,45,080,24,70,14,078,30,86,26,226,17*6D
$GLGSV,3,2,09,88,05,333,23,87,30,291,21,71,45,029,17,72,33,319,32*6A
$GLGSV,3,3,09,80,11,029,*5F
$GPGGA,042203.0,3149.490293,N,03439.950967,E,1,07,0.9,9.4,M,19.0,M,,*53
$GNGNS,042203.0,3149.490293,N,03439.950967,E,AA,09,0.9,9.4,19.0,,*69
$GPVTG,189.1,T,186.2,M,0.0,N,0.0,K,A*2F
$GPRMC,042203.0,A,3149.490293,N,03439.950967,E,0.0,189.1,080416,2.9,E,A*00
$GPGSA,A,2,01,03,11,17,22,23,31,,,,,,1.2,0.9,0.8*36
$GNGSA,A,2,01,03,11,17,22,23,31,,,,,,1.2,0.9,0.8*28
$GNGSA,A,2,72,74,,,,,,,,,,,1.2,0.9,0.8*29
$GPGSV,4,1,13,01,55,187,21,03,64,001,29,06,04,322,27,09,27,258,18*77
$GPGSV,4,2,13,11,29,189,24,17,11,278,24,19,06,303,13,22,53,082,28*77
$GPGSV,4,3,13,23,56,282,24,26,10,097,20,31,22,043,30,07,00,203,*79
$GPGSV,4,4,13,16,04,125,*4E
$GLGSV,3,1,09,74,33,151,29,73,45,080,33,70,14,078,32,86,26,226,17*68
$GLGSV,3,2,09,88,05,333,25,87,30,291,24,71,45,029,17,72,33,319,33*68
$GLGSV,3,3,09,80,11,029,*5F
$GPGGA,042204.0,3149.490371,N,03439.949791,E,1,07,0.9,9.0,M,19.0,M,,*52
$GNGNS,042204.0,3149.490371,N,03439.949791,E,AA,09,0.9,9.0,19.0,,*68
$GPVTG,189.1,T,186.2,M,0.0,N,0.0,K,A*2F
$GPRMC,042204.0,A,3149.490371,N,03439.949791,E,0.0,189.1,080416,2.9,E,A*05
$GPGSA,A,2,01,03,11,17,22,23,31,,,,,,1.2,0.9,0.8*36
$GNGSA,A,2,01,03,11,17,22,23,31,,,,,,1.2,0.9,0.8*28
$GNGSA,A,2,72,74,,,,,,,,,,,1.2,0.9,0.8*29
$GPGSV,4,1,13,01,55,187,20,03,64,001,27,06,04,322,26,09,27,258,18*79
$GPGSV,4,2,13,11,29,189,23,17,11,278,23,19,06,303,15,22,53,082,27*7E
$GPGSV,4,3,13,23,56,282,22,26,10,097,21,31,22,043,30,07,00,203,*7E
$GPGSV,4,4,13,16,04,125,*4E
$GLGSV,3,1,09,74,33,151,30,73,45,080,33,70,14,078,31,86,26,226,17*63
$GLGSV,3,2,09,88,05,333,25,87,30,291,24,71,45,029,18,72,33,319,33*67
$GLGSV,3,3,09,80,11,029,*5F
$GPGGA,042205.0,3149.490044,N,03439.949286,E,1,07,0.9,9.0,M,19.0,M,,*55
$GNGNS,042205.0,3149.490044,N,03439.949286,E,AA,09,0.9,9.0,19.0,,*6F
$GPVTG,189.1,T,186.2,M,0.0,N,0.0,K,A*2F
$GPRMC,042205.0,A,3149.490044,N,03439.949286,E,0.0,189.1,080416,2.9,E,A*02
$GPGSA,A,2,01,03,11,17,22,23,31,,,,,,1.2,0.9,0.8*36
$GNGSA,A,2,01,03,11,17,22,23,31,,,,,,1.2,0.9,0.8*28
$GNGSA,A,2,72,74,,,,,,,,,,,1.2,0.9,0.8*29
$GPGSV,4,1,13,01,55,187,23,03,64,001,26,06,04,322,26,09,27,258,18*7B
$GPGSV,4,2,13,11,29,189,22,17,11,278,23,19,06,303,16,22,53,082,30*7A
$GPGSV,4,3,13,23,56,282,22,26,10,097,19,31,22,043,28,07,00,203,*7C
$GPGSV,4,4,13,16,04,125,*4E
$GLGSV,3,1,09,74,33,151,30,73,45,080,35,70,14,078,31,86,26,226,17*65
$GLGSV,3,2,09,80,11,029,12,88,05,333,25,87,30,291,25,71,45,029,22*61
$GLGSV,3,3,09,72,33,319,33*52
$GPGGA,042206.0,3149.489782,N,03439.949278,E,1,07,0.9,8.2,M,19.0,M,,*51
$GNGNS,042206.0,3149.489782,N,03439.949278,E,AA,09,0.9,8.2,19.0,,*6B
$GPVTG,189.1,T,186.2,M,0.0,N,0.0,K,A*2F
$GPRMC,042206.0,A,3149.489782,N,03439.949278,E,0.0,189.1,080416,2.9,E,A*05
$GPGSA,A,2,01,03,11,17,22,23,31,,,,,,1.2,0.9,0.8*36
$GNGSA,A,2,01,03,11,17,22,23,31,,,,,,1.2,0.9,0.8*28
$GNGSA,A,2,72,74,,,,,,,,,,,1.2,0.9,0.8*29
$GPGSV,4,1,14,01,55,187,24,03,64,001,25,04,,,24,06,04,322,26*40
$GPGSV,4,2,14,09,27,258,18,11,29,189,22,17,11,278,24,19,06,303,17*7E
$GPGSV,4,3,14,22,53,082,30,23,56,282,23,26,10,097,20,31,22,043,29*78
$GPGSV,4,4,14,07,00,203,,16,04,125,*7F
$GLGSV,3,1,09,74,33,151,31,73,45,080,35,70,14,078,31,86,26,226,17*64
$GLGSV,3,2,09,80,11,029,13,88,05,333,24,87,30,291,26,71,45,029,22*62
$GLGSV,3,3,09,72,33,319,33*52
$GPGGA,042207.0,3149.489563,N,03439.949075,E,1,07,0.9,8.4,M,19.0,M,,*54
$GNGNS,042207.0,3149.489563,N,03439.949075,E,AA,09,0.9,8.4,19.0,,*6E
$GPVTG,189.1,T,186.2,M,0.0,N,0.0,K,A*2F
$GPRMC,042207.0,A,3149.489563,N,03439.949075,E,0.0,189.1,080416,2.9,E,A*06
$GPGSA,A,2,01,03,11,17,22,23,31,,,,,,1.2,0.9,0.8*36
$GNGSA,A,2,01,03,11,17,22,23,31,,,,,,1.2,0.9,0.8*28
$GNGSA,A,2,72,74,,,,,,,,,,,1.2,0.9,0.8*29
$GPGSV,4,1,14,01,55,187,24,03,64,001,28,04,,,24,06,04,322,26*4D
$GPGSV,4,2,14,09,27,258,14,11,29,189,22,17,11,278,18,19,06,303,21*78
$GPGSV,4,3,14,22,53,082,27,23,56,282,19,26,10,097,20,31,22,043,30*7F
$GPGSV,4,4,14,07,00,203,,16,04,125,*7F
$GLGSV,3,1,09,74,33,151,33,73,45,080,34,70,14,078,32,86,26,226,13*60
$GLGSV,3,2,09,80,11,029,13,88,05,333,24,87,30,291,23,71,45,029,21*64
$GLGSV,3,3,09,72,33,319,31*50
$GPGGA,042208.0,3149.489742,N,03439.948867,E,1,07,0.9,9.3,M,19.0,M,,*56
$GNGNS,042208.0,3149.489742,N,03439.948867,E,AA,09,0.9,9.3,19.0,,*6C
$GPVTG,189.1,T,186.2,M,0.0,N,0.0,K,A*2F
$GPRMC,042208.0,A,3149.489742,N,03439.948867,E,0.0,189.1,080416,2.9,E,A*02
$GPGSA,A,2,01,03,11,17,22,23,31,,,,,,1.2,0.9,0.8*36
$GNGSA,A,2,01,03,11,17,22,23,31,,,,,,1.2,0.9,0.8*28
$GNGSA,A,2,72,74,,,,,,,,,,,1.2,0.9,0.8*29
$GPGSV,4,1,14,01,55,187,30,03,64,001,26,04,,,24,06,04,322,24*44
$GPGSV,4,2,14,09,27,258,17,11,29,189,21,17,11,278,19,19,06,303,21*79
$GPGSV,4,3,14,22,53,082,19,23,56,282,21,26,10,097,23,31,22,043,29*72
$GPGSV,4,4,14,07,00,203,,16,04,125,*7F
$GLGSV,3,1,09,74,33,151,32,73,45,080,30,70,14,078,32,86,26,226,13*65
$GLGSV,3,2,09,80,11,029,13,88,05,333,23,87,30,291,16,71,45,029,25*61
$GLGSV,3,3,09,72,33,319,25*55
$GPGGA,042209.0,3149.489767,N,03439.948811,E,1,07,0.9,9.4,M,19.0,M,,*56
$GNGNS,042209.0,3149.489767,N,03439.948811,E,AA,09,0.9,9.4,19.0,,*6C
$GPVTG,189.1,T,186.2,M,0.0,N,0.0,K,A*2F
$GPRMC,042209.0,A,3149.489767,N,03439.948811,E,0.0,189.1,080416,2.9,E,A*05
$GPGSA,A,2,01,03,11,17,22,23,31,,,,,,1.2,0.9,0.8*36
$GNGSA,A,2,01,03,11,17,22,23,31,,,,,,1.2,0.9,0.8*28
$GNGSA,A,2,72,74,,,,,,,,,,,1.2,0.9,0.8*29
$GPGSV,4,1,14,01,55,187,29,03,64,001,25,04,,,24,06,04,322,24*4F
$GPGSV,4,2,14,09,27,258,19,11,29,189,19,17,11,278,20,19,06,303,16*72
$GPGSV,4,3,14,22,53,082,17,23,56,282,18,26,10,097,25,31,22,043,28*71
$GPGSV,4,4,14,07,00,203,,16,04,125,*7F
$GLGSV,3,1,09,74,33,151,31,73,45,080,30,70,14,078,33,86,26,226,16*62
$GLGSV,3,2,09,80,11,029,13,88,05,333,21,87,30,291,16,71,45,029,24*62
$GLGSV,3,3,09,72,33,319,27*57
$GPGGA,042210.0,3149.489733,N,03439.948801,E,1,07,0.9,9.2,M,19.0,M,,*58
$GNGNS,042210.0,3149.489733,N,03439.948801,E,AA,09,0.9,9.2,19.0,,*62
$GPVTG,189.1,T,186.2,M,0.0,N,0.0,K,A*2F
$GPRMC,042210.0,A,3149.489733,N,03439.948801,E,0.0,189.1,080416,2.9,E,A*0D
$GPGSA,A,2,01,03,11,17,22,23,31,,,,,,1.2,0.9,0.8*36
$GNGSA,A,2,01,03,11,17,22,23,31,,,,,,1.2,0.9,0.8*28
$GNGSA,A,2,72,74,,,,,,,,,,,1.2,0.9,0.8*29
$GPGSV,4,1,14,01,55,187,28,03,64,001,27,04,,,25,06,04,322,20*49
$GPGSV,4,2,14,09,27,258,17,11,29,189,22,17,11,278,19,19,06,303,19*71
$GPGSV,4,3,14,22,53,082,17,23,56,282,18,26,10,097,29,31,22,043,23*76
$GPGSV,4,4,14,07,00,203,,16,04,125,*7F
$GLGSV,3,1,09,74,33,151,32,73,45,080,30,70,14,078,30,86,26,226,16*62
$GLGSV,3,2,09,80,11,029,13,88,05,333,21,87,30,291,15,71,45,029,24*61
$GLGSV,3,3,09,72,33,319,26*56
$GPGGA,042211.0,3149.489757,N,03439.948781,E,1,07,0.9,9.3,M,19.0,M,,*5D
$GNGNS,042211.0,3149.489757,N,03439.948781,E,AA,09,0.9,9.3,19.0,,*67
$GPVTG,189.1,T,186.2,M,0.0,N,0.0,K,A*2F
$GPRMC,042211.0,A,3149.489757,N,03439.948781,E,0.0,189.1,080416,2.9,E,A*09
$GPGSA,A,2,01,03,11,17,22,23,31,,,,,,1.2,0.9,0.8*36
$GNGSA,A,2,01,03,11,17,22,23,31,,,,,,1.2,0.9,0.8*28
$GNGSA,A,2,72,74,,,,,,,,,,,1.2,0.9,0.8*29
$GPGSV,4,1,14,01,55,187,24,03,64,001,25,04,,,27,06,04,322,24*41
$GPGSV,4,2,14,09,27,258,20,11,29,189,24,17,11,278,20,19,06,303,19*79
$GPGSV,4,3,14,22,53,082,24,23,56,282,18,26,10,097,26,31,22,043,26*7C
$GPGSV,4,4,14,07,00,203,,16,04,125,*7F
$GLGSV,3,1,09,74,33,151,33,73,45,080,34,70,14,078,32,86,26,226,16*65
$GLGSV,3,2,09,80,11,029,13,88,05,333,22,87,30,291,17,71,45,029,26*62
$GLGSV,3,3,09,72,33,319,28*58
$GPGGA,042212.0,3149.489764,N,03439.948767,E,1,07,0.9,9.3,M,19.0,M,,*56
$GNGNS,042212.0,3149.489764,N,03439.948767,E,AA,09,0.9,9.3,19.0,,*6C
$GPVTG,189.1,T,186.2,M,0.0,N,0.0,K,A*2F
$GPRMC,042212.0,A,3149.489764,N,03439.948767,E,0.0,189.1,080416,2.9,E,A*02
$GPGSA,A,2,01,03,11,17,22,23,31,,,,,,1.2,0.9,0.8*36
$GNGSA,A,2,01,03,11,17,22,23,31,,,,,,1.2,0.9,0.8*28
$GNGSA,A,2,72,74,,,,,,,,,,,1.2,0.9,0.8*29
$GPGSV,4,1,14,01,55,187,26,03,64,001,28,04,,,26,06,04,322,24*4F
$GPGSV,4,2,14,09,27,258,19,11,29,189,20,17,11,278,20,19,06,303,18*76
$GPGSV,4,3,14,22,53,082,27,23,56,282,15,26,10,097,17,31,22,043,29*7F
$GPGSV,4,4,14,07,00,203,,16,04,125,*7F
$GLGSV,3,1,09,74,33,151,34,73,45,080,34,70,14,078,31,86,26,226,15*62
$GLGSV,3,2,09,80,11,029,13,88,05,333,21,87,30,291,20,71,45,029,27*64
$GLGSV,3,3,09,72,33,319,31*50
$GPGGA,042213.0,3149.489770,N,03439.948762,E,1,07,0.9,9.3,M,19.0,M,,*57
$GNGNS,042213.0,3149.489770,N,03439.948762,E,AA,09,0.9,9.3,19.0,,*6D
$GPVTG,189.1,T,186.2,M,0.0,N,0.0,K,A*2F
$GPRMC,042213.0,A,3149.489770,N,03439.948762,E,0.0,189.1,080416,