$GPRMC,081433.039,V,3854.928,N,07702.496,W,78.7,1.53,190416,,E*40
$GPGGA,081434.039,3854.928,N,07702.496,W,0,00,,,M,,M,,*51
$GPGLL,3854.928,N,07702.496,W,081435.039,V*30
$GPVTG,1.53,T,,M,78.7,N,145.8,K*67
$GPGSA,A,2,19,09,18,13,04,13,,,,,,,0.2,0.6,0.9*32
$GPGSV,2,1,06,19,84,228,60,09,09,115,78,18,11,087,53,13,50,328,53*74
$GPGSV,2,2,06,04,10,308,26,13,52,122,59*7D
$GPRMC,081440.039,V,3854.927,N,07702.495,W,86.1,1.61,190416,,E*4E
$GPGGA,081441.039,3854.927,N,07702.495,W,0,04,0.6,,M,,M,,*73
$GPGLL,3854.927,N,07702.495,W,081442.039,V*3C
$GPVTG,1.61,T,,M,86.1,N,159.5,K*61
$GPRMC,081444.039,V,3854.926,N,07702.494,W,51.3,1.56,190416,,E*46
$GPGGA,081445.039,3854.926,N,07702.494,W,0,04,0.6,,M,,M,,*77
$GPGLL,3854.926,N,07702.494,W,081446.039,V*38
$GPVTG,1.56,T,,M,51.3,N,95.0,K*59
$GPRMC,081448.039,V,3854.924,N,07702.493,W,21.0,1.62,190416,,E*4C
$GPGGA,081449.039,3854.924,N,07702.493,W,0,04,0.6,,M,,M,,*7E
$GPGLL,3854.924,N,07702.493,W,081450.039,V*3A
$GPVTG,1.62,T,,M,21.0,N,38.8,K*55
$GPRMC,081452.039,V,3854.922,N,07702.492,W,50.7,1.70,190416,,E*42
$GPGGA,081453.039,3854.922,N,07702.492,W,0,04,0.6,,M,,M,,*72
$GPGLL,3854.922,N,07702.492,W,081454.039,V*39
$GPVTG,1.70,T,,M,50.7,N,93.8,K*56
$GPRMC,081456.039,V,3854.921,N,07702.491,W,83.7,1.65,190416,,E*4C
$GPGGA,081457.039,3854.921,N,07702.491,W,0,04,0.6,,M,,M,,*76
$GPGLL,3854.921,N,07702.491,W,081458.039,V*35
$GPVTG,1.65,T,,M,83.7,N,155.1,K*6E
$GPRMC,081500.039,V,3854.919,N,07702.490,W,56.8,1.66,190416,,E*40
$GPGGA,081501.039,3854.919,N,07702.490,W,0,04,0.6,,M,,M,,*7E
$GPGLL,3854.919,N,07702.490,W,081502.039,V*31
$GPVTG,1.66,T,,M,56.8,N,105.1,K*6F
$GPRMC,081504.039,V,3854.918,N,07702.489,W,72.2,1.56,190416,,E*42
$GPGGA,081505.039,3854.918,N,07702.489,W,0,04,0.6,,M,,M,,*73
$GPGLL,3854.918,N,07702.489,W,081506.039,V*3C
$GPVTG,1.56,T,,M,72.2,N,133.7,K*63
$GPRMC,081508.039,V,3854.916,N,07702.488,W,46.6,1.67,190416,,E*40
$GPGGA,081509.039,3854.916,N,07702.488,W,0,04,0.6,,M,,M,,*70
$GPGLL,3854.916,N,07702.488,W,081510.039,V*34
$GPVTG,1.67,T,,M,46.6,N,86.3,K*59
$GPRMC,081512.039,V,3854.915,N,07702.487,W,51.0,1.74,190416,,E*45
$GPGGA,081513.039,3854.915,N,07702.487,W,0,04,0.6,,M,,M,,*77
$GPGLL,3854.915,N,07702.487,W,081514.039,V*3C
$GPVTG,1.74,T,,M,51.0,N,94.5,K*5E
$GPRMC,081516.039,V,3854.913,N,07702.487,W,33.0,1.73,190416,,E*44
$GPGGA,081517.039,3854.913,N,07702.487,W,0,04,0.6,,M,,M,,*75
$GPGLL,3854.913,N,07702.487,W,081518.039,V*36
$GPVTG,1.73,T,,M,33.0,N,61.1,K*53
$GPRMC,081520.039,V,3854.911,N,07702.486,W,6.7,1.79,190416,,E*79
$GPGGA,081521.039,3854.911,N,07702.486,W,0,04,0.6,,M,,M,,*73
$GPGLL,3854.911,N,07702.486,W,081522.039,V*3C
$GPVTG,1.79,T,,M,6.7,N,12.4,K*69
$GPRMC,081524.039,V,3854.910,N,07702.485,W,74.7,1.73,190416,,E*40
$GPGGA,081525.039,3854.910,N,07702.485,W,0,04,0.6,,M,,M,,*75
$GPGLL,3854.910,N,07702.485,W,081526.039,V*3A
$GPVTG,1.73,T,,M,74.7,N,138.3,K*68
$GPRMC,081528.039,V,3854.908,N,07702.485,W,59.2,1.80,190416,,E*43
$GPGGA,081529.039,3854.908,N,07702.485,W,0,04,0.6,,M,,M,,*70
$GPGLL,3854.908,N,07702.485,W,081530.039,V*34
$GPVTG,1.80,T,,M,59.2,N,109.7,K*68
$GPRMC,081532.039,V,3854.906,N,07702.485,W,89.1,1.90,190416,,E*49
$GPGGA,081533.039,3854.906,N,07702.485,W,0,04,0.6,,M,,M,,*75
$GPGLL,3854.906,N,07702.485,W,081534.039,V*3E
$GPVTG,1.90,T,,M,89.1,N,165.1,K*6B
$GPGSA,A,3,19,09,18,13,04,13,,,,,,,0.0,0.9,0.9*3E
$GPGSV,2,1,06,19,62,298,86,09,27,132,63,18,63,116,63,13,61,269,54*72
$GPGSV,2,2,06,04,27,351,69,13,67,176,74*76
$GPRMC,081539.039,V,3854.904,N,07702.484,W,10.7,1.94,190416,,E*43
$GPGGA,081540.039,3854.904,N,07702.484,W,0,04,0.9,,M,,M,,*7D
$GPGLL,3854.904,N,07702.484,W,081541.039,V*3F
$GPVTG,1.94,T,,M,10.7,N,19.9,K*5B
$GPRMC,081543.039,V,3854.903,N,07702.484,W,43.2,2.00,190416,,E*44
$GPGGA,081544.039,3854.903,N,07702.484,W,0,04,0.9,,M,,M,,*7E
$GPGLL,3854.903,N,07702.484,W,081545.039,V*3C
$GPVTG,2.00,T,,M,43.2,N,80.0,K*5F
$GPRMC,081547.039,V,3854.901,N,07702.484,W,79.7,1.88,190416,,E*4D
$GPGGA,081548.039,3854.901,N,07702.484,W,0,04,0.9,,M,,M,,*70
$GPGLL,3854.901,N,07702.484,W,081549.039,V*32
$GPVTG,1.88,T,,M,79.7,N,147.6,K*6C
$GPRMC,081551.039,V,3854.899,N,07702.484,W,71.0,1.95,190416,,E*49
$GPGGA,081552.039,3854.899,N,07702.484,W,0,04,0.9,,M,,M,,*7B
$GPGLL,3854.899,N,07702.484,W,081553.039,V*39
$GPVTG,1.95,T,,M,71.0,N,131.6,K*6E
$GPGSA,A,2,19,09,18,13,04,13,,,,,,,0.9,0.3,0.8*3D
$GPGSV,2,1,06,19,57,195,58,09,12,001,52,18,44,033,24,13,25,356,35*76
$GPGSV,2,2,06,04,38,191,32,13,11,071,75*7E
$GPRMC,081558.039,V,3854.897,N,07702.483,W,1.3,1.84,190416,,E*7D
$GPGGA,081559.039,3854.897,N,07702.483,W,0,04,0.3,,M,,M,,*73
$GPGLL,3854.897,N,07702.483,W,081600.039,V*35
$GPVTG,1.84,T,,M,1.3,N,2.3,K*5E
$GPGSA,A,2,19,09,18,13,04,13,,,,,,,0.5,0.6,0.3*3F
$GPGSV,2,1,06,19,35,047,51,09,41,043,63,18,77,040,49,13,68,107,66*71
$GPGSV,2,2,06,04,71,046,64,13,59,327,48*79
$GPRMC,081605.039,V,3854.896,N,07702.483,W,89.6,1.86,190416,,E*40
$GPGGA,081606.039,3854.896,N,07702.483,W,0,04,0.6,,M,,M,,*7E
$GPGLL,3854.896,N,07702.483,W,081607.039,V*33
$GPVTG,1.86,T,,M,89.6,N,166.0,K*69
$GPRMC,081609.039,V,3854.894,N,07702.483,W,17.8,1.94,190416,,E*44
$GPGGA,081610.039,3854.894,N,07702.483,W,0,04,0.6,,M,,M,,*7B
$GPGLL,3854.894,N,07702.483,W,081611.039,V*36
$GPVTG,1.94,T,,M,17.8,N,33.0,K*52
$GPRMC,081613.039,V,3854.892,N,07702.483,W,23.0,1.91,190416,,E*43
$GPGGA,081614.039,3854.892,N,07702.483,W,0,04,0.6,,M,,M,,*79
$GPGLL,3854.892,N,07702.483,W,081615.039,V*34
$GPVTG,1.91,T,,M,23.0,N,42.6,K*58
$GPRMC,081617.039,V,3854.890,N,07702.483,W,70.4,1.97,190416,,E*41
$GPGGA,081618.039,3854.890,N,07702.483,W,0,04,0.6,,M,,M,,*77
$GPGLL,3854.890,N,07702.483,W,081619.039,V*3A
$GPVTG,1.97,T,,M,70.4,N,130.4,K*6A
$GPRMC,081621.039,V,3854.888,N,07702.483,W,32.7,2.05,190416,,E*40
$GPGGA,081622.039,3854.888,N,07702.483,W,0,04,0.6,,M,,M,,*77
$GPGLL,3854.888,N,07702.483,W,081623.039,V*3A
$GPVTG,2.05,T,,M,32.7,N,60.5,K*52
$GPRMC,081625.039,V,3854.887,N,07702.483,W,94.7,2.01,190416,,E*43
$GPGGA,081626.039,3854.887,N,07702.483,W,0,04,0.6,,M,,M,,*7C
$GPGLL,3854.887,N,07702.483,W,081627.039,V*31
$GPVTG,2.01,T,,M,94.7,N,175.5,K*6F
$GPRMC,081629.039,V,3854.885,N,07702.483,W,7.0,1.97,190416,,E*7C
$GPGGA,081630.039,3854.885,N,07702.483,W,0,04,0.6,,M,,M,,*79
$GPGLL,3854.885,N,07702.483,W,081631.039,V*34
$GPVTG,1.97,T,,M,7.0,N,13.0,K*6A
$GPRMC,081633.039,V,3854.883,N,07702.483,W,56.8,2.08,190416,,E*48
$GPGGA,081634.039,3854.883,N,07702.483,W,0,04,0.6,,M,,M,,*7B
$GPGLL,3854.883,N,07702.483,W,081635.039,V*36
$GPVTG,2.08,T,,M,56.8,N,105.1,K*64
$GPRMC,081637.039,V,3854.881,N,07702.483,W,89.4,2.00,190416,,E*48
$GPGGA,081638.039,3854.881,N,07702.483,W,0,04,0.6,,M,,M,,*75
$GPGLL,3854.881,N,07702.483,W,081639.039,V*38
$GPVTG,2.00,T,,M,89.4,N,165.6,K*63
$GPRMC,081641.039,V,3854.880,N,07702.482,W,43.2,1.80,190416,,E*42
$GPGGA,081642.039,3854.880,N,07702.482,W,0,04,0.6,,M,,M,,*78
$GPGLL,3854.880,N,07702.482,W,081643.039,V*35
$GPVTG,1.80,T,,M,43.2,N,80.1,K*55
$GPRMC,081645.039,V,3854.878,N,07702.482,W,1.0,1.75,190416,,E*7F
$GPGGA,081646.039,3854.878,N,07702.482,W,0,04,0.6,,M,,M,,*7B
$GPGLL,3854.878,N,07702.482,W,081647.039,V*36
$GPVTG,1.75,T,,M,1.0,N,1.9,K*5A
$GPRMC,081649.039,V,3854.876,N,07702.481,W,14.0,1.66,190416,,E*48
$GPGGA,081650.039,3854.876,N,07702.481,W,0,04,0.6,,M,,M,,*71
$GPGLL,3854.876,N,07702.481,W,081651.039,V*3C
$GPVTG,1.66,T,,M,14.0,N,26.0,K*50
$GPRMC,081653.039,V,3854.875,N,07702.480,W,98.6,1.63,190416,,E*46
$GPGGA,081654.039,3854.875,N,07702.480,W,0,04,0.6,,M,,M,,*77
$GPGLL,3854.875,N,07702.480,W,081655.039,V*3A
$GPVTG,1.63,T,,M,98.6,N,182.6,K*6E
$GPGSA,A,2,19,09,18,13,04,13,,,,,,,0.5,0.0,0.8*32
$GPGSV,2,1,06,19,46,114,26,09,79,095,69,18,79,103,60,13,15,002,57*77
$GPGSV,2,2,06,04,12,039,77,13,55,238,89*78
$GPRMC,081700.039,V,3854.873,N,07702.479,W,42.4,1.53,190416,,E*47
$GPGGA,081701.039,3854.873,N,07702.479,W,0,04,0.0,,M,,M,,*70
$GPGLL,3854.873,N,07702.479,W,081702.039,V*39
$GPVTG,1.53,T,,M,42.4,N,78.6,K*5C
$GPRMC,081704.039,V,3854.872,N,07702.477,W,87.0,1.48,190416,,E*4B
$GPGGA,081705.039,3854.872,N,07702.477,W,0,04,0.0,,M,,M,,*7B
$GPGLL,3854.872,N,07702.477,W,081706.039,V*32
$GPVTG,1.48,T,,M,87.0,N,161.1,K*65
$GPRMC,081708.039,V,3854.871,N,07702.476,W,22.8,1.41,190416,,E*4B
$GPGGA,081709.039,3854.871,N,07702.476,W,0,04,0.0,,M,,M,,*75
$GPGLL,3854.871,N,07702.476,W,081710.039,V*37
$GPVTG,1.41,T,,M,22.8,N,42.1,K*5B
$GPRMC,081712.039,V,3854.870,N,07702.475,W,30.7,1.52,190416,,E*4C
$GPGGA,081713.039,3854.870,N,07702.475,W,0,04,0.0,,M,,M,,*7C
$GPGLL,3854.870,N,07702.475,W,081714.039,V*31
$GPVTG,1.52,T,,M,30.7,N,56.9,K*58
$GPRMC,081716.039,V,3854.869,N,07702.473,W,94.4,1.47,190416,,E*4F
$GPGGA,081717.039,3854.869,N,07702.473,W,0,04,0.0,,M,,M,,*76
$GPGLL,3854.869,N,07702.473,W,081718.039,V*33
$GPVTG,1.47,T,,M,94.4,N,174.8,K*61
$GPRMC,081720.039,V,3854.868,N,07702.472,W,54.9,1.40,190416,,E*4C
$GPGGA,081721.039,3854.868,N,07702.472,W,0,04,0.0,,M,,M,,*73
$GPGLL,3854.868,N,07702.472,W,081722.039,V*3A
$GPVTG,1.40,T,,M,54.9,N,101.7,K*6A
$GPRMC,081724.039,V,3854.867,N,07702.470,W,62.7,1.32,190416,,E*4B
$GPGGA,081725.039,3854.867,N,07702.470,W,0,04,0.0,,M,,M,,*7A
$GPGLL,3854.867,N,07702.470,W,081726.039,V*33
$GPVTG,1.32,T,,M,62.7,N,116.2,K*67
$GPRMC,081728.039,V,3854.865,N,07702.469,W,30.0,1.53,190416,,E*4A
$GPGGA,081729.039,3854.865,N,07702.469,W,0,04,0.0,,M,,M,,*7C
$GPGLL,3854.865,N,07702.469,W,081730.039,V*3E
$GPVTG,1.53,T,,M,30.0,N,55.6,K*52
$GPRMC,081732.039,V,3854.864,N,07702.468,W,5.5,1.51,190416,,E*70
$GPGGA,081733.039,3854.864,N,07702.468,W,0,04,0.0,,M,,M,,*77
$GPGLL,3854.864,N,07702.468,W,081734.039,V*3A
$GPVTG,1.51,T,,M,5.5,N,10.1,K*65
$GPRMC,081736.039,V,3854.863,N,07702.466,W,27.4,1.48,190416,,E*44
$GPGGA,081737.039,3854.863,N,07702.466,W,0,04,0.0,,M,,M,,*7A
$GPGLL,3854.863,N,07702.466,W,081738.039,V*3F
$GPVTG,1.48,T,,M,27.4,N,50.7,K*5E
$GPRMC,081740.039,V,3854.862,N,07702.465,W,46.5,1.42,190416,,E*4B
$GPGGA,081741.039,3854.862,N,07702.465,W,0,04,0.0,,M,,M,,*79
$GPGLL,3854.862,N,07702.465,W,081742.039,V*30
$GPVTG,1.42,T,,M,46.5,N,86.0,K*5E
$GPRMC,081744.039,V,3854.861,N,07702.463,W,54.3,1.32,190416,,E*48
$GPGGA,081745.039,3854.861,N,07702.463,W,0,04,0.0,,M,,M,,*78
$GPGLL,3854.861,N,07702.463,W,081746.039,V*31
$GPVTG,1.32,T,,M,54.3,N,100.5,K*66
$GPRMC,081748.039,V,3854.860,N,07702.462,W,9.7,1.26,190416,,E*7D
$GPGGA,081749.039,3854.860,N,07702.462,W,0,04,0.0,,M,,M,,*74
$GPGLL,3854.860,N,07702.462,W,081750.039,V*36
$GPVTG,1.26,T,,M,9.7,N,17.9,K*64
$GPRMC,081752.039,V,3854.859,N,07702.460,W,47.8,1.33,190416,,E*4F
$GPGGA,081753.039,3854.859,N,07702.460,W,0,04,0.0,,M,,M,,*77
$GPGLL,3854.859,N,07702.460,W,081754.039,V*3A
$GPVTG,1.33,T,,M,47.8,N,88.5,K*5F
$GPRMC,081756.039,V,3854.858,N,07702.459,W,48.3,1.35,190416,,E*42
$GPGGA,081757.039,3854.858,N,07702.459,W,0,04,0.0,,M,,M,,*78
$GPGLL,3854.858,N,07702.459,W,081758.039,V*3D
$GPVTG,1.35,T,,M,48.3,N,89.5,K*5C
$GPRMC,081800.039,V,3854.858,N,07702.457,W,9.8,1.28,190416,,E*72
$GPGGA,081801.039,3854.858,N,07702.457,W,0,04,0.0,,M,,M,,*7A
$GPGLL,3854.858,N,07702.457,W,081802.039,V*33
$GPVTG,1.28,T,,M,9.8,N,18.1,K*62
$GPRMC,081804.039,V,3854.857,N,07702.455,W,96.5,1.30,190416,,E*49
$GPGGA,081805.039,3854.857,N,07702.455,W,0,04,0.0,,M,,M,,*73
$GPGLL,3854.857,N,07702.455,W,081806.039,V*3A
$GPVTG,1.30,T,,M,96.5,N,178.7,K*61
$GPGSA,A,2,19,09,18,13,04,13,,,,,,,0.5,0.7,0.4*39
$GPGSV,2,1,06,19,23,341,15,09,53,253,32,18,07,286,73,13,53,056,86*72
$GPGSV,2,2,06,04,35,078,47,13,60,330,30*76
$GPRMC,081811.039,V,3854.856,N,07702.454,W,39.9,1.24,190416,,E*41
$GPGGA,081812.039,3854.856,N,07702.454,W,0,04,0.7,,M,,M,,*72
$GPGLL,3854.856,N,07702.454,W,081813.039,V*3E
$GPVTG,1.24,T,,M,39.9,N,73.9,K*59
$GPRMC,081815.039,V,3854.855,N,07702.452,W,97.2,1.29,190416,,E*42
$GPGGA,081816.039,3854.855,N,07702.452,W,0,04,0.7,,M,,M,,*73
$GPGLL,3854.855,N,07702.452,W,081817.039,V*3F
$GPVTG,1.29,T,,M,97.2,N,180.1,K*6E
$GPRMC,081819.039,V,3854.854,N,07702.451,W,2.9,1.32,190416,,E*71
$GPGGA,081820.039,3854.854,N,07702.451,W,0,04,0.7,,M,,M,,*74
$GPGLL,3854.854,N,07702.451,W,081821.039,V*38
$GPVTG,1.32,T,,M,2.9,N,5.4,K*5A
$GPRMC,081823.039,V,3854.853,N,07702.449,W,81.8,1.35,190416,,E*4B
$GPGGA,081824.039,3854.853,N,07702.449,W,0,04,0.7,,M,,M,,*7E
$GPGLL,3854.853,N,07702.449,W,081825.039,V*32
$GPVTG,1.35,T,,M,81.8,N,151.4,K*67
$GPRMC,081827.039,V,3854.853,N,07702.447,W,91.6,1.26,190416,,E*4C
$GPGGA,081828.039,3854.853,N,07702.447,W,0,04,0.7,,M,,M,,*7C
$GPGLL,3854.853,N,07702.447,W,081829.039,V*30
$GPVTG,1.26,T,,M,91.6,N,169.7,K*62
$GPRMC,081831.039,V,3854.852,N,07702.446,W,21.2,1.32,190416,,E*41
$GPGGA,081832.039,3854.852,N,07702.446,W,0,04,0.7,,M,,M,,*77
$GPGLL,3854.852,N,07702.446,W,081833.039,V*3B
$GPVTG,1.32,T,,M,21.2,N,39.3,K*58
$GPRMC,081835.039,V,3854.851,N,07702.444,W,2.2,1.24,190416,,E*72
$GPGGA,081836.039,3854.851,N,07702.444,W,0,04,0.7,,M,,M,,*72
$GPGLL,3854.851,N,07702.444,W,081837.039,V*3E
$GPVTG,1.24,T,,M,2.2,N,4.2,K*51
$GPRMC,081839.039,V,3854.850,N,07702.443,W,45.3,1.32,190416,,E*4D
$GPGGA,081840.039,3854.850,N,07702.443,W,0,04,0.7,,M,,M,,*75
$GPGLL,3854.850,N,07702.443,W,081841.039,V*39
$GPVTG,1.32,T,,M,45.3,N,83.9,K*50
$GPRMC,081843.039,V,3854.850,N,07702.441,W,91.3,1.26,190416,,E*4E
$GPGGA,081844.039,3854.850,N,07702.441,W,0,04,0.7,,M,,M,,*73
$GPGLL,3854.850,N,07702.441,W,081845.039,V*3F
$GPVTG,1.26,T,,M,91.3,N,169.0,K*60
$GPRMC,081847.039,V,3854.849,N,07702.439,W,40.6,1.24,190416,,E*46
$GPGGA,081848.039,3854.849,N,07702.439,W,0,04,0.7,,M,,M,,*78
$GPGLL,3854.849,N,07702.439,W,081849.039,V*34
$GPVTG,1.24,T,,M,40.6,N,75.1,K*56
$GPRMC,081851.039,V,3854.848,N,07702.438,W,63.0,1.28,190416,,E*4A
$GPGGA,081852.039,3854.848,N,07702.438,W,0,04,0.7,,M,,M,,*73
$GPGLL,3854.848,N,07702.438,W,081853.039,V*3F
$GPVTG,1.28,T,,M,63.0,N,116.6,K*6E
$GPRMC,081855.039,V,3854.847,N,07702.436,W,32.1,1.31,190416,,E*42
$GPGGA,081856.039,3854.847,N,07702.436,W,0,04,0.7,,M,,M,,*76
$GPGLL,3854.847,N,07702.436,W,081857.039,V*3A
$GPVTG,1.31,T,,M,32.1,N,59.4,K*5B
$GPRMC,081859.039,V,3854.847,N,07702.434,W,42.7,1.25,190416,,E*48
$GPGGA,081900.039,3854.847,N,07702.434,W,0,04,0.7,,M,,M,,*76
$GPGLL,3854.847,N,07702.434,W,081901.039,V*3A
$GPVTG,1.25,T,,M,42.7,N,79.0,K*59
$GPRMC,081903.039,V,3854.846,N,07702.433,W,3.4,1.35,190416,,E*77
$GPGGA,081904.039,3854.846,N,07702.433,W,0,04,0.7,,M,,M,,*74
$GPGLL,3854.846,N,07702.433,W,081905.039,V*38
$GPVTG,1.35,T,,M,3.4,N,6.4,K*52
$GPRMC,081907.039,V,3854.845,N,07702.431,W,86.3,1.44,190416,,E*4E
$GPGGA,081908.039,3854.845,N,07702.431,W,0,04,0.7,,M,,M,,*79
$GPGLL,3854.845,N,07702.431,W,081909.039,V*35
$GPVTG,1.44,T,,M,86.3,N,159.8,K*69
$GPGSA,A,2,19,09,18,13,04,13,,,,,,,0.7,0.1,0.7*3E
$GPGSV,2,1,06,19,45,083,38,09,29,229,80,18,23,205,34,13,19,193,45*7E
$GPGSV,2,2,06,04,75,152,64,13,76,317,41*7E
$GPRMC,081914.039,V,3854.843,N,07702.430,W,89.2,1.51,190416,,E*41
$GPGGA,081915.039,3854.843,N,07702.430,W,0,04,0.1,,M,,M,,*74
$GPGLL,3854.843,N,07702.430,W,081916.039,V*3C
$GPVTG,1.51,T,,M,89.2,N,165.1,K*65
$GPRMC,081918.039,V,3854.842,N,07702.429,W,77.4,1.43,190416,,E*40
$GPGGA,081919.039,3854.842,N,07702.429,W,0,04,0.1,,M,,M,,*71
$GPGLL,3854.842,N,07702.429,W,081920.039,V*30
$GPVTG,1.43,T,,M,77.4,N,143.3,K*67
$GPRMC,081922.039,V,3854.841,N,07702.428,W,81.9,1.67,190416,,E*49
$GPGGA,081923.039,3854.841,N,07702.428,W,0,04,0.1,,M,,M,,*7A
$GPGLL,3854.841,N,07702.428,W,081924.039,V*36
$GPVTG,1.67,T,,M,81.9,N,151.7,K*62
$GPRMC,081926.039,V,3854.839,N,07702.427,W,23.5,1.75,190416,,E*4A
$GPGGA,081927.039,3854.839,N,07702.427,W,0,04,0.1,,M,,M,,*7E
$GPGLL,3854.839,N,07702.427,W,081928.039,V*3A
$GPVTG,1.75,T,,M,23.5,N,43.5,K*55
$GPRMC,081930.039,V,3854.837,N,07702.426,W,43.9,1.64,190416,,E*48
$GPGGA,081931.039,3854.837,N,07702.426,W,0,04,0.1,,M,,M,,*76
$GPGLL,3854.837,N,07702.426,W,081932.039,V*3E
$GPVTG,1.64,T,,M,43.9,N,81.3,K*57
$GPRMC,081934.039,V,3854.836,N,07702.426,W,28.4,1.81,190416,,E*46
$GPGGA,081935.039,3854.836,N,07702.426,W,0,04,0.1,,M,,M,,*73
$GPGLL,3854.836,N,07702.426,W,081936.039,V*3B
$GPVTG,1.81,T,,M,28.4,N,52.6,K*57
$GPRMC,081938.039,V,3854.834,N,07702.425,W,50.3,1.80,190416,,E*42
$GPGGA,081939.039,3854.834,N,07702.425,W,0,04,0.1,,M,,M,,*7E
$GPGLL,3854.834,N,07702.425,W,081940.039,V*3B
$GPVTG,1.80,T,,M,50.3,N,93.2,K*57
$GPRMC,081942.039,V,3854.832,N,07702.425,W,71.1,1.81,190416,,E*49
$GPGGA,081943.039,3854.832,N,07702.425,W,0,04,0.1,,M,,M,,*75
$GPGLL,3854.832,N,07702.425,W,081944.039,V*39
$GPVTG,1.81,T,,M,71.1,N,131.7,K*6B
$GPRMC,081946.039,V,3854.831,N,07702.424,W,68.0,1.83,190416,,E*44
$GPGGA,081947.039,3854.831,N,07702.424,W,0,04,0.1,,M,,M,,*73
$GPGLL,3854.831,N,07702.424,W,081948.039,V*37
$GPVTG,1.83,T,,M,68.0,N,125.9,K*6B
$GPRMC,081950.039,V,3854.829,N,07702.424,W,80.4,1.81,190416,,E*4A
$GPGGA,081951.039,3854.829,N,07702.424,W,0,04,0.1,,M,,M,,*7D
$GPGLL,3854.829,N,07702.424,W,081952.039,V*35
$GPVTG,1.81,T,,M,80.4,N,148.9,K*60
$GPGSA,A,2,19,09,18,13,04,13,,,,,,,0.9,0.4,1.0*33
$GPGSV,2,1,06,19,64,249,36,09,35,249,61,18,21,180,60,13,77,344,20*7D
$GPGSV,2,2,06,04,81,216,50,13,23,284,62*7B
$GPRMC,081957.039,V,3854.827,N,07702.423,W,41.6,1.80,190416,,E*4A
$GPGGA,081958.039,3854.827,N,07702.423,W,0,04,0.4,,M,,M,,*78
$GPGLL,3854.827,N,07702.423,W,081959.039,V*37
$GPVTG,1.80,T,,M,41.6,N,77.1,K*5B
$GPRMC,082001.039,V,3854.825,N,07702.423,W,73.6,1.85,190416,,E*45
$GPGGA,082002.039,3854.825,N,07702.423,W,0,04,0.4,,M,,M,,*7F
$GPGLL,3854.825,N,07702.423,W,082003.039,V*30
$GPVTG,1.85,T,,M,73.6,N,136.4,K*6E
$GPRMC,082005.039,V,3854.824,N,07702.421,W,53.4,1.49,190416,,E*42
$GPGGA,082006.039,3854.824,N,07702.421,W,0,04,0.4,,M,,M,,*78
$GPGLL,3854.824,N,07702.421,W,082007.039,V*37
$GPVTG,1.49,T,,M,53.4,N,98.9,K*56
$GPRMC,082009.039,V,3854.823,N,07702.420,W,99.7,1.59,190416,,E*4C
$GPGGA,082010.039,3854.823,N,07702.420,W,0,04,0.4,,M,,M,,*79
$GPGLL,3854.823,N,07702.420,W,082011.039,V*36
$GPVTG,1.59,T,,M,99.7,N,184.6,K*61
$GPRMC,082013.039,V,3854.821,N,07702.419,W,9.8,1.52,190416,,E*72
$GPGGA,082014.039,3854.821,N,07702.419,W,0,04,0.4,,M,,M,,*75
$GPGLL,3854.821,N,07702.419,W,082015.039,V*3A
$GPVTG,1.52,T,,M,9.8,N,18.2,K*6C
$GPRMC,082017.039,V,3854.820,N,07702.418,W,71.5,1.47,190416,,E*40
$GPGGA,082018.039,3854.820,N,07702.418,W,0,04,0.4,,M,,M,,*79
$GPGLL,3854.820,N,07702.418,W,082019.039,V*36
$GPVTG,1.47,T,,M,71.5,N,132.4,K*65
$GPRMC,082021.039,V,3854.819,N,07702.416,W,59.5,1.52,190416,,E*4F
$GPGGA,082022.039,3854.819,N,07702.416,W,0,04,0.4,,M,,M,,*74
$GPGLL,3854.819,N,07702.416,W,082023.039,V*3B
$GPVTG,1.52,T,,M,59.5,N,110.1,K*6E
$GPRMC,082025.039,V,3854.817,N,07702.415,W,44.3,1.57,190416,,E*49
$GPGGA,082026.039,3854.817,N,07702.415,W,0,04,0.4,,M,,M,,*7D
$GPGLL,3854.817,N,07702.415,W,082027.039,V*32
$GPVTG,1.57,T,,M,44.3,N,82.0,K*5A
$GPRMC,082029.039,V,3854.816,N,07702.414,W,2.0,1.49,190416,,E*7B
$GPGGA,082030.039,3854.816,N,07702.414,W,0,04,0.4,,M,,M,,*7A
$GPGLL,3854.816,N,07702.414,W,082031.039,V*35
$GPVTG,1.49,T,,M,2.0,N,3.8,K*55
$GPGSA,A,3,19,09,18,13,04,13,,,,,,,1.0,0.4,0.8*33
$GPGSV,2,1,06,19,52,248,67,09,51,205,75,18,77,111,74,13,34,250,34*7A
$GPGSV,2,2,06,04,10,172,70,13,66,230,48*76
$GPRMC,082036.039,V,3854.815,N,07702.413,W,59.4,1.55,190416,,E*46
$GPGGA,082037.039,3854.815,N,07702.413,W,0,04,0.4,,M,,M,,*79
$GPGLL,3854.815,N,07702.413,W,082038.039,V*38
$GPVTG,1.55,T,,M,59.4,N,110.1,K*68
$GPRMC,082040.039,V,3854.813,N,07702.412,W,30.5,1.65,190416,,E*4D
$GPGGA,082041.039,3854.813,N,07702.412,W,0,04,0.4,,M,,M,,*7F
$GPGLL,3854.813,N,07702.412,W,082042.039,V*32
$GPVTG,1.65,T,,M,30.5,N,56.4,K*53
$GPRMC,082044.039,V,3854.812,N,07702.411,W,70.7,1.56,190416,,E*4D
$GPGGA,082045.039,3854.812,N,07702.411,W,0,04,0.4,,M,,M,,*79
$GPGLL,3854.812,N,07702.411,W,082046.039,V*34
$GPVTG,1.56,T,,M,70.7,N,131.0,K*61
$GPRMC,082048.039,V,3854.811,N,07702.409,W,54.5,1.49,190416,,E*41
$GPGGA,082049.039,3854.811,N,07702.409,W,0,04,0.4,,M,,M,,*7F
$GPGLL,3854.811,N,07702.409,W,082050.039,V*39
$GPVTG,1.49,T,,M,54.5,N,100.9,K*60
$GPRMC,082052.039,V,3854.809,N,07702.408,W,79.7,1.50,190416,,E*47
$GPGGA,082053.039,3854.809,N,07702.408,W,0,04,0.4,,M,,M,,*7C
$GPGLL,3854.809,N,07702.408,W,082054.039,V*35
$GPVTG,1.50,T,,M,79.7,N,147.6,K*69
$GPRMC,082056.039,V,3854.808,N,07702.407,W,8.4,1.42,190416,,E*7B
$GPGGA,082057.039,3854.808,N,07702.407,W,0,04,0.4,,M,,M,,*76
$GPGLL,3854.808,N,07702.407,W,082058.039,V*37
$GPVTG,1.42,T,,M,8.4,N,15.6,K*69
$GPRMC,082100.039,V,3854.807,N,07702.405,W,50.6,1.43,190416,,E*4A
$GPGGA,082101.039,3854.807,N,07702.405,W,0,04,0.4,,M,,M,,*79
$GPGLL,3854.807,N,07702.405,W,082102.039,V*34
$GPVTG,1.43,T,,M,50.6,N,93.7,K*58
$GPRMC,082104.039,V,3854.806,N,07702.404,W,46.6,1.45,190416,,E*4F
$GPGGA,082105.039,3854.806,N,07702.404,W,0,04,0.4,,M,,M,,*7D
$GPGLL,3854.806,N,07702.404,W,082106.039,V*30
$GPVTG,1.45,T,,M,46.6,N,86.4,K*5E
$GPRMC,082108.039,V,3854.805,N,07702.403,W,26.4,1.44,190416,,E*42
$GPGGA,082109.039,3854.805,N,07702.403,W,0,04,0.4,,M,,M,,*75
$GPGLL,3854.805,N,07702.403,W,082110.039,V*33
$GPVTG,1.44,T,,M,26.4,N,48.9,K*54
$GPRMC,082112.039,V,3854.804,N,07702.401,W,52.2,1.35,190416,,E*49
$GPGGA,082113.039,3854.804,N,07702.401,W,0,04,0.4,,M,,M,,*7D
$GPGLL,3854.804,N,07702.401,W,082114.039,V*34
$GPVTG,1.35,T,,M,52.2,N,96.6,K*5B
$GPRMC,082116.039,V,3854.803,N,07702.400,W,16.5,1.45,190416,,E*4B
$GPGGA,082117.039,3854.803,N,07702.400,W,0,04,0.4,,M,,M,,*7F
$GPGLL,3854.803,N,07702.400,W,082118.039,V*3E
$GPVTG,1.45,T,,M,16.5,N,30.6,K*57
$GPRMC,082120.039,V,3854.801,N,07702.399,W,67.4,1.55,190416,,E*4D
$GPGGA,082121.039,3854.801,N,07702.399,W,0,04,0.4,,M,,M,,*7F
$GPGLL,3854.801,N,07702.399,W,082122.039,V*32
$GPVTG,1.55,T,,M,67.4,N,124.8,K*6B
$GPRMC,082124.039,V,3854.800,N,07702.397,W,33.2,1.51,190416,,E*45
$GPGGA,082125.039,3854.800,N,07702.397,W,0,04,0.4,,M,,M,,*74
$GPGLL,3854.800,N,07702.397,W,082126.039,V*39
$GPVTG,1.51,T,,M,33.2,N,61.5,K*55
$GPRMC,082128.039,V,3854.798,N,07702.397,W,47.1,1.86,190416,,E*4D
$GPGGA,082129.039,3854.798,N,07702.397,W,0,04,0.4,,M,,M,,*76
$GPGLL,3854.798,N,07702.397,W,082130.039,V*30
$GPVTG,1.86,T,,M,47.1,N,87.1,K*53
$GPRMC,082132.039,V,3854.797,N,07702.396,W,81.1,1.85,190416,,E*41
$GPGGA,082133.039,3854.797,N,07702.396,W,0,04,0.4,,M,,M,,*73
$GPGLL,3854.797,N,07702.396,W,082134.039,V*3A
$GPVTG,1.85,T,,M,81.1,N,150.3,K*63
$GPRMC,082136.039,V,3854.795,N,07702.396,W,91.3,1.94,190416,,E*44
$GPGGA,082137.039,3854.795,N,07702.396,W,0,04,0.4,,M,,M,,*75
$GPGLL,3854.795,N,07702.396,W,082138.039,V*34
$GPVTG,1.94,T,,M,91.3,N,169.0,K*69
$GPRMC,082140.039,V,3854.793,N,07702.396,W,38.2,2.03,190416,,E*4C
$GPGGA,082141.039,3854.793,N,07702.396,W,0,04,0.4,,M,,M,,*72
$GPGLL,3854.793,N,07702.396,W,082142.039,V*3F
$GPVTG,2.03,T,,M,38.2,N,70.8,K*57
$GPGSA,A,2,19,09,18,13,04,13,,,,,,,0.8,0.4,0.7*34
$GPGSV,2,1,06,19,09,092,30,09,20,117,55,18,71,259,75,13,06,319,30*76
$GPGSV,2,2,06,04,40,352,27,13,76,261,88*78
$GPRMC,082147.039,V,3854.791,N,07702.397,W,65.5,2.11,190416,,E*44
$GPGGA,082148.039,3854.791,N,07702.397,W,0,04,0.4,,M,,M,,*78
$GPGLL,3854.791,N,07702.397,W,082149.039,V*37
$GPVTG,2.11,T,,M,65.5,N,121.2,K*64
$GPGSA,A,2,19,09,18,13,04,13,,,,,,,0.6,0.7,0.7*39
$GPGSV,2,1,06,19,54,123,24,09,30,298,76,18,38,136,70,13,49,042,31*71
$GPGSV,2,2,06,04,80,007,23,13,28,153,71*7C
$GPRMC,082154.039,V,3854.789,N,07702.397,W,82.7,2.08,190416,,E*4C
$GPGGA,082155.039,3854.789,N,07702.397,W,0,04,0.7,,M,,M,,*7E
$GPGLL,3854.789,N,07702.397,W,082156.039,V*30
$GPVTG,2.08,T,,M,82.7,N,153.1,K*61
$GPRMC,082158.039,V,3854.788,N,07702.397,W,77.9,2.10,190416,,E*4C
$GPGGA,082159.039,3854.788,N,07702.397,W,0,04,0.7,,M,,M,,*73
$GPGLL,3854.788,N,07702.397,W,082200.039,V*31
$GPVTG,2.10,T,,M,77.9,N,144.2,K*69
$GPRMC,082202.039,V,3854.786,N,07702.397,W,94.0,2.02,190416,,E*49
$GPGGA,082203.039,3854.786,N,07702.397,W,0,04,0.7,,M,,M,,*71
$GPGLL,3854.786,N,07702.397,W,082204.039,V*3B
$GPVTG,2.02,T,,M,94.0,N,174.1,K*6E
$GPGSA,A,2,19,09,18,13,04,13,,,,,,,0.6,0.4,0.6*3B
$GPGSV,2,1,06,19,60,306,55,09,58,270,40,18,11,308,51,13,80,232,65*7E
$GPGSV,2,2,06,04,80,333,87,13,31,256,56*7D
$GPRMC,082209.039,V,3854.784,N,07702.398,W,53.8,2.12,190416,,E*4D
$GPGGA,082210.039,3854.784,N,07702.398,W,0,04,0.4,,M,,M,,*7D
$GPGLL,3854.784,N,07702.398,W,082211.039,V*32
$GPVTG,2.12,T,,M,53.8,N,99.6,K*59
$GPRMC,082213.039,V,3854.782,N,07702.398,W,5.4,2.03,190416,,E*7F
$GPGGA,082214.039,3854.782,N,07702.398,W,0,04,0.4,,M,,M,,*7F
$GPGLL,3854.782,N,07702.398,W,082215.039,V*30
$GPVTG,2.03,T,,M,5.4,N,10.0,K*61
$GPRMC,082217.039,V,3854.780,N,07702.398,W,17.0,2.13,190416,,E*4F
$GPGGA,082218.039,3854.780,N,07702.398,W,0,04,0.4,,M,,M,,*71
$GPGLL,3854.780,N,07702.398,W,082219.039,V*3E
$GPVTG,2.13,T,,M,17.0,N,31.6,K*52
$GPRMC,082221.039,V,3854.779,N,07702.399,W,94.7,2.19,190416,,E*4B
$GPGGA,082222.039,3854.779,N,07702.399,W,0,04,0.4,,M,,M,,*7F
$GPGLL,3854.779,N,07702.399,W,082223.039,V*30
$GPVTG,2.19,T,,M,94.7,N,175.3,K*60
$GPGSA,A,2,19,09,18,13,04,13,,,,,,,0.8,0.5,0.1*33
$GPGSV,2,1,06,19,86,136,45,09,73,171,40,18,14,260,44,13,86,034,42*74
$GPGSV,2,2,06,04,75,202,68,13,76,222,86*78
$GPRMC,082228.039,V,3854.777,N,07702.399,W,65.4,2.19,190416,,E*41
$GPGGA,082229.039,3854.777,N,07702.399,W,0,04,0.5,,M,,M,,*7B
$GPGLL,3854.777,N,07702.399,W,082230.039,V*3C
$GPVTG,2.19,T,,M,65.4,N,121.1,K*6E
$GPRMC,082232.039,V,3854.775,N,07702.400,W,98.4,2.17,190416,,E*43
$GPGGA,082233.039,3854.775,N,07702.400,W,0,04,0.5,,M,,M,,*75
$GPGLL,3854.775,N,07702.400,W,082234.039,V*3D
$GPVTG,2.17,T,,M,98.4,N,182.2,K*68
$GPRMC,082236.039,V,3854.774,N,07702.400,W,14.7,2.25,190416,,E*40
$GPGGA,082237.039,3854.774,N,07702.400,W,0,04,0.5,,M,,M,,*70
$GPGLL,3854.774,N,07702.400,W,082238.039,V*30
$GPVTG,2.25,T,,M,14.7,N,27.3,K*51
$GPGSA,A,3,19,09,18,13,04,13,,,,,,,0.4,0.0,0.4*3E
$GPGSV,2,1,06,19,62,290,26,09,66,204,56,18,19,187,78,13,57,281,38*73
$GPGSV,2,2,06,04,67,286,36,13,48,010,16*7B
$GPRMC,082243.039,V,3854.772,N,07702.401,W,80.5,2.28,190416,,E*47
$GPGGA,082244.039,3854.772,N,07702.401,W,0,04,0.0,,M,,M,,*76
$GPGLL,3854.772,N,07702.401,W,082245.039,V*3D
$GPVTG,2.28,T,,M,80.5,N,149.1,K*68
$GPRMC,082247.039,V,3854.770,N,07702.402,W,16.1,2.36,190416,,E*46
$GPGGA,082248.039,3854.770,N,07702.402,W,0,04,0.0,,M,,M,,*7B
$GPGLL,3854.770,N,07702.402,W,082249.039,V*30
$GPVTG,2.36,T,,M,16.1,N,29.9,K*53
$GPRMC,082251.039,V,3854.769,N,07702.403,W,18.8,2.40,190416,,E*4E
$GPGGA,082252.039,3854.769,N,07702.403,W,0,04,0.0,,M,,M,,*79
$GPGLL,3854.769,N,07702.403,W,082253.039,V*32
$GPVTG,2.40,T,,M,18.8,N,34.8,K*58
$GPRMC,082255.039,V,3854.767,N,07702.404,W,44.5,2.30,190416,,E*40
$GPGGA,082256.039,3854.767,N,07702.404,W,0,04,0.0,,M,,M,,*74
$GPGLL,3854.767,N,07702.404,W,082257.039,V*3F
$GPVTG,2.30,T,,M,44.5,N,82.3,K*5D
$GPGSA,A,3,19,09,18,13,04,13,,,,,,,0.0,0.4,0.9*33
$GPGSV,2,1,06,19,79,246,22,09,55,116,57,18,32,104,31,13,56,311,19*72
$GPGSV,2,2,06,04,16,105,53,13,70,195,48*7A
$GPRMC,082302.039,V,3854.766,N,07702.405,W,27.9,2.27,190416,,E*4C
$GPGGA,082303.039,3854.766,N,07702.405,W,0,04,0.4,,M,,M,,*71
$GPGLL,3854.766,N,07702.405,W,082304.039,V*38
$GPVTG,2.27,T,,M,27.9,N,51.7,K*58
$GPRMC,082306.039,V,3854.764,N,07702.404,W,85.4,1.87,190416,,E*47
$GPGGA,082307.039,3854.764,N,07702.404,W,0,04,0.4,,M,,M,,*76
$GPGLL,3854.764,N,07702.404,W,082308.039,V*37
$GPVTG,1.87,T,,M,85.4,N,158.1,K*6A
$GPRMC,082310.039,V,3854.762,N,07702.404,W,22.3,1.85,190416,,E*4E
$GPGGA,082311.039,3854.762,N,07702.404,W,0,04,0.4,,M,,M,,*77
$GPGLL,3854.762,N,07702.404,W,082312.039,V*3A
$GPVTG,1.85,T,,M,22.3,N,41.2,K*58
$GPRMC,082314.039,V,3854.761,N,07702.403,W,99.5,1.86,190416,,E*4B
$GPGGA,082315.039,3854.761,N,07702.403,W,0,04,0.4,,M,,M,,*77
$GPGLL,3854.761,N,07702.403,W,082316.039,V*3A
$GPVTG,1.86,T,,M,99.5,N,184.2,K*65
$GPRMC,082318.039,V,3854.759,N,07702.403,W,68.9,1.69,190416,,E*4F
$GPGGA,082319.039,3854.759,N,07702.403,W,0,04,0.4,,M,,M,,*70
$GPGLL,3854.759,N,07702.403,W,082320.039,V*34
$GPVTG,1.69,T,,M,68.9,N,127.7,K*6A
$GPRMC,082322.039,V,3854.757,N,07702.402,W,97.6,1.74,190416,,E*4A
$GPGGA,082323.039,3854.757,N,07702.402,W,0,04,0.4,,M,,M,,*76
$GPGLL,3854.757,N,07702.402,W,082324.039,V*3F
$GPVTG,1.74,T,,M,97.6,N,180.8,K*6B
$GPRMC,082326.039,V,3854.756,N,07702.401,W,38.5,1.73,190416,,E*4D
$GPGGA,082327.039,3854.756,N,07702.401,W,0,04,0.4,,M,,M,,*70
$GPGLL,3854.756,N,07702.401,W,082328.039,V*31
$GPVTG,1.73,T,,M,38.5,N,71.4,K*59
$GPRMC,082330.039,V,3854.754,N,07702.400,W,83.2,1.75,190416,,E*48
$GPGGA,082331.039,3854.754,N,07702.400,W,0,04,0.4,,M,,M,,*74
$GPGLL,3854.754,N,07702.400,W,082332.039,V*39
$GPVTG,1.75,T,,M,83.2,N,154.2,K*68
$GPRMC,082334.039,V,3854.752,N,07702.400,W,43.3,1.73,190416,,E*41
$GPGGA,082335.039,3854.752,N,07702.400,W,0,04,0.4,,M,,M,,*76
$GPGLL,3854.752,N,07702.400,W,082336.039,V*3B
$GPVTG,1.73,T,,M,43.3,N,80.2,K*5B
$GPRMC,082338.039,V,3854.751,N,07702.399,W,37.4,1.76,190416,,E*48
$GPGGA,082339.039,3854.751,N,07702.399,W,0,04,0.4,,M,,M,,*7E
$GPGLL,3854.751,N,07702.399,W,082340.039,V*3E
$GPVTG,1.76,T,,M,37.4,N,69.2,K*5D
$GPRMC,082342.039,V,3854.749,N,07702.398,W,56.1,1.69,190416,,E*41
$GPGGA,082343.039,3854.749,N,07702.398,W,0,04,0.4,,M,,M,,*7B
$GPGLL,3854.749,N,07702.398,W,082344.039,V*32
$GPVTG,1.69,T,,M,56.1,N,103.8,K*66
$GPRMC,082346.039,V,3854.747,N,07702.398,W,17.2,1.76,190416,,E*43
$GPGGA,082347.039,3854.747,N,07702.398,W,0,04,0.4,,M,,M,,*71
$GPGLL,3854.747,N,07702.398,W,082348.039,V*30
$GPVTG,1.76,T,,M,17.2,N,31.9,K*5F
$GPRMC,082350.039,V,3854.746,N,07702.397,W,4.0,1.67,190416,,E*7A
$GPGGA,082351.039,3854.746,N,07702.397,W,0,04,0.4,,M,,M,,*78
$GPGLL,3854.746,N,07702.397,W,082352.039,V*35
$GPVTG,1.67,T,,M,4.0,N,7.4,K*57
$GPRMC,082354.039,V,3854.744,N,07702.396,W,21.1,1.74,190416,,E*49
$GPGGA,082355.039,3854.744,N,07702.396,W,0,04,0.4,,M,,M,,*7F
$GPGLL,3854.744,N,07702.396,W,082356.039,V*32
$GPVTG,1.74,T,,M,21.1,N,39.0,K*5A
$GPGSA,A,3,19,09,18,13,04,13,,,,,,,0.6,0.2,0.9*33
$GPGSV,2,1,06,19,14,227,31,09,24,259,28,18,76,344,85,13,33,083,71*76
$GPGSV,2,2,06,04,14,168,56,13,13,310,58*7D
$GPRMC,082401.039,V,3854.742,N,07702.395,W,86.5,1.82,190416,,E*4B
$GPGGA,082402.039,3854.742,N,07702.395,W,0,04,0.2,,M,,M,,*79
$GPGLL,3854.742,N,07702.395,W,082403.039,V*30
$GPVTG,1.82,T,,M,86.5,N,160.3,K*64
$GPRMC,082405.039,V,3854.741,N,07702.395,W,22.9,1.79,190416,,E*4A
$GPGGA,082406.039,3854.741,N,07702.395,W,0,04,0.2,,M,,M,,*7E
$GPGLL,3854.741,N,07702.395,W,082407.039,V*37
$GPVTG,1.79,T,,M,22.9,N,42.4,K*54
$GPRMC,082409.039,V,3854.739,N,07702.394,W,80.8,1.73,190416,,E*4B
$GPGGA,082410.039,3854.739,N,07702.394,W,0,04,0.2,,M,,M,,*77
$GPGLL,3854.739,N,07702.394,W,082411.039,V*3E
$GPVTG,1.73,T,,M,80.8,N,149.7,K*6E
$GPRMC,082413.039,V,3854.737,N,07702.394,W,16.8,1.84,190416,,E*49
$GPGGA,082414.039,3854.737,N,07702.394,W,0,04,0.2,,M,,M,,*7D
$GPGLL,3854.737,N,07702.394,W,082415.039,V*34
$GPVTG,1.84,T,,M,16.8,N,31.0,K*50
$GPRMC,082417.039,V,3854.736,N,07702.393,W,7.8,1.87,190416,,E*78
$GPGGA,082418.039,3854.736,N,07702.393,W,0,04,0.2,,M,,M,,*77
$GPGLL,3854.736,N,07702.393,W,082419.039,V*3E
$GPVTG,1.87,T,,M,7.8,N,14.4,K*60
$GPRMC,082421.039,V,3854.734,N,07702.393,W,22.7,1.94,190416,,E*45
$GPGGA,082422.039,3854.734,N,07702.393,W,0,04,0.2,,M,,M,,*7C
$GPGLL,3854.734,N,07702.393,W,082423.039,V*35
$GPVTG,1.94,T,,M,22.7,N,42.1,K*5C
$GPGSA,A,3,19,09,18,13,04,13,,,,,,,1.0,0.4,0.1*3A
$GPGSV,2,1,06,19,44,278,77,09,83,231,75,18,51,009,41,13,84,221,74*74
$GPGSV,2,2,06,04,71,055,84,13,54,049,64*7D
$GPRMC,082428.039,V,3854.732,N,07702.393,W,71.1,1.84,190416,,E*4B
$GPGGA,082429.039,3854.732,N,07702.393,W,0,04,0.4,,M,,M,,*77
$GPGLL,3854.732,N,07702.393,W,082430.039,V*31
$GPVTG,1.84,T,,M,71.1,N,131.6,K*6F
$GPRMC,082432.039,V,3854.730,N,07702.392,W,33.9,1.89,190416,,E*40
$GPGGA,082433.039,3854.730,N,07702.392,W,0,04,0.4,,M,,M,,*7F
$GPGLL,3854.730,N,07702.392,W,082434.039,V*36
$GPVTG,1.89,T,,M,33.9,N,62.7,K*5A
$GPRMC,082436.039,V,3854.729,N,07702.392,W,44.5,1.83,190416,,E*4A
$GPGGA,082437.039,3854.729,N,07702.392,W,0,04,0.4,,M,,M,,*73
$GPGLL,3854.729,N,07702.392,W,082438.039,V*32
$GPVTG,1.83,T,,M,44.5,N,82.5,K*50
$GPRMC,082440.039,V,3854.727,N,07702.391,W,52.9,1.81,190416,,E*4F
$GPGGA,082441.039,3854.727,N,07702.391,W,0,04,0.4,,M,,M,,*7F
$GPGLL,3854.727,N,07702.391,W,082442.039,V*32
$GPVTG,1.81,T,,M,52.9,N,98.0,K*57
$GPRMC,082444.039,V,3854.725,N,07702.391,W,25.6,1.72,190416,,E*4A
$GPGGA,082445.039,3854.725,N,07702.391,W,0,04,0.4,,M,,M,,*79
$GPGLL,3854.725,N,07702.391,W,082446.039,V*34
$GPVTG,1.72,T,,M,25.6,N,47.4,K*52
$GPRMC,082448.039,V,3854.724,N,07702.390,W,99.9,1.69,190416,,E*44
$GPGGA,082449.039,3854.724,N,07702.390,W,0,04,0.4,,M,,M,,*75
$GPGLL,3854.724,N,07702.390,W,082450.039,V*33
$GPVTG,1.69,T,,M,99.9,N,185.1,K*6A
$GPRMC,082452.039,V,3854.722,N,07702.389,W,57.8,1.66,190416,,E*4D
$GPGGA,082453.039,3854.722,N,07702.389,W,0,04,0.4,,M,,M,,*70
$GPGLL,3854.722,N,07702.389,W,082454.039,V*39
$GPVTG,1.66,T,,M,57.8,N,107.0,K*6D
$GPRMC,082456.039,V,3854.720,N,07702.388,W,73.3,1.70,190416,,E*40
$GPGGA,082457.039,3854.720,N,07702.388,W,0,04,0.4,,M,,M,,*77
$GPGLL,3854.720,N,07702.388,W,082458.039,V*36
$GPVTG,1.70,T,,M,73.3,N,135.7,K*61
$GPRMC,082500.039,V,3854.719,N,07702.387,W,24.9,1.74,190416,,E*4B
$GPGGA,082501.039,3854.719,N,07702.387,W,0,04,0.4,,M,,M,,*70
$GPGLL,3854.719,N,07702.387,W,082502.039,V*3D
$GPVTG,1.74,T,,M,24.9,N,46.1,K*5E
$GPRMC,082504.039,V,3854.717,N,07702.386,W,47.1,1.65,190416,,E*4D
$GPGGA,082505.039,3854.717,N,07702.386,W,0,04,0.4,,M,,M,,*7B
$GPGLL,3854.717,N,07702.386,W,082506.039,V*36
$GPVTG,1.65,T,,M,47.1,N,87.2,K*5D
$GPGSA,A,3,19,09,18,13,04,13,,,,,,,0.9,0.3,0.4*30
$GPGSV,2,1,06,19,60,233,22,09,87,344,72,18,54,124,63,13,46,061,40*79
$GPGSV,2,2,06,04,76,186,26,13,56,201,64*71
$GPRMC,082511.039,V,3854.716,N,07702.385,W,84.9,1.63,190416,,E*4A
$GPGGA,082512.039,3854.716,N,07702.385,W,0,04,0.3,,M,,M,,*78
$GPGLL,3854.716,N,07702.385,W,082513.039,V*30
$GPVTG,1.63,T,,M,84.9,N,157.3,K*61
$GPRMC,082515.039,V,3854.714,N,07702.384,W,76.4,1.60,190416,,E*4E
$GPGGA,082516.039,3854.714,N,07702.384,W,0,04,0.3,,M,,M,,*7F
$GPGLL,3854.714,N,07702.384,W,082517.039,V*37
$GPVTG,1.60,T,,M,76.4,N,141.5,K*63
$GPGSA,A,2,19,09,18,13,04,13,,,,,,,0.1,1.0,0.4*3B
$GPGSV,2,1,06,19,85,223,45,09,49,046,61,18,54,028,22,13,39,177,59*7D
$GPGSV,2,2,06,04,32,240,65,13,64,048,59*7F
$GPRMC,082522.039,V,3854.714,N,07702.383,W,92.5,1.24,190416,,E*46
$GPGGA,082523.039,3854.714,N,07702.383,W,0,04,1.0,,M,,M,,*7C
$GPGLL,3854.714,N,07702.383,W,082524.039,V*30
$GPVTG,1.24,T,,M,92.5,N,171.4,K*6A
$GPRMC,082526.039,V,3854.713,N,07702.381,W,2.0,1.17,190416,,E*7B
$GPGGA,082527.039,3854.713,N,07702.381,W,0,04,1.0,,M,,M,,*7D
$GPGLL,3854.713,N,07702.381,W,082528.039,V*39
$GPVTG,1.17,T,,M,2.0,N,3.7,K*51
$GPRMC,082530.039,V,3854.713,N,07702.379,W,37.0,1.09,190416,,E*42
$GPGGA,082531.039,3854.713,N,07702.379,W,0,04,1.0,,M,,M,,*7D
$GPGLL,3854.713,N,07702.379,W,082532.039,V*35
$GPVTG,1.09,T,,M,37.0,N,68.6,K*54
$GPRMC,082534.039,V,3854.714,N,07702.378,W,76.8,0.71,190416,,E*43
$GPGGA,082535.039,3854.714,N,07702.378,W,0,04,1.0,,M,,M,,*7F
$GPGLL,3854.714,N,07702.378,W,082536.039,V*37
$GPVTG,0.71,T,,M,76.8,N,142.2,K*6A
$GPRMC,082538.039,V,3854.715,N,07702.376,W,16.5,0.67,190416,,E*4C
$GPGGA,082539.039,3854.715,N,07702.376,W,0,04,1.0,,M,,M,,*7C
$GPGLL,3854.715,N,07702.376,W,082540.039,V*39
$GPVTG,0.67,T,,M,16.5,N,30.7,K*57
$GPRMC,082542.039,V,3854.715,N,07702.374,W,96.1,0.77,190416,,E*4E
$GPGGA,082543.039,3854.715,N,07702.374,W,0,04,1.0,,M,,M,,*73
$GPGLL,3854.715,N,07702.374,W,082544.039,V*3F
$GPVTG,0.77,T,,M,96.1,N,178.0,K*60
$GPRMC,082546.039,V,3854.716,N,07702.373,W,2.6,0.85,190416,,E*79
$GPGGA,082547.039,3854.716,N,07702.373,W,0,04,1.0,,M,,M,,*73
$GPGLL,3854.716,N,07702.373,W,082548.039,V*37
$GPVTG,0.85,T,,M,2.6,N,4.7,K*5A
$GPGSA,A,2,19,09,18,13,04,13,,,,,,,0.2,0.0,0.7*3A
$GPGSV,2,1,06,19,27,252,61,09,17,258,74,18,14,159,22,13,68,226,72*7E
$GPGSV,2,2,06,04,47,269,31,13,37,025,78*79
$GPRMC,082553.039,V,3854.716,N,07702.371,W,16.6,0.80,190416,,E*4F
$GPGGA,082554.039,3854.716,N,07702.371,W,0,04,0.0,,M,,M,,*72
$GPGLL,3854.716,N,07702.371,W,082555.039,V*39
$GPVTG,0.80,T,,M,16.6,N,30.8,K*52
$GPRMC,082557.039,V,3854.717,N,07702.369,W,57.0,0.83,190416,,E*43
$GPGGA,082558.039,3854.717,N,07702.369,W,0,04,0.0,,M,,M,,*76
$GPGLL,3854.717,N,07702.369,W,082559.039,V*3D
$GPVTG,0.83,T,,M,57.0,N,105.6,K*6B
$GPRMC,082601.039,V,3854.717,N,07702.367,W,4.7,0.88,190416,,E*77
$GPGGA,082602.039,3854.717,N,07702.367,W,0,04,0.0,,M,,M,,*74
$GPGLL,3854.717,N,07702.367,W,082603.039,V*3F
$GPVTG,0.88,T,,M,4.7,N,8.8,K*53
$GPRMC,082605.039,V,3854.718,N,07702.366,W,58.7,0.83,190416,,E*4F
$GPGGA,082606.039,3854.718,N,07702.366,W,0,04,0.0,,M,,M,,*7E
$GPGLL,3854.718,N,07702.366,W,082607.039,V*35
$GPVTG,0.83,T,,M,58.7,N,108.7,K*6F
$GPRMC,082609.039,V,3854.718,N,07702.364,W,57.1,0.90,190416,,E*4A
$GPGGA,082610.039,3854.718,N,07702.364,W,0,04,0.0,,M,,M,,*7B
$GPGLL,3854.718,N,07702.364,W,082611.039,V*30
$GPVTG,0.90,T,,M,57.1,N,105.7,K*69
$GPRMC,082613.039,V,3854.718,N,07702.362,W,67.8,0.80,190416,,E*4C
$GPGGA,082614.039,3854.718,N,07702.362,W,0,04,0.0,,M,,M,,*79
$GPGLL,3854.718,N,07702.362,W,082615.039,V*32
$GPVTG,0.80,T,,M,67.8,N,125.6,K*61
$GPRMC,082617.039,V,3854.719,N,07702.360,W,31.9,0.75,190416,,E*43
$GPGGA,082618.039,3854.719,N,07702.360,W,0,04,0.0,,M,,M,,*76
$GPGLL,3854.719,N,07702.360,W,082619.039,V*3D
$GPVTG,0.75,T,,M,31.9,N,59.1,K*54
$GPGSA,A,2,19,09,18,13,04,13,,,,,,,0.2,0.5,0.5*3D
$GPGSV,2,1,06,19,24,239,18,09,27,053,69,18,29,040,76,13,18,281,36*74
$GPGSV,2,2,06,04,78,251,34,13,65,067,61*72
$GPRMC,082624.039,V,3854.720,N,07702.359,W,98.7,0.65,190416,,E*4F
$GPGGA,082625.039,3854.720,N,07702.359,W,0,04,0.5,,M,,M,,*7D
$GPGLL,3854.720,N,07702.359,W,082626.039,V*31
$GPVTG,0.65,T,,M,98.7,N,182.7,K*69
$GPRMC,082628.039,V,3854.721,N,07702.357,W,32.1,0.74,190416,,E*4A
$GPGGA,082629.039,3854.721,N,07702.357,W,0,04,0.5,,M,,M,,*7E
$GPGLL,3854.721,N,07702.357,W,082630.039,V*39
$GPVTG,0.74,T,,M,32.1,N,59.5,K*5A
$GPRMC,082632.039,V,3854.722,N,07702.356,W,38.0,0.65,190416,,E*48
$GPGGA,082633.039,3854.722,N,07702.356,W,0,04,0.5,,M,,M,,*77
$GPGLL,3854.722,N,07702.356,W,082634.039,V*3F
$GPVTG,0.65,T,,M,38.0,N,70.4,K*5B
$GPRMC,082636.039,V,3854.723,N,07702.354,W,82.3,0.66,190416,,E*4E
$GPGGA,082637.039,3854.723,N,07702.354,W,0,04,0.5,,M,,M,,*70
$GPGLL,3854.723,N,07702.354,W,082638.039,V*30
$GPVTG,0.66,T,,M,82.3,N,152.5,K*6A
$GPRMC,082640.039,V,3854.723,N,07702.353,W,71.3,0.73,190416,,E*40
$GPGGA,082641.039,3854.723,N,07702.353,W,0,04,0.5,,M,,M,,*76
$GPGLL,3854.723,N,07702.353,W,082642.039,V*3A
$GPVTG,0.73,T,,M,71.3,N,132.1,K*60
$GPRMC,082644.039,V,3854.725,N,07702.352,W,6.3,0.26,190416,,E*73
$GPGGA,082645.039,3854.725,N,07702.352,W,0,04,0.5,,M,,M,,*75
$GPGLL,3854.725,N,07702.352,W,082646.039,V*39
$GPVTG,0.26,T,,M,6.3,N,11.7,K*66
$GPGSA,A,2,19,09,18,13,04,13,,,,,,,0.3,0.4,0.1*39
$GPGSV,2,1,06,19,86,217,80,09,11,235,51,18,70,200,72,13,76,190,21*7E
$GPGSV,2,2,06,04,40,307,72,13,16,154,17*7D
$GPRMC,082651.039,V,3854.727,N,07702.351,W,32.5,0.27,190416,,E*46
$GPGGA,082652.039,3854.727,N,07702.351,W,0,04,0.4,,M,,M,,*73
$GPGLL,3854.727,N,07702.351,W,082653.039,V*3C
$GPVTG,0.27,T,,M,32.5,N,60.2,K*55
$GPRMC,082655.039,V,3854.728,N,07702.350,W,89.3,0.32,190416,,E*4E
$GPGGA,082656.039,3854.728,N,07702.350,W,0,04,0.4,,M,,M,,*79
$GPGLL,3854.728,N,07702.350,W,082657.039,V*36
$GPVTG,0.32,T,,M,89.3,N,165.5,K*64
$GPRMC,082659.039,V,3854.730,N,07702.349,W,40.3,0.26,190416,,E*43
$GPGGA,082700.039,3854.730,N,07702.349,W,0,04,0.4,,M,,M,,*7A
$GPGLL,3854.730,N,07702.349,W,082701.039,V*35
$GPVTG,0.26,T,,M,40.3,N,74.6,K*56
$GPRMC,082703.039,V,3854.732,N,07702.349,W,66.2,0.22,190416,,E*4E
$GPGGA,082704.039,3854.732,N,07702.349,W,0,04,0.4,,M,,M,,*7C
$GPGLL,3854.732,N,07702.349,W,082705.039,V*33
$GPVTG,0.22,T,,M,66.2,N,122.6,K*65
$GPRMC,082707.039,V,3854.733,N,07702.348,W,94.0,0.23,190416,,E*44
$GPGGA,082708.039,3854.733,N,07702.348,W,0,04,0.4,,M,,M,,*70
$GPGLL,3854.733,N,07702.348,W,082709.039,V*3F
$GPVTG,0.23,T,,M,94.0,N,174.1,K*6F
$GPRMC,082711.039,V,3854.735,N,07702.348,W,36.5,0.18,190416,,E*40
$GPGGA,082712.039,3854.735,N,07702.348,W,0,04,0.4,,M,,M,,*7D
$GPGLL,3854.735,N,07702.348,W,082713.039,V*32
$GPVTG,0.18,T,,M,36.5,N,67.7,K*5F
$GPRMC,082715.039,V,3854.737,N,07702.347,W,49.2,0.15,190416,,E*4B
$GPGGA,082716.039,3854.737,N,07702.347,W,0,04,0.4,,M,,M,,*74
$GPGLL,3854.737,N,07702.347,W,082717.039,V*3B
$GPVTG,0.15,T,,M,49.2,N,91.2,K*51
$GPRMC,082719.039,V,3854.739,N,07702.347,W,73.2,0.15,190416,,E*40
$GPGGA,082720.039,3854.739,N,07702.347,W,0,04,0.4,,M,,M,,*7F
$GPGLL,3854.739,N,07702.347,W,082721.039,V*30
$GPVTG,0.15,T,,M,73.2,N,135.5,K*60
$GPRMC,082723.039,V,3854.740,N,07702.347,W,89.1,0.09,190416,,E*4C
$GPGGA,082724.039,3854.740,N,07702.347,W,0,04,0.4,,M,,M,,*75
$GPGLL,3854.740,N,07702.347,W,082725.039,V*3A
$GPVTG,0.09,T,,M,89.1,N,165.1,K*6A
$GPRMC,082727.039,V,3854.742,N,07702.346,W,83.1,0.14,190416,,E*4D
$GPGGA,082728.039,3854.742,N,07702.346,W,0,04,0.4,,M,,M,,*7A
$GPGLL,3854.742,N,07702.346,W,082729.039,V*35
$GPVTG,0.14,T,,M,83.1,N,153.9,K*61
$GPRMC,082731.039,V,3854.744,N,07702.346,W,35.0,0.16,190416,,E*42
$GPGGA,082732.039,3854.744,N,07702.346,W,0,04,0.4,,M,,M,,*77
$GPGLL,3854.744,N,07702.346,W,082733.039,V*38
$GPVTG,0.16,T,,M,35.0,N,64.7,K*54
$GPRMC,082735.039,V,3854.746,N,07702.345,W,68.2,0.25,190416,,E*4D
$GPGGA,082736.039,3854.746,N,07702.345,W,0,04,0.4,,M,,M,,*72
$GPGLL,3854.746,N,07702.345,W,082737.039,V*3D
$GPVTG,0.25,T,,M,68.2,N,126.3,K*6D
$GPRMC,082739.039,V,3854.747,N,07702.344,W,7.0,0.26,190416,,E*79
$GPGGA,082740.039,3854.747,N,07702.344,W,0,04,0.4,,M,,M,,*73
$GPGLL,3854.747,N,07702.344,W,082741.039,V*3C
$GPVTG,0.26,T,,M,7.0,N,12.9,K*69
$GPRMC,082743.039,V,3854.749,N,07702.343,W,42.3,0.36,190416,,E*4E
$GPGGA,082744.039,3854.749,N,07702.343,W,0,04,0.4,,M,,M,,*7E
$GPGLL,3854.749,N,07702.343,W,082745.039,V*31
$GPVTG,0.36,T,,M,42.3,N,78.4,K*5B
$GPGSA,A,3,19,09,18,13,04,13,,,,,,,0.3,0.7,0.9*33
$GPGSV,2,1,06,19,13,049,74,09,10,017,81,18,63,234,76,13,07,322,21*72
$GPGSV,2,2,06,04,77,100,83,13,15,242,29*78
$GPRMC,082750.039,V,3854.750,N,07702.343,W,76.1,0.33,190416,,E*44
$GPGGA,082751.039,3854.750,N,07702.343,W,0,04,0.7,,M,,M,,*71
$GPGLL,3854.750,N,07702.343,W,082752.039,V*3F
$GPVTG,0.33,T,,M,76.1,N,140.9,K*6C
$GPRMC,082754.039,V,3854.752,N,07702.342,W,65.4,0.29,190416,,E*4F
$GPGGA,082755.039,3854.752,N,07702.342,W,0,04,0.7,,M,,M,,*76
$GPGLL,3854.752,N,07702.342,W,082756.039,V*38
$GPVTG,0.29,T,,M,65.4,N,121.2,K*6C
$GPRMC,082758.039,V,3854.754,N,07702.341,W,56.9,0.21,190416,,E*43
$GPGGA,082759.039,3854.754,N,07702.341,W,0,04,0.7,,M,,M,,*7F
$GPGLL,3854.754,N,07702.341,W,082800.039,V*31
$GPVTG,0.21,T,,M,56.9,N,105.4,K*69
$GPRMC,082802.039,V,3854.755,N,07702.341,W,55.1,0.10,190416,,E*4B
$GPGGA,082803.039,3854.755,N,07702.341,W,0,04,0.7,,M,,M,,*7E
$GPGLL,3854.755,N,07702.341,W,082804.039,V*34
$GPVTG,0.10,T,,M,55.1,N,102.0,K*63
$GPRMC,082806.039,V,3854.757,N,07702.340,W,94.2,0.15,190416,,E*47
$GPGGA,082807.039,3854.757,N,07702.340,W,0,04,0.7,,M,,M,,*79
$GPGLL,3854.757,N,07702.340,W,082808.039,V*3B
$GPVTG,0.15,T,,M,94.2,N,174.4,K*6D
$GPRMC,082810.039,V,3854.759,N,07702.340,W,33.5,0.17,190416,,E*46
$GPGGA,082811.039,3854.759,N,07702.340,W,0,04,0.7,,M,,M,,*70
$GPGLL,3854.759,N,07702.340,W,082812.039,V*3E
$GPVTG,0.17,T,,M,33.5,N,62.0,K*57
$GPRMC,082814.039,V,3854.761,N,07702.340,W,87.2,-0.12,190416,,E*69
$GPGGA,082815.039,3854.761,N,07702.340,W,0,04,0.7,,M,,M,,*7F
$GPGLL,3854.761,N,07702.340,W,082816.039,V*31
$GPVTG,-0.12,T,,M,87.2,N,161.4,K*41
$GPRMC,082818.039,V,3854.762,N,07702.341,W,96.2,-0.20,190416,,E*66
$GPGGA,082819.039,3854.762,N,07702.341,W,0,04,0.7,,M,,M,,*71
$GPGLL,3854.762,N,07702.341,W,082820.039,V*36
$GPVTG,-0.20,T,,M,96.2,N,178.2,K*4E
$GPRMC,082822.039,V,3854.764,N,07702.342,W,79.6,-0.25,190416,,E*6A
$GPGGA,082823.039,3854.764,N,07702.342,W,0,04,0.7,,M,,M,,*7D
$GPGLL,3854.764,N,07702.342,W,082824.039,V*37
$GPVTG,-0.25,T,,M,79.6,N,147.5,K*45
$GPRMC,082826.039,V,3854.766,N,07702.342,W,65.3,-0.28,190416,,E*69
$GPGGA,082827.039,3854.766,N,07702.342,W,0,04,0.7,,M,,M,,*7B
$GPGLL,3854.766,N,07702.342,W,082828.039,V*39
$GPVTG,-0.28,T,,M,65.3,N,120.9,K*4D
$GPRMC,082830.039,V,3854.767,N,07702.343,W,77.3,-0.19,190416,,E*6F
$GPGGA,082831.039,3854.767,N,07702.343,W,0,04,0.7,,M,,M,,*7C
$GPGLL,3854.767,N,07702.343,W,082832.039,V*32
$GPVTG,-0.19,T,,M,77.3,N,143.1,K*41
$GPRMC,082834.039,V,3854.769,N,07702.344,W,75.8,-0.26,190416,,E*67
$GPGGA,082835.039,3854.769,N,07702.344,W,0,04,0.7,,M,,M,,*71
$GPGLL,3854.769,N,07702.344,W,082836.039,V*3F
$GPVTG,-0.26,T,,M,75.8,N,140.3,K*45
$GPRMC,082838.039,V,3854.771,N,07702.344,W,47.7,-0.33,190416,,E*68
$GPGGA,082839.039,3854.771,N,07702.344,W,0,04,0.7,,M,,M,,*74
$GPGLL,3854.771,N,07702.344,W,082840.039,V*37
$GPVTG,-0.33,T,,M,47.7,N,88.3,K*7A
$GPRMC,082842.039,V,3854.772,N,07702.346,W,53.9,-0.44,190416,,E*6F
$GPGGA,082843.039,3854.772,N,07702.346,W,0,04,0.7,,M,,M,,*78
$GPGLL,3854.772,N,07702.346,W,082844.039,V*32
$GPVTG,-0.44,T,,M,53.9,N,99.9,K*7B
$GPGSA,A,3,19,09,18,13,04,13,,,,,,,0.4,0.5,0.7*38
$GPGSV,2,1,06,19,18,020,17,09,18,186,36,18,10,175,74,13,74,129,87*7F
$GPGSV,2,2,06,04,24,202,41,13,32,203,65*79
$GPRMC,082849.039,V,3854.773,N,07702.347,W,1.5,-0.53,190416,,E*59
$GPGGA,082850.039,3854.773,N,07702.347,W,0,04,0.5,,M,,M,,*78
$GPGLL,3854.773,N,07702.347,W,082851.039,V*36
$GPVTG,-0.53,T,,M,1.5,N,2.7,K*7A
$GPRMC,082853.039,V,3854.774,N,07702.348,W,46.6,-0.53,190416,,E*6A
$GPGGA,082854.039,3854.774,N,07702.348,W,0,04,0.5,,M,,M,,*74
$GPGLL,3854.774,N,07702.348,W,082855.039,V*3A
$GPVTG,-0.53,T,,M,46.6,N,86.2,K*73
$GPRMC,082857.039,V,3854.776,N,07702.350,W,14.1,-0.55,190416,,E*63
$GPGGA,082858.039,3854.776,N,07702.350,W,0,04,0.5,,M,,M,,*73
$GPGLL,3854.776,N,07702.350,W,082859.039,V*3D
$GPVTG,-0.55,T,,M,14.1,N,26.1,K*7C
$GPRMC,082901.039,V,3854.777,N,07702.351,W,3.6,-0.55,190416,,E*50
$GPGGA,082902.039,3854.777,N,07702.351,W,0,04,0.5,,M,,M,,*7D
$GPGLL,3854.777,N,07702.351,W,082903.039,V*33
$GPVTG,-0.55,T,,M,3.6,N,6.7,K*79
$GPRMC,082905.039,V,3854.778,N,07702.353,W,23.4,-0.65,190416,,E*6A
$GPGGA,082906.039,3854.778,N,07702.353,W,0,04,0.5,,M,,M,,*74
$GPGLL,3854.778,N,07702.353,W,082907.039,V*3A
$GPVTG,-0.65,T,,M,23.4,N,43.3,K*7F
$GPRMC,082909.039,V,3854.778,N,07702.354,W,77.5,-0.75,190416,,E*60
$GPGGA,082910.039,3854.778,N,07702.354,W,0,04,0.5,,M,,M,,*74
$GPGLL,3854.778,N,07702.354,W,082911.039,V*3A
$GPVTG,-0.75,T,,M,77.5,N,143.6,K*4A
$GPGSA,A,2,19,09,18,13,04,13,,,,,,,0.6,0.5,0.5*39
$GPGSV,2,1,06,19,79,099,48,09,77,000,37,18,21,169,42,13,83,269,64*7F
$GPGSV,2,2,06,04,23,357,63,13,65,247,37*7A
$GPRMC,082916.039,V,3854.779,N,07702.356,W,99.5,-0.80,190416,,E*67
$GPGGA,082917.039,3854.779,N,07702.356,W,0,04,0.5,,M,,M,,*70
$GPGLL,3854.779,N,07702.356,W,082918.039,V*30
$GPVTG,-0.80,T,,M,99.5,N,184.3,K*4E
$GPRMC,082920.039,V,3854.779,N,07702.358,W,62.0,-0.89,190416,,E*64
$GPGGA,082921.039,3854.779,N,07702.358,W,0,04,0.5,,M,,M,,*7B
$GPGLL,3854.779,N,07702.358,W,082922.039,V*37
$GPVTG,-0.89,T,,M,62.0,N,114.8,K*44
$GPRMC,082924.039,V,3854.779,N,07702.359,W,38.7,-0.94,190416,,E*65
$GPGGA,082925.039,3854.779,N,07702.359,W,0,04,0.5,,M,,M,,*7E
$GPGLL,3854.779,N,07702.359,W,082926.039,V*32
$GPVTG,-0.94,T,,M,38.7,N,71.7,K*7D
$GPRMC,082928.039,V,3854.779,N,07702.361,W,41.0,-1.04,190416,,E*63
$GPGGA,082929.039,3854.779,N,07702.361,W,0,04,0.5,,M,,M,,*79
$GPGLL,3854.779,N,07702.361,W,082930.039,V*3E
$GPVTG,-1.04,T,,M,41.0,N,76.0,K*7C
$GPRMC,082932.039,V,3854.779,N,07702.363,W,82.9,-1.03,190416,,E*6B
$GPGGA,082933.039,3854.779,N,07702.363,W,0,04,0.5,,M,,M,,*70
$GPGLL,3854.779,N,07702.363,W,082934.039,V*38
$GPVTG,-1.03,T,,M,82.9,N,153.6,K*4D
$GPRMC,082936.039,V,3854.779,N,07702.365,W,59.8,-1.12,190416,,E*6E
$GPGGA,082937.039,3854.779,N,07702.365,W,0,04,0.5,,M,,M,,*72
$GPGLL,3854.779,N,07702.365,W,082938.039,V*32
$GPVTG,-1.12,T,,M,59.8,N,110.7,K*4C
$GPRMC,082940.039,V,3854.778,N,07702.367,W,63.2,-1.23,190416,,E*6D
$GPGGA,082941.039,3854.778,N,07702.367,W,0,04,0.5,,M,,M,,*70
$GPGLL,3854.778,N,07702.367,W,082942.039,V*3C
$GPVTG,-1.23,T,,M,63.2,N,117.0,K*4D
$GPRMC,082944.039,V,3854.777,N,07702.368,W,58.3,-1.33,190416,,E*61
$GPGGA,082945.039,3854.777,N,07702.368,W,0,04,0.5,,M,,M,,*74
$GPGLL,3854.777,N,07702.368,W,082946.039,V*38
$GPVTG,-1.33,T,,M,58.3,N,107.9,K*4D
$GPRMC,082948.039,V,3854.777,N,07702.370,W,79.0,-1.30,190416,,E*67
$GPGGA,082949.039,3854.777,N,07702.370,W,0,04,0.5,,M,,M,,*71
$GPGLL,3854.777,N,07702.370,W,082950.039,V*36
$GPVTG,-1.30,T,,M,79.0,N,146.3,K*41
$GPRMC,082952.039,V,3854.776,N,07702.371,W,37.9,-1.30,190416,,E*6F
$GPGGA,082953.039,3854.776,N,07702.371,W,0,04,0.5,,M,,M,,*7A
$GPGLL,3854.776,N,07702.371,W,082954.039,V*32
$GPVTG,-1.30,T,,M,37.9,N,70.2,K*77
$GPRMC,082956.039,V,3854.775,N,07702.373,W,20.4,-1.38,190416,,E*69
$GPGGA,082957.039,3854.775,N,07702.373,W,0,04,0.5,,M,,M,,*7F
$GPGLL,3854.775,N,07702.373,W,082958.039,V*3F
$GPVTG,-1.38,T,,M,20.4,N,37.7,K*72
$GPRMC,083000.039,V,3854.774,N,07702.374,W,98.7,-1.32,190416,,E*6E
$GPGGA,083001.039,3854.774,N,07702.374,W,0,04,0.5,,M,,M,,*72
$GPGLL,3854.774,N,07702.374,W,083002.039,V*3E
$GPVTG,-1.32,T,,M,98.7,N,182.8,K*48
$GPRMC,083004.039,V,3854.773,N,07702.376,W,84.2,-1.24,190416,,E*60
$GPGGA,083005.039,3854.773,N,07702.376,W,0,04,0.5,,M,,M,,*73
$GPGLL,3854.773,N,07702.376,W,083006.039,V*3F
$GPVTG,-1.24,T,,M,84.2,N,155.9,K*4C
$GPRMC,083008.039,V,3854.772,N,07702.378,W,64.6,-1.30,190416,,E*6C
$GPGGA,083009.039,3854.772,N,07702.378,W,0,04,0.5,,M,,M,,*70
$GPGLL,3854.772,N,07702.378,W,083010.039,V*37
$GPVTG,-1.30,T,,M,64.6,N,119.7,K*45
$GPRMC,083012.039,V,3854.772,N,07702.379,W,14.3,-1.19,190416,,E*6F
$GPGGA,083013.039,3854.772,N,07702.379,W,0,04,0.5,,M,,M,,*7A
$GPGLL,3854.772,N,07702.379,W,083014.039,V*32
$GPVTG,-1.19,T,,M,14.3,N,26.4,K*72
$GPRMC,083016.039,V,3854.771,N,07702.381,W,54.4,-1.21,190416,,E*67
$GPGGA,083017.039,3854.771,N,07702.381,W,0,04,0.5,,M,,M,,*7A
$GPGLL,3854.771,N,07702.381,W,083018.039,V*3A
$GPVTG,-1.21,T,,M,54.4,N,100.7,K*4C
$GPRMC,083020.039,V,3854.771,N,07702.383,W,92.2,-1.14,190416,,E*6A
$GPGGA,083021.039,3854.771,N,07702.383,W,0,04,0.5,,M,,M,,*7D
$GPGLL,3854.771,N,07702.383,W,083022.039,V*31
$GPVTG,-1.14,T,,M,92.2,N,170.8,K*4E
$GPRMC,083024.039,V,3854.770,N,07702.385,W,62.2,-1.23,190416,,E*62
$GPGGA,083025.039,3854.770,N,07702.385,W,0,04,0.5,,M,,M,,*7E
$GPGLL,3854.770,N,07702.385,W,083026.039,V*32
$GPVTG,-1.23,T,,M,62.2,N,115.2,K*4C
$GPRMC,083028.039,V,3854.770,N,07702.386,W,85.9,-1.23,190416,,E*6F
$GPGGA,083029.039,3854.770,N,07702.386,W,0,04,0.5,,M,,M,,*71
$GPGLL,3854.770,N,07702.386,W,083030.039,V*36
$GPVTG,-1.23,T,,M,85.9,N,159.0,K*44
$GPRMC,083032.039,V,3854.769,N,07702.388,W,19.5,-1.17,190416,,E*6C
$GPGGA,083033.039,3854.769,N,07702.388,W,0,04,0.5,,M,,M,,*7C
$GPGLL,3854.769,N,07702.388,W,083034.039,V*34
$GPVTG,-1.17,T,,M,19.5,N,36.1,K*73
$GPRMC,083036.039,V,3854.769,N,07702.390,W,73.9,-1.17,190416,,E*61
$GPGGA,083037.039,3854.769,N,07702.390,W,0,04,0.5,,M,,M,,*71
$GPGLL,3854.769,N,07702.390,W,083038.039,V*31
$GPVTG,-1.17,T,,M,73.9,N,136.9,K*4A
$GPRMC,083040.039,V,3854.768,N,07702.391,W,54.7,-1.17,190416,,E*6B
$GPGGA,083041.039,3854.768,N,07702.391,W,0,04,0.5,,M,,M,,*70
$GPGLL,3854.768,N,07702.391,W,083042.039,V*3C
$GPVTG,-1.17,T,,M,54.7,N,101.3,K*4F
$GPRMC,083044.039,V,3854.769,N,07702.393,W,37.7,-0.79,190416,,E*60
$GPGGA,083045.039,3854.769,N,07702.393,W,0,04,0.5,,M,,M,,*77
$GPGLL,3854.769,N,07702.393,W,083046.039,V*3B
$GPVTG,-0.79,T,,M,37.7,N,69.8,K*77
$GPRMC,083048.039,V,3854.769,N,07702.395,W,25.0,-0.73,190416,,E*64
$GPGGA,083049.039,3854.769,N,07702.395,W,0,04,0.5,,M,,M,,*7D
$GPGLL,3854.769,N,07702.395,W,083050.039,V*3A
$GPVTG,-0.73,T,,M,25.0,N,46.3,K*7F
$GPRMC,083052.039,V,3854.770,N,07702.396,W,87.2,-0.78,190416,,E*65
$GPGGA,083053.039,3854.770,N,07702.396,W,0,04,0.5,,M,,M,,*7D
$GPGLL,3854.770,N,07702.396,W,083054.039,V*35
$GPVTG,-0.78,T,,M,87.2,N,161.5,K*4C
$GPGSA,A,2,19,09,18,13,04,13,,,,,,,0.4,0.2,0.1*38
$GPGSV,2,1,06,19,81,237,75,09,39,018,61,18,80,250,19,13,13,171,59*71
$GPGSV,2,2,06,04,18,023,40,13,10,124,43*74
$GPRMC,083059.039,V,3854.771,N,07702.398,W,0.1,-0.68,190416,,E*5C
$GPGGA,083100.039,3854.771,N,07702.398,W,0,04,0.2,,M,,M,,*72
$GPGLL,3854.771,N,07702.398,W,083101.039,V*3B
$GPVTG,-0.68,T,,M,0.1,N,0.1,K*73
$GPRMC,083103.039,V,3854.772,N,07702.400,W,4.2,-0.71,190416,,E*58
$GPGGA,083104.039,3854.772,N,07702.400,W,0,04,0.2,,M,,M,,*73
$GPGLL,3854.772,N,07702.400,W,083105.039,V*3A
$GPVTG,-0.71,T,,M,4.2,N,7.9,K*73
$GPRMC,083107.039,V,3854.773,N,07702.401,W,76.7,-0.60,190416,,E*6C
$GPGGA,083108.039,3854.773,N,07702.401,W,0,04,0.2,,M,,M,,*7F
$GPGLL,3854.773,N,07702.401,W,083109.039,V*36
$GPVTG,-0.60,T,,M,76.7,N,142.1,K*4B
$GPRMC,083111.039,V,3854.774,N,07702.403,W,1.2,-0.63,190416,,E*58
$GPGGA,083112.039,3854.774,N,07702.403,W,0,04,0.2,,M,,M,,*71
$GPGLL,3854.774,N,07702.403,W,083113.039,V*38
$GPVTG,-0.63,T,,M,1.2,N,2.3,K*7A
$GPRMC,083115.039,V,3854.775,N,07702.404,W,54.4,-0.62,190416,,E*6D
$GPGGA,083116.039,3854.775,N,07702.404,W,0,04,0.2,,M,,M,,*73
$GPGLL,3854.775,N,07702.404,W,083117.039,V*3A
$GPVTG,-0.62,T,,M,54.4,N,100.7,K*4A
$GPRMC,083119.039,V,3854.776,N,07702.406,W,4.9,-0.60,190416,,E*5A
$GPGGA,083120.039,3854.776,N,07702.406,W,0,04,0.2,,M,,M,,*77
$GPGLL,3854.776,N,07702.406,W,083121.039,V*3E
$GPVTG,-0.60,T,,M,4.9,N,9.1,K*7E
$GPRMC,083123.039,V,3854.777,N,07702.407,W,21.9,-0.54,190416,,E*63
$GPGGA,083124.039,3854.777,N,07702.407,W,0,04,0.2,,M,,M,,*73
$GPGLL,3854.777,N,07702.407,W,083125.039,V*3A
$GPVTG,-0.54,T,,M,21.9,N,40.6,K*74
$GPRMC,083127.039,V,3854.777,N,07702.409,W,73.3,-0.88,190416,,E*65
$GPGGA,083128.039,3854.777,N,07702.409,W,0,04,0.2,,M,,M,,*71
$GPGLL,3854.777,N,07702.409,W,083129.039,V*38
$GPVTG,-0.88,T,,M,73.3,N,135.7,K*4A
$GPRMC,083131.039,V,3854.778,N,07702.410,W,76.8,-0.82,190416,,E*61
$GPGGA,083132.039,3854.778,N,07702.410,W,0,04,0.2,,M,,M,,*7D
$GPGLL,3854.778,N,07702.410,W,083133.039,V*34
$GPVTG,-0.82,T,,M,76.8,N,142.2,K*4B
$GPRMC,083135.039,V,3854.778,N,07702.412,W,89.8,-0.83,190416,,E*66
$GPGGA,083136.039,3854.778,N,07702.412,W,0,04,0.2,,M,,M,,*7B
$GPGLL,3854.778,N,07702.412,W,083137.039,V*32
$GPVTG,-0.83,T,,M,89.8,N,166.4,K*4A
$GPRMC,083139.039,V,3854.779,N,07702.414,W,13.9,-0.79,190416,,E*6A
$GPGGA,083140.039,3854.779,N,07702.414,W,0,04,0.2,,M,,M,,*7D
$GPGLL,3854.779,N,07702.414,W,083141.039,V*34
$GPVTG,-0.79,T,,M,13.9,N,25.7,K*78
$GPRMC,083143.039,V,3854.779,N,07702.416,W,89.4,-0.84,190416,,E*69
$GPGGA,083144.039,3854.779,N,07702.416,W,0,04,0.2,,M,,M,,*7B
$GPGLL,3854.779,N,07702.416,W,083145.039,V*32
$GPVTG,-0.84,T,,M,89.4,N,165.5,K*43
$GPRMC,083147.039,V,3854.780,N,07702.417,W,88.8,-0.93,190416,,E*61
$GPGGA,083148.039,3854.780,N,07702.417,W,0,04,0.2,,M,,M,,*70
$GPGLL,3854.780,N,07702.417,W,083149.039,V*39
$GPVTG,-0.93,T,,M,88.8,N,164.5,K*49
$GPGSA,A,2,19,09,18,13,04,13,,,,,,,0.4,0.8,0.2*31
$GPGSV,2,1,06,19,24,187,82,09,13,202,89,18,17,331,88,13,89,286,60*7B
$GPGSV,2,2,06,04,79,051,80,13,51,326,64*7A
$GPRMC,083154.039,V,3854.780,N,07702.419,W,10.0,-0.94,190416,,E*63
$GPGGA,083155.039,3854.780,N,07702.419,W,0,04,0.8,,M,,M,,*78
$GPGLL,3854.780,N,07702.419,W,083156.039,V*39
$GPVTG,-0.94,T,,M,10.0,N,18.6,K*7E
$GPRMC,083158.039,V,3854.780,N,07702.421,W,51.1,-0.93,190416,,E*67
$GPGGA,083159.039,3854.780,N,07702.421,W,0,04,0.8,,M,,M,,*7F
$GPGLL,3854.780,N,07702.421,W,083200.039,V*32
$GPVTG,-0.93,T,,M,51.1,N,94.7,K*78
$GPRMC,083202.039,V,3854.780,N,07702.423,W,90.0,-0.94,190416,,E*62
$GPGGA,083203.039,3854.780,N,07702.423,W,0,04,0.8,,M,,M,,*71
$GPGLL,3854.780,N,07702.423,W,083204.039,V*34
$GPVTG,-0.94,T,,M,90.0,N,166.6,K*4E
$GPRMC,083206.039,V,3854.780,N,07702.425,W,8.4,-0.92,190416,,E*53
$GPGGA,083207.039,3854.780,N,07702.425,W,0,04,0.8,,M,,M,,*73
$GPGLL,3854.780,N,07702.425,W,083208.039,V*3E
$GPVTG,-0.92,T,,M,8.4,N,15.5,K*4B
$GPGSA,A,2,19,09,18,13,04,13,,,,,,,0.3,0.7,0.5*3E
$GPGSV,2,1,06,19,68,249,35,09,33,202,65,18,49,136,72,13,53,014,67*7C
$GPGSV,2,2,06,04,69,047,89,13,87,078,37*70
$GPRMC,083213.039,V,3854.780,N,07702.426,W,49.4,-0.98,190416,,E*6B
$GPGGA,083214.039,3854.780,N,07702.426,W,0,04,0.7,,M,,M,,*7D
$GPGLL,3854.780,N,07702.426,W,083215.039,V*31
$GPVTG,-0.98,T,,M,49.4,N,91.5,K*78
$GPRMC,083217.039,V,3854.781,N,07702.428,W,38.8,-0.93,190416,,E*61
$GPGGA,083218.039,3854.781,N,07702.428,W,0,04,0.7,,M,,M,,*7E
$GPGLL,3854.781,N,07702.428,W,083219.039,V*32
$GPVTG,-0.93,T,,M,38.8,N,71.8,K*7A
$GPRMC,083221.039,V,3854.781,N,07702.430,W,19.5,-0.88,190416,,E*69
$GPGGA,083222.039,3854.781,N,07702.430,W,0,04,0.7,,M,,M,,*7E
$GPGLL,3854.781,N,07702.430,W,083223.039,V*32
$GPVTG,-0.88,T,,M,19.5,N,36.1,K*74
$GPRMC,083225.039,V,3854.781,N,07702.432,W,9.5,-1.15,190416,,E*5B
$GPGGA,083226.039,3854.781,N,07702.432,W,0,04,0.7,,M,,M,,*78
$GPGLL,3854.781,N,07702.432,W,083227.039,V*34
$GPVTG,-1.15,T,,M,9.5,N,17.6,K*44
$GPRMC,083229.039,V,3854.780,N,07702.433,W,87.4,-1.08,190416,,E*6C
$GPGGA,083230.039,3854.780,N,07702.433,W,0,04,0.7,,M,,M,,*7F
$GPGLL,3854.780,N,07702.433,W,083231.039,V*33
$GPVTG,-1.08,T,,M,87.4,N,161.8,K*41
$GPRMC,083233.039,V,3854.780,N,07702.435,W,72.9,-1.08,190416,,E*66
$GPGGA,083234.039,3854.780,N,07702.435,W,0,04,0.7,,M,,M,,*7D
$GPGLL,3854.780,N,07702.435,W,083235.039,V*31
$GPVTG,-1.08,T,,M,72.9,N,135.1,K*4E
$GPRMC,083237.039,V,3854.780,N,07702.437,W,79.7,-1.01,190416,,E*6C
$GPGGA,083238.039,3854.780,N,07702.437,W,0,04,0.7,,M,,M,,*73
$GPGLL,3854.780,N,07702.437,W,083239.039,V*3F
$GPVTG,-1.01,T,,M,79.7,N,147.5,K*43
$GPRMC,083241.039,V,3854.780,N,07702.439,W,24.2,-1.09,190416,,E*66
$GPGGA,083242.039,3854.780,N,07702.439,W,0,04,0.7,,M,,M,,*70
$GPGLL,3854.780,N,07702.439,W,083243.039,V*3C
$GPVTG,-1.09,T,,M,24.2,N,44.9,K*78
$GPRMC,083245.039,V,3854.780,N,07702.441,W,29.7,-1.01,190416,,E*6D
$GPGGA,083246.039,3854.780,N,07702.441,W,0,04,0.7,,M,,M,,*7B
$GPGLL,3854.780,N,07702.441,W,083247.039,V*37
$GPVTG,-1.01,T,,M,29.7,N,55.0,K*71
$GPRMC,083249.039,V,3854.780,N,07702.442,W,61.3,-0.94,190416,,E*67
$GPGGA,083250.039,3854.780,N,07702.442,W,0,04,0.7,,M,,M,,*7F
$GPGLL,3854.780,N,07702.442,W,083251.039,V*33
$GPVTG,-0.94,T,,M,61.3,N,113.5,K*42
$GPRMC,083253.039,V,3854.781,N,07702.444,W,82.0,-0.76,190416,,E*69
$GPGGA,083254.039,3854.781,N,07702.444,W,0,04,0.7,,M,,M,,*7C
$GPGLL,3854.781,N,07702.444,W,083255.039,V*30
$GPVTG,-0.76,T,,M,82.0,N,151.9,K*4A
$GPGSA,A,2,19,09,18,13,04,13,,,,,,,0.9,0.4,0.8*3A
$GPGSV,2,1,06,19,23,111,89,09,17,337,60,18,82,355,39,13,69,329,82*7E
$GPGSV,2,2,06,04,54,098,37,13,14,022,85*75
$GPRMC,083300.039,V,3854.782,N,07702.446,W,48.8,-0.67,190416,,E*61
$GPGGA,083301.039,3854.782,N,07702.446,W,0,04,0.4,,M,,M,,*7F
$GPGLL,3854.782,N,07702.446,W,083302.039,V*32
$GPVTG,-0.67,T,,M,48.8,N,90.4,K*75
$GPGSA,A,2,19,09,18,13,04,13,,,,,,,0.4,0.7,0.1*3D
$GPGSV,2,1,06,19,06,208,84,09,24,006,41,18,78,020,46,13,05,258,35*70
$GPGSV,2,2,06,04,31,177,40,13,62,091,47*71
$GPRMC,083307.039,V,3854.782,N,07702.447,W,31.5,-0.71,190416,,E*63
$GPGGA,083308.039,3854.782,N,07702.447,W,0,04,0.7,,M,,M,,*74
$GPGLL,3854.782,N,07702.447,W,083309.039,V*38
$GPVTG,-0.71,T,,M,31.5,N,58.4,K*75
$GPGSA,A,3,19,09,18,13,04,13,,,,,,,0.8,0.6,0.3*33
$GPGSV,2,1,06,19,16,189,87,09,75,003,24,18,28,323,66,13,15,329,75*7F
$GPGSV,2,2,06,04,16,072,22,13,11,181,62*77
$GPRMC,083314.039,V,3854.783,N,07702.449,W,55.1,-0.68,190416,,E*60
$GPGGA,083315.039,3854.783,N,07702.449,W,0,04,0.6,,M,,M,,*76
$GPGLL,3854.783,N,07702.449,W,083316.039,V*39
$GPVTG,-0.68,T,,M,55.1,N,102.0,K*41
$GPRMC,083318.039,V,3854.784,N,07702.450,W,89.9,-0.60,190416,,E*62
$GPGGA,083319.039,3854.784,N,07702.450,W,0,04,0.6,,M,,M,,*75
$GPGLL,3854.784,N,07702.450,W,083320.039,V*33
$GPVTG,-0.60,T,,M,89.9,N,166.6,K*44
