$GPRMC,075151.493,V,3854.930,N,07702.495,W,49.6,0.89,190416,,E*41
$GPGGA,075152.493,3854.930,N,07702.495,W,0,00,,,M,,M,,*51
$GPGLL,3854.930,N,07702.495,W,075153.493,V*30
$GPVTG,0.89,T,,M,49.6,N,91.9,K*5B
$GPRMC,075155.493,V,3854.930,N,07702.494,W,73.7,0.92,190416,,E*46
$GPGGA,075156.493,3854.930,N,07702.494,W,0,00,,,M,,M,,*54
$GPGLL,3854.930,N,07702.494,W,075157.493,V*35
$GPVTG,0.92,T,,M,73.7,N,136.5,K*69
$GPRMC,075159.493,V,3854.931,N,07702.492,W,55.5,0.83,190416,,E*4B
$GPGGA,075200.493,3854.931,N,07702.492,W,0,00,,,M,,M,,*53
$GPGLL,3854.931,N,07702.492,W,075201.493,V*32
$GPVTG,0.83,T,,M,55.5,N,102.8,K*65
$GPRMC,075203.493,V,3854.931,N,07702.490,W,94.2,1.00,190416,,E*45
$GPGGA,075204.493,3854.931,N,07702.490,W,0,00,,,M,,M,,*55
$GPGLL,3854.931,N,07702.490,W,075205.493,V*34
$GPVTG,1.00,T,,M,94.2,N,174.5,K*69
$GPRMC,075207.493,V,3854.931,N,07702.488,W,21.8,0.99,190416,,E*4D
$GPGGA,075208.493,3854.931,N,07702.488,W,0,00,,,M,,M,,*50
$GPGLL,3854.931,N,07702.488,W,075209.493,V*31
$GPVTG,0.99,T,,M,21.8,N,40.4,K*5B
$GPRMC,075211.493,V,3854.931,N,07702.487,W,8.1,1.03,190416,,E*75
$GPGGA,075212.493,3854.931,N,07702.487,W,0,00,,,M,,M,,*54
$GPGLL,3854.931,N,07702.487,W,075213.493,V*35
$GPVTG,1.03,T,,M,8.1,N,14.9,K*67
$GPRMC,075215.493,V,3854.931,N,07702.485,W,98.9,0.77,190416,,E*40
$GPGGA,075216.493,3854.931,N,07702.485,W,0,00,,,M,,M,,*52
$GPGLL,3854.931,N,07702.485,W,075217.493,V*33
$GPVTG,0.77,T,,M,98.9,N,183.1,K*63
$GPRMC,075219.493,V,3854.932,N,07702.483,W,58.8,0.84,190416,,E*48
$GPGGA,075220.493,3854.932,N,07702.483,W,0,00,,,M,,M,,*52
$GPGLL,3854.932,N,07702.483,W,075221.493,V*33
$GPVTG,0.84,T,,M,58.8,N,109.0,K*61
$GPRMC,075223.493,V,3854.932,N,07702.481,W,84.4,0.77,190416,,E*42
$GPGGA,075224.493,3854.932,N,07702.481,W,0,00,,,M,,M,,*54
$GPGLL,3854.932,N,07702.481,W,075225.493,V*35
$GPVTG,0.77,T,,M,84.4,N,156.4,K*6E
$GPRMC,075227.493,V,3854.933,N,07702.480,W,58.6,0.70,190416,,E*42
$GPGGA,075228.493,3854.933,N,07702.480,W,0,00,,,M,,M,,*58
$GPGLL,3854.933,N,07702.480,W,075229.493,V*39
$GPVTG,0.70,T,,M,58.6,N,108.4,K*61
$GPRMC,075231.493,V,3854.934,N,07702.478,W,60.1,0.77,190416,,E*4E
$GPGGA,075232.493,3854.934,N,07702.478,W,0,00,,,M,,M,,*53
$GPGLL,3854.934,N,07702.478,W,075233.493,V*32
$GPVTG,0.77,T,,M,60.1,N,111.3,K*65
$GPRMC,075235.493,V,3854.934,N,07702.476,W,84.1,0.81,190416,,E*47
$GPGGA,075236.493,3854.934,N,07702.476,W,0,00,,,M,,M,,*59
$GPGLL,3854.934,N,07702.476,W,075237.493,V*38
$GPVTG,0.81,T,,M,84.1,N,155.7,K*62
$GPRMC,075239.493,V,3854.935,N,07702.475,W,8.4,0.70,190416,,E*76
$GPGGA,075240.493,3854.935,N,07702.475,W,0,00,,,M,,M,,*5A
$GPGLL,3854.935,N,07702.475,W,075241.493,V*3B
$GPVTG,0.70,T,,M,8.4,N,15.5,K*6A
$GPRMC,075243.493,V,3854.936,N,07702.473,W,55.1,0.67,190416,,E*45
$GPGGA,075244.493,3854.936,N,07702.473,W,0,00,,,M,,M,,*5B
$GPGLL,3854.936,N,07702.473,W,075245.493,V*3A
$GPVTG,0.67,T,,M,55.1,N,102.0,K*63
$GPRMC,075247.493,V,3854.937,N,07702.472,W,53.2,0.67,190416,,E*44
$GPGGA,075248.493,3854.937,N,07702.472,W,0,00,,,M,,M,,*57
$GPGLL,3854.937,N,07702.472,W,075249.493,V*36
$GPVTG,0.67,T,,M,53.2,N,98.5,K*51
$GPRMC,075251.493,V,3854.938,N,07702.470,W,97.6,0.74,190416,,E*40
$GPGGA,075252.493,3854.938,N,07702.470,W,0,00,,,M,,M,,*51
$GPGLL,3854.938,N,07702.470,W,075253.493,V*30
$GPVTG,0.74,T,,M,97.6,N,180.7,K*65
$GPGSA,A,3,14,09,07,13,03,19,,,,,,,0.4,0.0,0.8*3C
$GPGSV,2,1,06,14,41,158,18,09,52,345,61,07,32,316,26,13,60,275,69*7F
$GPGSV,2,2,06,03,59,323,39,19,51,031,57*74
$GPRMC,075258.493,V,3854.938,N,07702.468,W,32.2,0.75,190416,,E*4A
$GPGGA,075259.493,3854.938,N,07702.468,W,0,04,0.0,,M,,M,,*79
$GPGLL,3854.938,N,07702.468,W,075300.493,V*3E
$GPVTG,0.75,T,,M,32.2,N,59.7,K*5A
$GPGSA,A,2,14,09,07,13,03,19,,,,,,,0.8,0.1,0.5*3D
$GPGSV,2,1,06,14,48,159,44,09,86,103,36,07,40,073,46,13,79,157,31*70
$GPGSV,2,2,06,03,87,194,63,19,57,344,74*70
$GPRMC,075305.493,V,3854.939,N,07702.467,W,67.4,0.83,190416,,E*42
$GPGGA,075306.493,3854.939,N,07702.467,W,0,04,0.1,,M,,M,,*7D
$GPGLL,3854.939,N,07702.467,W,075307.493,V*37
$GPVTG,0.83,T,,M,67.4,N,124.9,K*60
$GPRMC,075309.493,V,3854.940,N,07702.465,W,9.7,0.74,190416,,E*71
$GPGGA,075310.493,3854.940,N,07702.465,W,0,04,0.1,,M,,M,,*76
$GPGLL,3854.940,N,07702.465,W,075311.493,V*3C
$GPVTG,0.74,T,,M,9.7,N,18.0,K*64
$GPRMC,075313.493,V,3854.940,N,07702.463,W,68.8,0.69,190416,,E*48
$GPGGA,075314.493,3854.940,N,07702.463,W,0,04,0.1,,M,,M,,*74
$GPGLL,3854.940,N,07702.463,W,075315.493,V*3E
$GPVTG,0.69,T,,M,68.8,N,127.4,K*69
$GPGSA,A,3,14,09,07,13,03,19,,,,,,,0.5,0.2,0.1*36
$GPGSV,2,1,06,14,40,184,44,09,38,200,38,07,16,324,43,13,39,235,27*70
$GPGSV,2,2,06,03,80,245,60,19,51,276,28*74
$GPRMC,075320.493,V,3854.941,N,07702.462,W,39.1,0.91,190416,,E*42
$GPGGA,075321.493,3854.941,N,07702.462,W,0,04,0.2,,M,,M,,*71
$GPGLL,3854.941,N,07702.462,W,075322.493,V*3A
$GPVTG,0.91,T,,M,39.1,N,72.4,K*52
$GPGSA,A,3,14,09,07,13,03,19,,,,,,,0.9,0.2,0.2*39
$GPGSV,2,1,06,14,87,354,33,09,64,107,34,07,89,081,27,13,24,054,61*76
$GPGSV,2,2,06,03,64,295,24,19,37,058,51*73
$GPRMC,075327.493,V,3854.941,N,07702.460,W,8.3,0.91,190416,,E*77
$GPGGA,075328.493,3854.941,N,07702.460,W,0,04,0.2,,M,,M,,*7A
$GPGLL,3854.941,N,07702.460,W,075329.493,V*33
$GPVTG,0.91,T,,M,8.3,N,15.4,K*63
$GPRMC,075331.493,V,3854.941,N,07702.458,W,15.3,0.81,190416,,E*46
$GPGGA,075332.493,3854.941,N,07702.458,W,0,04,0.2,,M,,M,,*7A
$GPGLL,3854.941,N,07702.458,W,075333.493,V*33
$GPVTG,0.81,T,,M,15.3,N,28.4,K*50
$GPRMC,075335.493,V,3854.942,N,07702.456,W,34.4,0.74,190416,,E*41
$GPGGA,075336.493,3854.942,N,07702.456,W,0,04,0.2,,M,,M,,*73
$GPGLL,3854.942,N,07702.456,W,075337.493,V*3A
$GPVTG,0.74,T,,M,34.4,N,63.6,K*53
$GPGSA,A,3,14,09,07,13,03,19,,,,,,,0.3,0.3,0.4*34
$GPGSV,2,1,06,14,06,332,40,09,50,181,21,07,42,124,73,13,38,310,32*76
$GPGSV,2,2,06,03,87,021,65,19,26,305,16*7E
$GPRMC,075342.493,V,3854.943,N,07702.455,W,0.0,0.63,190416,,E*76
$GPGGA,075343.493,3854.943,N,07702.455,W,0,04,0.3,,M,,M,,*72
$GPGLL,3854.943,N,07702.455,W,075344.493,V*3C
$GPVTG,0.63,T,,M,0.0,N,0.0,K*55
$GPRMC,075346.493,V,3854.944,N,07702.454,W,40.0,0.60,190416,,E*43
$GPGGA,075347.493,3854.944,N,07702.454,W,0,04,0.3,,M,,M,,*70
$GPGLL,3854.944,N,07702.454,W,075348.493,V*36
$GPVTG,0.60,T,,M,40.0,N,74.0,K*51
$GPRMC,075350.493,V,3854.946,N,07702.452,W,25.4,0.49,190416,,E*4C
$GPGGA,075351.493,3854.946,N,07702.452,W,0,04,0.3,,M,,M,,*73
$GPGLL,3854.946,N,07702.452,W,075352.493,V*39
$GPVTG,0.49,T,,M,25.4,N,47.0,K*5D
$GPRMC,075354.493,V,3854.947,N,07702.451,W,77.3,0.54,190416,,E*46
$GPGGA,075355.493,3854.947,N,07702.451,W,0,04,0.3,,M,,M,,*75
$GPGLL,3854.947,N,07702.451,W,075356.493,V*3F
$GPVTG,0.54,T,,M,77.3,N,143.1,K*65
$GPRMC,075358.493,V,3854.948,N,07702.449,W,19.2,0.63,190416,,E*41
$GPGGA,075359.493,3854.948,N,07702.449,W,0,04,0.3,,M,,M,,*7F
$GPGLL,3854.948,N,07702.449,W,075400.493,V*3D
$GPVTG,0.63,T,,M,19.2,N,35.6,K*5F
$GPRMC,075402.493,V,3854.949,N,07702.448,W,36.7,0.56,190416,,E*47
$GPGGA,075403.493,3854.949,N,07702.448,W,0,04,0.3,,M,,M,,*77
$GPGLL,3854.949,N,07702.448,W,075404.493,V*39
$GPVTG,0.56,T,,M,36.7,N,68.0,K*5F
$GPRMC,075406.493,V,3854.950,N,07702.447,W,74.3,0.48,190416,,E*49
$GPGGA,075407.493,3854.950,N,07702.447,W,0,04,0.3,,M,,M,,*74
$GPGLL,3854.950,N,07702.447,W,075408.493,V*32
$GPVTG,0.48,T,,M,74.3,N,137.6,K*6F
$GPGSA,A,3,14,09,07,13,03,19,,,,,,,0.2,0.9,0.0*3B
$GPGSV,2,1,06,14,85,014,30,09,84,044,88,07,70,164,34,13,10,159,80*75
$GPGSV,2,2,06,03,49,071,83,19,20,156,24*72
$GPRMC,075413.493,V,3854.951,N,07702.446,W,6.3,0.47,190416,,E*77
$GPGGA,075414.493,3854.951,N,07702.446,W,0,04,0.9,,M,,M,,*7C
$GPGLL,3854.951,N,07702.446,W,075415.493,V*3E
$GPVTG,0.47,T,,M,6.3,N,11.7,K*61
$GPRMC,075417.493,V,3854.953,N,07702.444,W,20.8,0.53,190416,,E*49
$GPGGA,075418.493,3854.953,N,07702.444,W,0,04,0.9,,M,,M,,*70
$GPGLL,3854.953,N,07702.444,W,075419.493,V*32
$GPVTG,0.53,T,,M,20.8,N,38.6,K*51
$GPRMC,075421.493,V,3854.954,N,07702.443,W,68.5,0.56,190416,,E*48
$GPGGA,075422.493,3854.954,N,07702.443,W,0,04,0.9,,M,,M,,*79
$GPGLL,3854.954,N,07702.443,W,075423.493,V*3B
$GPVTG,0.56,T,,M,68.5,N,126.9,K*64
$GPGSA,A,2,14,09,07,13,03,19,,,,,,,0.8,0.2,0.3*38
$GPGSV,2,1,06,14,09,115,44,09,63,339,44,07,54,151,89,13,50,085,81*71
$GPGSV,2,2,06,03,30,116,25,19,34,231,68*7F
$GPRMC,075428.493,V,3854.954,N,07702.441,W,37.8,0.87,190416,,E*48
$GPGGA,075429.493,3854.954,N,07702.441,W,0,04,0.2,,M,,M,,*7B
$GPGLL,3854.954,N,07702.441,W,075430.493,V*3B
$GPVTG,0.87,T,,M,37.8,N,70.1,K*55
$GPRMC,075432.493,V,3854.955,N,07702.439,W,72.6,0.80,190416,,E*45
$GPGGA,075433.493,3854.955,N,07702.439,W,0,04,0.2,,M,,M,,*7E
$GPGLL,3854.955,N,07702.439,W,075434.493,V*31
$GPVTG,0.80,T,,M,72.6,N,134.4,K*69
$GPRMC,075436.493,V,3854.955,N,07702.438,W,88.5,0.73,190416,,E*4A
$GPGGA,075437.493,3854.955,N,07702.438,W,0,04,0.2,,M,,M,,*7B
$GPGLL,3854.955,N,07702.438,W,075438.493,V*3C
$GPVTG,0.73,T,,M,88.5,N,163.9,K*6C
$GPRMC,075440.493,V,3854.956,N,07702.436,W,26.6,0.64,190416,,E*47
$GPGGA,075441.493,3854.956,N,07702.436,W,0,04,0.2,,M,,M,,*77
$GPGLL,3854.956,N,07702.436,W,075442.493,V*3C
$GPVTG,0.64,T,,M,26.6,N,49.2,K*5F
$GPRMC,075444.493,V,3854.958,N,07702.435,W,27.5,0.60,190416,,E*48
$GPGGA,075445.493,3854.958,N,07702.435,W,0,04,0.2,,M,,M,,*7E
$GPGLL,3854.958,N,07702.435,W,075446.493,V*35
$GPVTG,0.60,T,,M,27.5,N,50.9,K*5A
$GPRMC,075448.493,V,3854.958,N,07702.433,W,71.3,0.68,190416,,E*4F
$GPGGA,075449.493,3854.958,N,07702.433,W,0,04,0.2,,M,,M,,*74
$GPGLL,3854.958,N,07702.433,W,075450.493,V*34
$GPVTG,0.68,T,,M,71.3,N,132.1,K*6A
$GPRMC,075452.493,V,3854.959,N,07702.432,W,12.8,0.64,190416,,E*46
$GPGGA,075453.493,3854.959,N,07702.432,W,0,04,0.2,,M,,M,,*7F
$GPGLL,3854.959,N,07702.432,W,075454.493,V*30
$GPVTG,0.64,T,,M,12.8,N,23.7,K*5F
$GPGSA,A,3,14,09,07,13,03,19,,,,,,,0.2,0.1,1.0*32
$GPGSV,2,1,06,14,86,102,86,09,40,165,39,07,40,203,27,13,77,179,88*75
$GPGSV,2,2,06,03,35,089,63,19,87,111,89*79
$GPRMC,075459.493,V,3854.960,N,07702.430,W,12.8,0.73,190416,,E*43
$GPGGA,075500.493,3854.960,N,07702.430,W,0,04,0.1,,M,,M,,*73
$GPGLL,3854.960,N,07702.430,W,075501.493,V*39
$GPVTG,0.73,T,,M,12.8,N,23.7,K*59
$GPGSA,A,2,14,09,07,13,03,19,,,,,,,0.4,0.5,0.5*35
$GPGSV,2,1,06,14,80,076,29,09,12,144,26,07,10,354,37,13,58,009,49*7F
$GPGSV,2,2,06,03,33,288,22,19,73,186,49*70
$GPRMC,075506.493,V,3854.961,N,07702.429,W,10.9,0.65,190416,,E*45
$GPGGA,075507.493,3854.961,N,07702.429,W,0,04,0.5,,M,,M,,*79
$GPGLL,3854.961,N,07702.429,W,075508.493,V*39
$GPVTG,0.65,T,,M,10.9,N,20.2,K*5B
$GPRMC,075510.493,V,3854.962,N,07702.427,W,53.3,0.74,190416,,E*42
$GPGGA,075511.493,3854.962,N,07702.427,W,0,04,0.5,,M,,M,,*73
$GPGLL,3854.962,N,07702.427,W,075512.493,V*3F
$GPVTG,0.74,T,,M,53.3,N,98.7,K*50
$GPRMC,075514.493,V,3854.963,N,07702.425,W,55.5,0.63,190416,,E*43
$GPGGA,075515.493,3854.963,N,07702.425,W,0,04,0.5,,M,,M,,*74
$GPGLL,3854.963,N,07702.425,W,075516.493,V*38
$GPVTG,0.63,T,,M,55.5,N,102.9,K*6A
$GPRMC,075518.493,V,3854.964,N,07702.424,W,97.6,0.63,190416,,E*44
$GPGGA,075519.493,3854.964,N,07702.424,W,0,04,0.5,,M,,M,,*7E
$GPGLL,3854.964,N,07702.424,W,075520.493,V*3B
$GPVTG,0.63,T,,M,97.6,N,180.7,K*63
$GPRMC,075522.493,V,3854.965,N,07702.422,W,93.5,0.66,190416,,E*48
$GPGGA,075523.493,3854.965,N,07702.422,W,0,04,0.5,,M,,M,,*70
$GPGLL,3854.965,N,07702.422,W,075524.493,V*38
$GPVTG,0.66,T,,M,93.5,N,173.2,K*68
$GPRMC,075526.493,V,3854.966,N,07702.421,W,19.2,0.61,190416,,E*4E
$GPGGA,075527.493,3854.966,N,07702.421,W,0,04,0.5,,M,,M,,*74
$GPGLL,3854.966,N,07702.421,W,075528.493,V*34
$GPVTG,0.61,T,,M,19.2,N,35.5,K*5E
$GPRMC,075530.493,V,3854.967,N,07702.420,W,7.7,0.31,190416,,E*76
$GPGGA,075531.493,3854.967,N,07702.420,W,0,04,0.5,,M,,M,,*73
$GPGLL,3854.967,N,07702.420,W,075532.493,V*3F
$GPVTG,0.31,T,,M,7.7,N,14.2,K*65
$GPRMC,075534.493,V,3854.969,N,07702.419,W,53.5,0.29,190416,,E*4C
$GPGGA,075535.493,3854.969,N,07702.419,W,0,04,0.5,,M,,M,,*73
$GPGLL,3854.969,N,07702.419,W,075536.493,V*3F
$GPVTG,0.29,T,,M,53.5,N,99.0,K*58
$GPGSA,A,2,14,09,07,13,03,19,,,,,,,0.9,0.7,0.1*3E
$GPGSV,2,1,06,14,64,326,42,09,87,254,75,07,45,199,66,13,15,283,54*74
$GPGSV,2,2,06,03,13,229,28,19,10,030,49*7A
