$GPRMC,075342.291,V,3854.928,N,07702.497,W,33.9,2.00,190416,,E*4F
$GPGGA,075343.291,3854.928,N,07702.497,W,0,00,,,M,,M,,*5C
$GPGLL,3854.928,N,07702.497,W,075344.291,V*3B
$GPVTG,2.00,T,,M,33.9,N,62.9,K*56
$GPRMC,075346.291,V,3854.926,N,07702.497,W,61.0,1.98,190416,,E*49
$GPGGA,075347.291,3854.926,N,07702.497,W,0,00,,,M,,M,,*56
$GPGLL,3854.926,N,07702.497,W,075348.291,V*39
$GPVTG,1.98,T,,M,61.0,N,112.9,K*6C
$GPRMC,075350.291,V,3854.924,N,07702.497,W,61.1,2.03,190416,,E*4C
$GPGGA,075351.291,3854.924,N,07702.497,W,0,00,,,M,,M,,*53
$GPGLL,3854.924,N,07702.497,W,075352.291,V*30
$GPVTG,2.03,T,,M,61.1,N,113.2,K*66
$GPRMC,075354.291,V,3854.923,N,07702.497,W,9.2,1.96,190416,,E*7D
$GPGGA,075355.291,3854.923,N,07702.497,W,0,00,,,M,,M,,*50
$GPGLL,3854.923,N,07702.497,W,075356.291,V*33
$GPVTG,1.96,T,,M,9.2,N,17.1,K*62
$GPRMC,075358.291,V,3854.921,N,07702.497,W,37.8,1.98,190416,,E*4A
$GPGGA,075359.291,3854.921,N,07702.497,W,0,00,,,M,,M,,*5E
$GPGLL,3854.921,N,07702.497,W,075400.291,V*35
$GPVTG,1.98,T,,M,37.8,N,70.0,K*5B
$GPRMC,075402.291,V,3854.919,N,07702.497,W,6.8,2.00,190416,,E*79
$GPGGA,075403.291,3854.919,N,07702.497,W,0,00,,,M,,M,,*5D
$GPGLL,3854.919,N,07702.497,W,075404.291,V*3A
$GPVTG,2.00,T,,M,6.8,N,12.5,K*6A
$GPRMC,075406.291,V,3854.917,N,07702.498,W,40.0,2.32,190416,,E*47
$GPGGA,075407.291,3854.917,N,07702.498,W,0,00,,,M,,M,,*58
$GPGLL,3854.917,N,07702.498,W,075408.291,V*37
$GPVTG,2.32,T,,M,40.0,N,74.1,K*55
$GPRMC,075410.291,V,3854.916,N,07702.499,W,32.0,2.42,190416,,E*42
$GPGGA,075411.291,3854.916,N,07702.499,W,0,00,,,M,,M,,*5F
$GPGLL,3854.916,N,07702.499,W,075412.291,V*3C
$GPVTG,2.42,T,,M,32.0,N,59.2,K*5B
$GPRMC,075414.291,V,3854.915,N,07702.500,W,41.2,2.52,190416,,E*43
$GPGGA,075415.291,3854.915,N,07702.500,W,0,00,,,M,,M,,*59
$GPGLL,3854.915,N,07702.500,W,075416.291,V*3A
$GPVTG,2.52,T,,M,41.2,N,76.2,K*51
$GPRMC,075418.291,V,3854.913,N,07702.502,W,20.7,2.53,190416,,E*48
$GPGGA,075419.291,3854.913,N,07702.502,W,0,00,,,M,,M,,*51
$GPGLL,3854.913,N,07702.502,W,075420.291,V*3B
$GPVTG,2.53,T,,M,20.7,N,38.3,K*59
$GPGSA,A,2,04,01,15,08,19,19,,,,,,,0.0,0.8,1.0*33
$GPGSV,2,1,06,04,44,097,79,01,42,053,69,15,76,358,25,08,09,079,30*76
$GPGSV,2,2,06,19,83,260,48,19,25,021,39*72
$GPRMC,075425.291,V,3854.912,N,07702.503,W,48.3,2.55,190416,,E*4A
$GPGGA,075426.291,3854.912,N,07702.503,W,0,04,0.8,,M,,M,,*7F
$GPGLL,3854.912,N,07702.503,W,075427.291,V*3C
$GPVTG,2.55,T,,M,48.3,N,89.4,K*58
$GPRMC,075429.291,V,3854.911,N,07702.505,W,55.3,2.63,190416,,E*4A
$GPGGA,075430.291,3854.911,N,07702.505,W,0,04,0.8,,M,,M,,*7D
$GPGLL,3854.911,N,07702.505,W,075431.291,V*3E
$GPVTG,2.63,T,,M,55.3,N,102.4,K*63
$GPRMC,075433.291,V,3854.910,N,07702.506,W,0.7,2.52,190416,,E*75
$GPGGA,075434.291,3854.910,N,07702.506,W,0,04,0.8,,M,,M,,*7B
$GPGLL,3854.910,N,07702.506,W,075435.291,V*38
$GPVTG,2.52,T,,M,0.7,N,1.3,K*50
$GPRMC,075437.291,V,3854.909,N,07702.507,W,42.0,2.59,190416,,E*42
$GPGGA,075438.291,3854.909,N,07702.507,W,0,04,0.8,,M,,M,,*7E
$GPGLL,3854.909,N,07702.507,W,075439.291,V*3D
$GPVTG,2.59,T,,M,42.0,N,77.8,K*50
$GPGSA,A,2,04,01,15,08,19,19,,,,,,,0.4,0.5,0.6*3D
$GPGSV,2,1,06,04,71,103,23,01,23,011,46,15,15,047,51,08,29,314,24*7B
$GPGSV,2,2,06,19,63,208,37,19,71,254,64*73
$GPRMC,075444.291,V,3854.908,N,07702.509,W,46.2,2.69,190416,,E*4C
$GPGGA,075445.291,3854.908,N,07702.509,W,0,04,0.5,,M,,M,,*76
$GPGLL,3854.908,N,07702.509,W,075446.291,V*3A
$GPVTG,2.69,T,,M,46.2,N,85.6,K*56
$GPRMC,075448.291,V,3854.907,N,07702.511,W,48.8,2.67,190416,,E*4C
$GPGGA,075449.291,3854.907,N,07702.511,W,0,04,0.5,,M,,M,,*7C
$GPGLL,3854.907,N,07702.511,W,075450.291,V*3B
$GPVTG,2.67,T,,M,48.8,N,90.3,K*5D
$GPRMC,075452.291,V,3854.906,N,07702.512,W,1.7,2.46,190416,,E*74
$GPGGA,075453.291,3854.906,N,07702.512,W,0,04,0.5,,M,,M,,*75
$GPGLL,3854.906,N,07702.512,W,075454.291,V*3D
$GPVTG,2.46,T,,M,1.7,N,3.2,K*57
$GPRMC,075456.291,V,3854.904,N,07702.513,W,92.7,2.41,190416,,E*4E
$GPGGA,075457.291,3854.904,N,07702.513,W,0,04,0.5,,M,,M,,*72
$GPGLL,3854.904,N,07702.513,W,075458.291,V*32
$GPVTG,2.41,T,,M,92.7,N,171.6,K*6A
$GPRMC,075500.291,V,3854.903,N,07702.514,W,70.7,2.44,190416,,E*45
$GPGGA,075501.291,3854.903,N,07702.514,W,0,04,0.5,,M,,M,,*70
$GPGLL,3854.903,N,07702.514,W,075502.291,V*3C
$GPVTG,2.44,T,,M,70.7,N,131.0,K*61
$GPRMC,075504.291,V,3854.902,N,07702.515,W,56.5,2.44,190416,,E*47
$GPGGA,075505.291,3854.902,N,07702.515,W,0,04,0.5,,M,,M,,*74
$GPGLL,3854.902,N,07702.515,W,075506.291,V*38
$GPVTG,2.44,T,,M,56.5,N,104.6,K*67
$GPRMC,075508.291,V,3854.901,N,07702.516,W,78.3,2.55,190416,,E*41
$GPGGA,075509.291,3854.901,N,07702.516,W,0,04,0.5,,M,,M,,*78
$GPGLL,3854.901,N,07702.516,W,075510.291,V*3F
$GPVTG,2.55,T,,M,78.3,N,145.0,K*6E
$GPRMC,075512.291,V,3854.900,N,07702.518,W,63.7,2.66,190416,,E*4B
$GPGGA,075513.291,3854.900,N,07702.518,W,0,04,0.5,,M,,M,,*7C
$GPGLL,3854.900,N,07702.518,W,075514.291,V*34
$GPVTG,2.66,T,,M,63.7,N,117.9,K*6E
$GPRMC,075516.291,V,3854.899,N,07702.520,W,40.9,2.69,190416,,E*45
$GPGGA,075517.291,3854.899,N,07702.520,W,0,04,0.5,,M,,M,,*72
$GPGLL,3854.899,N,07702.520,W,075518.291,V*32
$GPVTG,2.69,T,,M,40.9,N,75.8,K*5A
$GPRMC,075520.291,V,3854.898,N,07702.521,W,15.4,2.78,190416,,E*4D
$GPGGA,075521.291,3854.898,N,07702.521,W,0,04,0.5,,M,,M,,*77
$GPGLL,3854.898,N,07702.521,W,075522.291,V*3B
$GPVTG,2.78,T,,M,15.4,N,28.5,K*52
$GPRMC,075524.291,V,3854.897,N,07702.522,W,76.1,2.42,190416,,E*4C
$GPGGA,075525.291,3854.897,N,07702.522,W,0,04,0.5,,M,,M,,*7F
$GPGLL,3854.897,N,07702.522,W,075526.291,V*33
$GPVTG,2.42,T,,M,76.1,N,140.9,K*68
$GPRMC,075528.291,V,3854.895,N,07702.523,W,22.4,2.38,190416,,E*4A
$GPGGA,075529.291,3854.895,N,07702.523,W,0,04,0.5,,M,,M,,*70
$GPGLL,3854.895,N,07702.523,W,075530.291,V*37
$GPVTG,2.38,T,,M,22.4,N,41.4,K*5C
$GPRMC,075532.291,V,3854.894,N,07702.524,W,73.8,2.36,190416,,E*41
$GPGGA,075533.291,3854.894,N,07702.524,W,0,04,0.5,,M,,M,,*7D
$GPGLL,3854.894,N,07702.524,W,075534.291,V*35
$GPVTG,2.36,T,,M,73.8,N,136.6,K*69
$GPRMC,075536.291,V,3854.892,N,07702.525,W,56.1,2.32,190416,,E*48
$GPGGA,075537.291,3854.892,N,07702.525,W,0,04,0.5,,M,,M,,*7E
$GPGLL,3854.892,N,07702.525,W,075538.291,V*3E
$GPVTG,2.32,T,,M,56.1,N,103.9,K*6A
$GPRMC,075540.291,V,3854.891,N,07702.526,W,55.5,2.29,190416,,E*44
$GPGGA,075541.291,3854.891,N,07702.526,W,0,04,0.5,,M,,M,,*7F
$GPGLL,3854.891,N,07702.526,W,075542.291,V*33
$GPVTG,2.29,T,,M,55.5,N,102.8,K*67
$GPRMC,075544.291,V,3854.889,N,07702.527,W,53.0,2.24,190416,,E*46
$GPGGA,075545.291,3854.889,N,07702.527,W,0,04,0.5,,M,,M,,*73
$GPGLL,3854.889,N,07702.527,W,075546.291,V*3F
$GPVTG,2.24,T,,M,53.0,N,98.1,K*52
$GPRMC,075548.291,V,3854.887,N,07702.527,W,67.7,2.16,190416,,E*45
$GPGGA,075549.291,3854.887,N,07702.527,W,0,04,0.5,,M,,M,,*71
$GPGLL,3854.887,N,07702.527,W,075550.291,V*36
$GPVTG,2.16,T,,M,67.7,N,125.3,K*66
$GPRMC,075552.291,V,3854.885,N,07702.527,W,67.6,2.07,190416,,E*4D
$GPGGA,075553.291,3854.885,N,07702.527,W,0,04,0.5,,M,,M,,*78
$GPGLL,3854.885,N,07702.527,W,075554.291,V*30
$GPVTG,2.07,T,,M,67.6,N,125.2,K*66
$GPRMC,075556.291,V,3854.884,N,07702.527,W,49.9,1.98,190416,,E*4E
$GPGGA,075557.291,3854.884,N,07702.527,W,0,04,0.5,,M,,M,,*7D
$GPGLL,3854.884,N,07702.527,W,075558.291,V*3D
$GPVTG,1.98,T,,M,49.9,N,92.5,K*5A
$GPRMC,075600.291,V,3854.882,N,07702.527,W,74.1,1.87,190416,,E*40
$GPGGA,075601.291,3854.882,N,07702.527,W,0,04,0.5,,M,,M,,*7B
$GPGLL,3854.882,N,07702.527,W,075602.291,V*37
$GPVTG,1.87,T,,M,74.1,N,137.2,K*6B
$GPRMC,075604.291,V,3854.880,N,07702.527,W,23.6,1.90,190416,,E*45
$GPGGA,075605.291,3854.880,N,07702.527,W,0,04,0.5,,M,,M,,*7D
$GPGLL,3854.880,N,07702.527,W,075606.291,V*31
$GPVTG,1.90,T,,M,23.6,N,43.7,K*5F
$GPRMC,075608.291,V,3854.879,N,07702.525,W,11.5,1.51,190416,,E*42
$GPGGA,075609.291,3854.879,N,07702.525,W,0,04,0.5,,M,,M,,*75
$GPGLL,3854.879,N,07702.525,W,075610.291,V*32
$GPVTG,1.51,T,,M,11.5,N,21.2,K*51
$GPRMC,075612.291,V,3854.878,N,07702.524,W,63.0,1.41,190416,,E*48
$GPGGA,075613.291,3854.878,N,07702.524,W,0,04,0.5,,M,,M,,*7E
$GPGLL,3854.878,N,07702.524,W,075614.291,V*36
$GPVTG,1.41,T,,M,63.0,N,116.8,K*6F
$GPRMC,075616.291,V,3854.877,N,07702.522,W,56.5,1.37,190416,,E*47
$GPGGA,075617.291,3854.877,N,07702.522,W,0,04,0.5,,M,,M,,*73
$GPGLL,3854.877,N,07702.522,W,075618.291,V*33
$GPVTG,1.37,T,,M,56.5,N,104.6,K*60
$GPRMC,075620.291,V,3854.875,N,07702.522,W,10.4,1.72,190416,,E*42
$GPGGA,075621.291,3854.875,N,07702.522,W,0,04,0.5,,M,,M,,*74
$GPGLL,3854.875,N,07702.522,W,075622.291,V*38
$GPVTG,1.72,T,,M,10.4,N,19.3,K*5A
$GPRMC,075624.291,V,3854.873,N,07702.521,W,56.5,1.67,190416,,E*44
$GPGGA,075625.291,3854.873,N,07702.521,W,0,04,0.5,,M,,M,,*75
$GPGLL,3854.873,N,07702.521,W,075626.291,V*39
$GPVTG,1.67,T,,M,56.5,N,104.7,K*64
$GPRMC,075628.291,V,3854.872,N,07702.520,W,2.1,1.67,190416,,E*7D
$GPGGA,075629.291,3854.872,N,07702.520,W,0,04,0.5,,M,,M,,*79
$GPGLL,3854.872,N,07702.520,W,075630.291,V*3E
$GPVTG,1.67,T,,M,2.1,N,3.8,K*58
$GPRMC,075632.291,V,3854.870,N,07702.519,W,22.2,1.72,190416,,E*4B
$GPGGA,075633.291,3854.870,N,07702.519,W,0,04,0.5,,M,,M,,*7A
$GPGLL,3854.870,N,07702.519,W,075634.291,V*32
$GPVTG,1.72,T,,M,22.2,N,41.1,K*52
$GPRMC,075636.291,V,3854.869,N,07702.518,W,88.8,1.63,190416,,E*4C
$GPGGA,075637.291,3854.869,N,07702.518,W,0,04,0.5,,M,,M,,*77
$GPGLL,3854.869,N,07702.518,W,075638.291,V*37
$GPVTG,1.63,T,,M,88.8,N,164.4,K*6B
$GPGSA,A,2,04,01,15,08,19,19,,,,,,,0.6,0.2,1.0*3F
$GPGSV,2,1,06,04,21,309,82,01,87,077,76,15,24,071,45,08,52,084,46*70
$GPGSV,2,2,06,19,21,043,64,19,46,243,65*7D
$GPRMC,075643.291,V,3854.867,N,07702.517,W,40.7,1.73,190416,,E*45
$GPGGA,075644.291,3854.867,N,07702.517,W,0,04,0.2,,M,,M,,*75
$GPGLL,3854.867,N,07702.517,W,075645.291,V*3C
$GPVTG,1.73,T,,M,40.7,N,75.3,K*57
$GPRMC,075647.291,V,3854.865,N,07702.517,W,11.8,1.76,190416,,E*4D
$GPGGA,075648.291,3854.865,N,07702.517,W,0,04,0.2,,M,,M,,*7B
$GPGLL,3854.865,N,07702.517,W,075649.291,V*32
$GPVTG,1.76,T,,M,11.8,N,21.8,K*53
$GPRMC,075651.291,V,3854.864,N,07702.516,W,44.3,1.69,190416,,E*4F
$GPGGA,075652.291,3854.864,N,07702.516,W,0,04,0.2,,M,,M,,*70
$GPGLL,3854.864,N,07702.516,W,075653.291,V*39
$GPVTG,1.69,T,,M,44.3,N,82.1,K*56
$GPRMC,075655.291,V,3854.862,N,07702.515,W,16.7,1.76,190416,,E*43
$GPGGA,075656.291,3854.862,N,07702.515,W,0,04,0.2,,M,,M,,*71
$GPGLL,3854.862,N,07702.515,W,075657.291,V*38
$GPVTG,1.76,T,,M,16.7,N,30.8,K*5B
$GPRMC,075659.291,V,3854.861,N,07702.514,W,58.9,1.68,190416,,E*46
$GPGGA,075700.291,3854.861,N,07702.514,W,0,04,0.2,,M,,M,,*71
$GPGLL,3854.861,N,07702.514,W,075701.291,V*38
$GPVTG,1.68,T,,M,58.9,N,109.0,K*63
$GPRMC,075703.291,V,3854.859,N,07702.513,W,32.3,1.66,190416,,E*4C
$GPGGA,075704.291,3854.859,N,07702.513,W,0,04,0.2,,M,,M,,*79
$GPGLL,3854.859,N,07702.513,W,075705.291,V*30
$GPVTG,1.66,T,,M,32.3,N,59.8,K*57
$GPRMC,075707.291,V,3854.857,N,07702.513,W,57.8,1.72,190416,,E*4B
$GPGGA,075708.291,3854.857,N,07702.513,W,0,04,0.2,,M,,M,,*7B
$GPGLL,3854.857,N,07702.513,W,075709.291,V*32
$GPVTG,1.72,T,,M,57.8,N,107.1,K*69
$GPRMC,075711.291,V,3854.856,N,07702.512,W,5.1,1.70,190416,,E*70
$GPGGA,075712.291,3854.856,N,07702.512,W,0,04,0.2,,M,,M,,*70
$GPGLL,3854.856,N,07702.512,W,075713.291,V*39
$GPVTG,1.70,T,,M,5.1,N,9.5,K*5E
$GPRMC,075715.291,V,3854.854,N,07702.511,W,24.6,1.69,190416,,E*49
$GPGGA,075716.291,3854.854,N,07702.511,W,0,04,0.2,,M,,M,,*75
$GPGLL,3854.854,N,07702.511,W,075717.291,V*3C
$GPVTG,1.69,T,,M,24.6,N,45.6,K*59
$GPRMC,075719.291,V,3854.852,N,07702.510,W,0.0,1.80,190416,,E*75
$GPGGA,075720.291,3854.852,N,07702.510,W,0,04,0.2,,M,,M,,*77
$GPGLL,3854.852,N,07702.510,W,075721.291,V*3E
$GPVTG,1.80,T,,M,0.0,N,0.0,K*59
$GPRMC,075723.291,V,3854.851,N,07702.510,W,72.7,1.86,190416,,E*4B
$GPGGA,075724.291,3854.851,N,07702.510,W,0,04,0.2,,M,,M,,*70
$GPGLL,3854.851,N,07702.510,W,075725.291,V*39
$GPVTG,1.86,T,,M,72.7,N,134.7,K*6C
$GPRMC,075727.291,V,3854.849,N,07702.510,W,75.6,1.93,190416,,E*44
$GPGGA,075728.291,3854.849,N,07702.510,W,0,04,0.2,,M,,M,,*75
$GPGLL,3854.849,N,07702.510,W,075729.291,V*3C
$GPVTG,1.93,T,,M,75.6,N,140.0,K*6A
$GPRMC,075731.291,V,3854.847,N,07702.510,W,31.4,1.95,190416,,E*49
$GPGGA,075732.291,3854.847,N,07702.510,W,0,04,0.2,,M,,M,,*70
$GPGLL,3854.847,N,07702.510,W,075733.291,V*39
$GPVTG,1.95,T,,M,31.4,N,58.1,K*57
$GPGSA,A,2,04,01,15,08,19,19,,,,,,,0.3,0.2,0.9*32
$GPGSV,2,1,06,04,48,066,62,01,64,001,32,15,08,059,87,08,24,146,23*70
$GPGSV,2,2,06,19,82,098,83,19,77,202,54*7E
$GPRMC,075738.291,V,3854.845,N,07702.509,W,5.4,1.90,190416,,E*78
$GPGGA,075739.291,3854.845,N,07702.509,W,0,04,0.2,,M,,M,,*71
$GPGLL,3854.845,N,07702.509,W,075740.291,V*37
$GPVTG,1.90,T,,M,5.4,N,9.9,K*59
$GPRMC,075742.291,V,3854.844,N,07702.509,W,40.2,2.02,190416,,E*4B
$GPGGA,075743.291,3854.844,N,07702.509,W,0,04,0.2,,M,,M,,*7D
$GPGLL,3854.844,N,07702.509,W,075744.291,V*32
$GPVTG,2.02,T,,M,40.2,N,74.4,K*51
$GPGSA,A,2,04,01,15,08,19,19,,,,,,,0.4,0.1,0.0*3F
$GPGSV,2,1,06,04,71,347,66,01,58,061,33,15,67,147,41,08,55,141,44*7B
$GPGSV,2,2,06,19,68,254,16,19,31,128,84*70
$GPRMC,075749.291,V,3854.842,N,07702.510,W,42.5,2.02,190416,,E*4B
$GPGGA,075750.291,3854.842,N,07702.510,W,0,04,0.1,,M,,M,,*72
$GPGLL,3854.842,N,07702.510,W,075751.291,V*38
$GPVTG,2.02,T,,M,42.5,N,78.8,K*54
$GPRMC,075753.291,V,3854.840,N,07702.510,W,40.4,2.12,190416,,E*40
$GPGGA,075754.291,3854.840,N,07702.510,W,0,04,0.1,,M,,M,,*74
$GPGLL,3854.840,N,07702.510,W,075755.291,V*3E
$GPVTG,2.12,T,,M,40.4,N,74.9,K*5B
$GPGSA,A,2,04,01,15,08,19,19,,,,,,,0.1,0.5,1.0*3F
$GPGSV,2,1,06,04,27,047,68,01,09,334,61,15,79,223,33,08,47,093,26*77
$GPGSV,2,2,06,19,80,157,18,19,83,285,38*72
$GPRMC,075800.291,V,3854.838,N,07702.511,W,90.4,2.23,190416,,E*48
$GPGGA,075801.291,3854.838,N,07702.511,W,0,04,0.5,,M,,M,,*71
$GPGLL,3854.838,N,07702.511,W,075802.291,V*3D
$GPVTG,2.23,T,,M,90.4,N,167.4,K*6A
$GPRMC,075804.291,V,3854.837,N,07702.511,W,44.1,2.12,190416,,E*4D
$GPGGA,075805.291,3854.837,N,07702.511,W,0,04,0.5,,M,,M,,*7A
$GPGLL,3854.837,N,07702.511,W,075806.291,V*36
$GPVTG,2.12,T,,M,44.1,N,81.7,K*5E
$GPRMC,075808.291,V,3854.835,N,07702.511,W,34.9,2.07,190416,,E*48
$GPGGA,075809.291,3854.835,N,07702.511,W,0,04,0.5,,M,,M,,*74
$GPGLL,3854.835,N,07702.511,W,075810.291,V*33
$GPVTG,2.07,T,,M,34.9,N,64.6,K*5F
$GPRMC,075812.291,V,3854.833,N,07702.511,W,82.8,2.03,190416,,E*4D
$GPGGA,075813.291,3854.833,N,07702.511,W,0,04,0.5,,M,,M,,*79
$GPGLL,3854.833,N,07702.511,W,075814.291,V*31
$GPVTG,2.03,T,,M,82.8,N,153.4,K*60
$GPRMC,075816.291,V,3854.831,N,07702.511,W,23.4,1.96,190416,,E*43
$GPGGA,075817.291,3854.831,N,07702.511,W,0,04,0.5,,M,,M,,*7F
$GPGLL,3854.831,N,07702.511,W,075818.291,V*3F
$GPVTG,1.96,T,,M,23.4,N,43.3,K*5F
$GPRMC,075820.291,V,3854.829,N,07702.511,W,7.0,1.85,190416,,E*7F
$GPGGA,075821.291,3854.829,N,07702.511,W,0,04,0.5,,M,,M,,*73
$GPGLL,3854.829,N,07702.511,W,075822.291,V*3F
$GPVTG,1.85,T,,M,7.0,N,13.0,K*69
$GPRMC,075824.291,V,3854.828,N,07702.510,W,95.7,1.79,190416,,E*44
$GPGGA,075825.291,3854.828,N,07702.510,W,0,04,0.5,,M,,M,,*77
$GPGLL,3854.828,N,07702.510,W,075826.291,V*3B
$GPVTG,1.79,T,,M,95.7,N,177.2,K*67
$GPRMC,075828.291,V,3854.826,N,07702.510,W,18.9,1.84,190416,,E*4F
$GPGGA,075829.291,3854.826,N,07702.510,W,0,04,0.5,,M,,M,,*75
$GPGLL,3854.826,N,07702.510,W,075830.291,V*32
$GPVTG,1.84,T,,M,18.9,N,34.9,K*53
$GPRMC,075832.291,V,3854.824,N,07702.509,W,66.5,1.89,190416,,E*46
$GPGGA,075833.291,3854.824,N,07702.509,W,0,04,0.5,,M,,M,,*74
$GPGLL,3854.824,N,07702.509,W,075834.291,V*3C
$GPVTG,1.89,T,,M,66.5,N,123.1,K*64
$GPRMC,075836.291,V,3854.822,N,07702.509,W,32.4,1.78,190416,,E*4A
$GPGGA,075837.291,3854.822,N,07702.509,W,0,04,0.5,,M,,M,,*76
$GPGLL,3854.822,N,07702.509,W,075838.291,V*36
$GPVTG,1.78,T,,M,32.4,N,60.0,K*5D
$GPRMC,075840.291,V,3854.821,N,07702.508,W,86.4,1.74,190416,,E*4A
$GPGGA,075841.291,3854.821,N,07702.508,W,0,04,0.5,,M,,M,,*75
$GPGLL,3854.821,N,07702.508,W,075842.291,V*39
$GPVTG,1.74,T,,M,86.4,N,159.9,K*6C
$GPRMC,075844.291,V,3854.819,N,07702.507,W,33.3,1.79,190416,,E*4E
$GPGGA,075845.291,3854.819,N,07702.507,W,0,04,0.5,,M,,M,,*75
$GPGLL,3854.819,N,07702.507,W,075846.291,V*39
$GPVTG,1.79,T,,M,33.3,N,61.6,K*5D
$GPRMC,075848.291,V,3854.817,N,07702.507,W,32.3,1.86,190416,,E*4D
$GPGGA,075849.291,3854.817,N,07702.507,W,0,04,0.5,,M,,M,,*77
$GPGLL,3854.817,N,07702.507,W,075850.291,V*30
$GPVTG,1.86,T,,M,32.3,N,59.9,K*58
$GPRMC,075852.291,V,3854.816,N,07702.507,W,17.5,1.94,190416,,E*45
$GPGGA,075853.291,3854.816,N,07702.507,W,0,04,0.5,,M,,M,,*7D
$GPGLL,3854.816,N,07702.507,W,075854.291,V*35
$GPVTG,1.94,T,,M,17.5,N,32.3,K*5D
$GPRMC,075856.291,V,3854.814,N,07702.507,W,98.7,1.98,190416,,E*4A
$GPGGA,075857.291,3854.814,N,07702.507,W,0,04,0.5,,M,,M,,*7B
$GPGLL,3854.814,N,07702.507,W,075858.291,V*3B
$GPVTG,1.98,T,,M,98.7,N,182.9,K*64
$GPRMC,075900.291,V,3854.812,N,07702.507,W,4.9,1.99,190416,,E*74
$GPGGA,075901.291,3854.812,N,07702.507,W,0,04,0.5,,M,,M,,*7F
$GPGLL,3854.812,N,07702.507,W,075902.291,V*33
$GPVTG,1.99,T,,M,4.9,N,9.1,K*54
$GPRMC,075904.291,V,3854.810,N,07702.506,W,62.7,1.90,190416,,E*44
$GPGGA,075905.291,3854.810,N,07702.506,W,0,04,0.5,,M,,M,,*78
$GPGLL,3854.810,N,07702.506,W,075906.291,V*34
$GPVTG,1.90,T,,M,62.7,N,116.1,K*6C
$GPRMC,075908.291,V,3854.808,N,07702.506,W,27.2,1.83,190416,,E*47
$GPGGA,075909.291,3854.808,N,07702.506,W,0,04,0.5,,M,,M,,*7D
$GPGLL,3854.808,N,07702.506,W,075910.291,V*3A
$GPVTG,1.83,T,,M,27.2,N,50.3,K*5B
$GPRMC,075912.291,V,3854.807,N,07702.505,W,99.1,1.78,190416,,E*42
$GPGGA,075913.291,3854.807,N,07702.505,W,0,04,0.5,,M,,M,,*7A
$GPGLL,3854.807,N,07702.505,W,075914.291,V*32
$GPVTG,1.78,T,,M,99.1,N,183.5,K*60
$GPRMC,075916.291,V,3854.805,N,07702.505,W,70.3,1.71,190416,,E*48
$GPGGA,075917.291,3854.805,N,07702.505,W,0,04,0.5,,M,,M,,*7C
$GPGLL,3854.805,N,07702.505,W,075918.291,V*3C
$GPVTG,1.71,T,,M,70.3,N,130.2,K*63
$GPGSA,A,3,04,01,15,08,19,19,,,,,,,0.7,0.4,0.5*3D
$GPGSV,2,1,06,04,33,159,70,01,24,257,78,15,82,304,67,08,64,219,87*7D
$GPGSV,2,2,06,19,71,267,70,19,22,239,55*75
$GPRMC,075923.291,V,3854.803,N,07702.504,W,49.5,1.77,190416,,E*43
$GPGGA,075924.291,3854.803,N,07702.504,W,0,04,0.4,,M,,M,,*7A
$GPGLL,3854.803,N,07702.504,W,075925.291,V*35
$GPVTG,1.77,T,,M,49.5,N,91.6,K*57
$GPRMC,075927.291,V,3854.802,N,07702.503,W,18.6,1.69,190416,,E*49
$GPGGA,075928.291,3854.802,N,07702.503,W,0,04,0.4,,M,,M,,*70
$GPGLL,3854.802,N,07702.503,W,075929.291,V*3F
$GPVTG,1.69,T,,M,18.6,N,34.5,K*53
$GPRMC,075931.291,V,3854.800,N,07702.502,W,55.1,1.63,190416,,E*49
$GPGGA,075932.291,3854.800,N,07702.502,W,0,04,0.4,,M,,M,,*78
$GPGLL,3854.800,N,07702.502,W,075933.291,V*37
$GPVTG,1.63,T,,M,55.1,N,102.1,K*67
$GPRMC,075935.291,V,3854.799,N,07702.501,W,9.2,1.56,190416,,E*7D
$GPGGA,075936.291,3854.799,N,07702.501,W,0,04,0.4,,M,,M,,*70
$GPGLL,3854.799,N,07702.501,W,075937.291,V*3F
$GPVTG,1.56,T,,M,9.2,N,17.1,K*6E
$GPGSA,A,2,04,01,15,08,19,19,,,,,,,0.9,0.3,0.7*37
$GPGSV,2,1,06,04,68,057,49,01,06,330,68,15,76,172,71,08,39,190,36*78
$GPGSV,2,2,06,19,67,209,89,19,16,286,72*7A
$GPRMC,075942.291,V,3854.797,N,07702.500,W,77.4,1.64,190416,,E*4C
$GPGGA,075943.291,3854.797,N,07702.500,W,0,04,0.3,,M,,M,,*7A
$GPGLL,3854.797,N,07702.500,W,075944.291,V*34
$GPVTG,1.64,T,,M,77.4,N,143.4,K*65
$GPRMC,075946.291,V,3854.796,N,07702.499,W,21.5,1.62,190416,,E*4C
$GPGGA,075947.291,3854.796,N,07702.499,W,0,04,0.3,,M,,M,,*7E
$GPGLL,3854.796,N,07702.499,W,075948.291,V*38
$GPVTG,1.62,T,,M,21.5,N,39.8,K*51
$GPRMC,075950.291,V,3854.795,N,07702.498,W,25.7,1.58,190416,,E*46
$GPGGA,075951.291,3854.795,N,07702.498,W,0,04,0.3,,M,,M,,*7B
$GPGLL,3854.795,N,07702.498,W,075952.291,V*31
$GPVTG,1.58,T,,M,25.7,N,47.7,K*58
$GPRMC,075954.291,V,3854.793,N,07702.497,W,51.0,1.59,190416,,E*4E
$GPGGA,075955.291,3854.793,N,07702.497,W,0,04,0.3,,M,,M,,*76
$GPGLL,3854.793,N,07702.497,W,075956.291,V*3C
$GPVTG,1.59,T,,M,51.0,N,94.5,K*51
$GPRMC,075958.291,V,3854.792,N,07702.496,W,12.6,1.59,190416,,E*43
$GPGGA,075959.291,3854.792,N,07702.496,W,0,04,0.3,,M,,M,,*7A
$GPGLL,3854.792,N,07702.496,W,080000.291,V*3C
$GPVTG,1.59,T,,M,12.6,N,23.3,K*5A
$GPGSA,A,2,04,01,15,08,19,19,,,,,,,0.0,0.2,0.7*3F
$GPGSV,2,1,06,04,14,069,61,01,08,251,36,15,33,302,29,08,82,312,39*79
$GPGSV,2,2,06,19,88,137,27,19,29,309,75*7C
$GPRMC,080005.291,V,3854.790,N,07702.495,W,86.1,1.57,190416,,E*4D
$GPGGA,080006.291,3854.790,N,07702.495,W,0,04,0.2,,M,,M,,*73
$GPGLL,3854.790,N,07702.495,W,080007.291,V*3A
$GPVTG,1.57,T,,M,86.1,N,159.5,K*64
$GPRMC,080009.291,V,3854.789,N,07702.494,W,42.4,1.68,190416,,E*49
$GPGGA,080010.291,3854.789,N,07702.494,W,0,04,0.2,,M,,M,,*7D
$GPGLL,3854.789,N,07702.494,W,080011.291,V*34
$GPVTG,1.68,T,,M,42.4,N,78.6,K*54
$GPRMC,080013.291,V,3854.787,N,07702.493,W,48.9,1.70,190416,,E*45
$GPGGA,080014.291,3854.787,N,07702.493,W,0,04,0.2,,M,,M,,*70
$GPGLL,3854.787,N,07702.493,W,080015.291,V*39
$GPVTG,1.70,T,,M,48.9,N,90.6,K*5C
$GPRMC,080017.291,V,3854.786,N,07702.492,W,96.1,1.69,190416,,E*42
$GPGGA,080018.291,3854.786,N,07702.492,W,0,04,0.2,,M,,M,,*7C
$GPGLL,3854.786,N,07702.492,W,080019.291,V*35
$GPVTG,1.69,T,,M,96.1,N,177.9,K*68
$GPRMC,080021.291,V,3854.784,N,07702.491,W,22.0,1.70,190416,,E*40
$GPGGA,080022.291,3854.784,N,07702.491,W,0,04,0.2,,M,,M,,*74
$GPGLL,3854.784,N,07702.491,W,080023.291,V*3D
$GPVTG,1.70,T,,M,22.0,N,40.8,K*5A
$GPRMC,080025.291,V,3854.782,N,07702.491,W,82.1,1.73,190416,,E*4A
$GPGGA,080026.291,3854.782,N,07702.491,W,0,04,0.2,,M,,M,,*76
$GPGLL,3854.782,N,07702.491,W,080027.291,V*3F
$GPVTG,1.73,T,,M,82.1,N,152.0,K*68
$GPRMC,080029.291,V,3854.781,N,07702.490,W,11.0,1.64,190416,,E*49
$GPGGA,080030.291,3854.781,N,07702.490,W,0,04,0.2,,M,,M,,*73
$GPGLL,3854.781,N,07702.490,W,080031.291,V*3A
$GPVTG,1.64,T,,M,11.0,N,20.3,K*52
$GPGSA,A,2,04,01,15,08,19,19,,,,,,,0.9,0.4,1.0*36
$GPGSV,2,1,06,04,29,186,77,01,21,344,31,15,50,218,34,08,59,202,71*70
$GPGSV,2,2,06,19,26,333,76,19,77,157,66*7A
$GPRMC,080036.291,V,3854.779,N,07702.488,W,26.3,1.57,190416,,E*4E
$GPGGA,080037.291,3854.779,N,07702.488,W,0,04,0.4,,M,,M,,*7C
$GPGLL,3854.779,N,07702.488,W,080038.291,V*3D
$GPVTG,1.57,T,,M,26.3,N,48.6,K*5E
$GPRMC,080040.291,V,3854.778,N,07702.487,W,47.1,1.58,190416,,E*4B
$GPGGA,080041.291,3854.778,N,07702.487,W,0,04,0.4,,M,,M,,*73
$GPGLL,3854.778,N,07702.487,W,080042.291,V*3E
$GPVTG,1.58,T,,M,47.1,N,87.3,K*52
$GPGSA,A,2,04,01,15,08,19,19,,,,,,,0.1,1.0,0.9*33
$GPGSV,2,1,06,04,41,289,81,01,12,181,33,15,71,181,21,08,25,095,59*7B
$GPGSV,2,2,06,19,86,292,38,19,61,036,28*7B
$GPRMC,080047.291,V,3854.776,N,07702.486,W,67.1,1.63,190416,,E*49
$GPGGA,080048.291,3854.776,N,07702.486,W,0,04,1.0,,M,,M,,*70
$GPGLL,3854.776,N,07702.486,W,080049.291,V*3A
$GPVTG,1.63,T,,M,67.1,N,124.3,K*60
$GPRMC,080051.291,V,3854.775,N,07702.485,W,93.5,1.58,190416,,E*49
$GPGGA,080052.291,3854.775,N,07702.485,W,0,04,1.0,,M,,M,,*7B
$GPGLL,3854.775,N,07702.485,W,080053.291,V*31
$GPVTG,1.58,T,,M,93.5,N,173.2,K*64
$GPRMC,080055.291,V,3854.774,N,07702.484,W,55.6,1.49,190416,,E*44
$GPGGA,080056.291,3854.774,N,07702.484,W,0,04,1.0,,M,,M,,*7F
$GPGLL,3854.774,N,07702.484,W,080057.291,V*35
$GPVTG,1.49,T,,M,55.6,N,103.1,K*69
$GPRMC,080059.291,V,3854.772,N,07702.483,W,42.1,1.60,190416,,E*43
$GPGGA,080100.291,3854.772,N,07702.483,W,0,04,1.0,,M,,M,,*7C
$GPGLL,3854.772,N,07702.483,W,080101.291,V*36
$GPVTG,1.60,T,,M,42.1,N,77.9,K*59
$GPRMC,080103.291,V,3854.771,N,07702.482,W,75.2,1.51,190416,,E*4A
$GPGGA,080104.291,3854.771,N,07702.482,W,0,04,1.0,,M,,M,,*7A
$GPGLL,3854.771,N,07702.482,W,080105.291,V*30
$GPVTG,1.51,T,,M,75.2,N,139.3,K*6D
$GPRMC,080107.291,V,3854.769,N,07702.481,W,48.8,1.71,190416,,E*42
$GPGGA,080108.291,3854.769,N,07702.481,W,0,04,1.0,,M,,M,,*7C
$GPGLL,3854.769,N,07702.481,W,080109.291,V*36
$GPVTG,1.71,T,,M,48.8,N,90.4,K*5E
$GPGSA,A,2,04,01,15,08,19,19,,,,,,,0.2,0.9,0.3*32
$GPGSV,2,1,06,04,70,142,48,01,65,344,61,15,65,065,48,08,71,132,52*73
$GPGSV,2,2,06,19,39,058,85,19,33,263,49*7F
$GPRMC,080114.291,V,3854.768,N,07702.480,W,73.1,1.74,190416,,E*44
$GPGGA,080115.291,3854.768,N,07702.480,W,0,04,0.9,,M,,M,,*78
$GPGLL,3854.768,N,07702.480,W,080116.291,V*38
$GPVTG,1.74,T,,M,73.1,N,135.3,K*63
$GPRMC,080118.291,V,3854.766,N,07702.479,W,35.8,1.70,190416,,E*4F
$GPGGA,080119.291,3854.766,N,07702.479,W,0,04,0.9,,M,,M,,*7C
$GPGLL,3854.766,N,07702.479,W,080120.291,V*35
$GPVTG,1.70,T,,M,35.8,N,66.4,K*5C
$GPRMC,080122.291,V,3854.765,N,07702.478,W,99.5,1.70,190416,,E*4F
$GPGGA,080123.291,3854.765,N,07702.478,W,0,04,0.9,,M,,M,,*77
$GPGLL,3854.765,N,07702.478,W,080124.291,V*33
$GPVTG,1.70,T,,M,99.5,N,184.2,K*6C
$GPRMC,080126.291,V,3854.763,N,07702.477,W,17.7,1.61,190416,,E*46
$GPGGA,080127.291,3854.763,N,07702.477,W,0,04,0.9,,M,,M,,*7A
$GPGLL,3854.763,N,07702.477,W,080128.291,V*36
$GPVTG,1.61,T,,M,17.7,N,32.7,K*51
$GPRMC,080130.291,V,3854.762,N,07702.476,W,53.8,1.52,190416,,E*4E
$GPGGA,080131.291,3854.762,N,07702.476,W,0,04,0.9,,M,,M,,*7D
$GPGLL,3854.762,N,07702.476,W,080132.291,V*3D
$GPVTG,1.52,T,,M,53.8,N,99.6,K*5E
$GPRMC,080134.291,V,3854.760,N,07702.475,W,34.9,1.62,190416,,E*48
$GPGGA,080135.291,3854.760,N,07702.475,W,0,04,0.9,,M,,M,,*78
$GPGLL,3854.760,N,07702.475,W,080136.291,V*38
$GPVTG,1.62,T,,M,34.9,N,64.7,K*5E
$GPRMC,080138.291,V,3854.759,N,07702.474,W,58.5,1.67,190416,,E*4C
$GPGGA,080139.291,3854.759,N,07702.474,W,0,04,0.9,,M,,M,,*7F
$GPGLL,3854.759,N,07702.474,W,080140.291,V*32
$GPVTG,1.67,T,,M,58.5,N,108.4,K*65
$GPRMC,080142.291,V,3854.757,N,07702.473,W,22.4,1.66,190416,,E*45
$GPGGA,080143.291,3854.757,N,07702.473,W,0,04,0.9,,M,,M,,*7B
$GPGLL,3854.757,N,07702.473,W,080144.291,V*3F
$GPVTG,1.66,T,,M,22.4,N,41.5,K*55
$GPRMC,080146.291,V,3854.756,N,07702.472,W,71.6,1.66,190416,,E*45
$GPGGA,080147.291,3854.756,N,07702.472,W,0,04,0.9,,M,,M,,*7F
$GPGLL,3854.756,N,07702.472,W,080148.291,V*33
$GPVTG,1.66,T,,M,71.6,N,132.5,K*64
$GPRMC,080150.291,V,3854.754,N,07702.472,W,97.0,1.77,190416,,E*4E
$GPGGA,080151.291,3854.754,N,07702.472,W,0,04,0.9,,M,,M,,*7A
$GPGLL,3854.754,N,07702.472,W,080152.291,V*3A
$GPVTG,1.77,T,,M,97.0,N,179.6,K*66
$GPRMC,080154.291,V,3854.752,N,07702.471,W,60.2,1.88,190416,,E*45
$GPGGA,080155.291,3854.752,N,07702.471,W,0,04,0.9,,M,,M,,*7B
$GPGLL,3854.752,N,07702.471,W,080156.291,V*3B
$GPVTG,1.88,T,,M,60.2,N,111.5,K*61
$GPRMC,080158.291,V,3854.750,N,07702.471,W,6.0,1.90,190416,,E*70
$GPGGA,080159.291,3854.750,N,07702.471,W,0,04,0.9,,M,,M,,*75
$GPGLL,3854.750,N,07702.471,W,080200.291,V*39
$GPVTG,1.90,T,,M,6.0,N,11.1,K*6F
$GPRMC,080202.291,V,3854.749,N,07702.471,W,82.6,1.80,190416,,E*4F
$GPGGA,080203.291,3854.749,N,07702.471,W,0,04,0.9,,M,,M,,*71
$GPGLL,3854.749,N,07702.471,W,080204.291,V*35
$GPVTG,1.80,T,,M,82.6,N,152.9,K*6A
$GPGSA,A,2,04,01,15,08,19,19,,,,,,,0.8,0.2,0.4*34
$GPGSV,2,1,06,04,10,212,78,01,37,306,23,15,54,221,88,08,52,029,52*71
$GPGSV,2,2,06,19,18,251,34,19,89,204,75*72
$GPRMC,080209.291,V,3854.747,N,07702.470,W,18.1,1.87,190416,,E*48
$GPGGA,080210.291,3854.747,N,07702.470,W,0,04,0.2,,M,,M,,*77
$GPGLL,3854.747,N,07702.470,W,080211.291,V*3E
$GPVTG,1.87,T,,M,18.1,N,33.5,K*53
$GPRMC,080213.291,V,3854.745,N,07702.470,W,31.4,1.93,190416,,E*4A
$GPGGA,080214.291,3854.745,N,07702.470,W,0,04,0.2,,M,,M,,*71
$GPGLL,3854.745,N,07702.470,W,080215.291,V*38
$GPVTG,1.93,T,,M,31.4,N,58.2,K*52
$GPRMC,080217.291,V,3854.743,N,07702.470,W,75.5,1.83,190416,,E*48
$GPGGA,080218.291,3854.743,N,07702.470,W,0,04,0.2,,M,,M,,*7B
$GPGLL,3854.743,N,07702.470,W,080219.291,V*32
$GPVTG,1.83,T,,M,75.5,N,139.9,K*6F
$GPRMC,080221.291,V,3854.742,N,07702.469,W,87.5,1.76,190416,,E*43
$GPGGA,080222.291,3854.742,N,07702.469,W,0,04,0.2,,M,,M,,*7B
$GPGLL,3854.742,N,07702.469,W,080223.291,V*32
$GPVTG,1.76,T,,M,87.5,N,162.0,K*6F
$GPRMC,080225.291,V,3854.740,N,07702.468,W,98.1,1.77,190416,,E*4F
$GPGGA,080226.291,3854.740,N,07702.468,W,0,04,0.2,,M,,M,,*7C
$GPGLL,3854.740,N,07702.468,W,080227.291,V*35
$GPVTG,1.77,T,,M,98.1,N,181.8,K*61
$GPGSA,A,3,04,01,15,08,19,19,,,,,,,0.3,0.7,0.9*36
$GPGSV,2,1,06,04,62,007,86,01,72,166,68,15,73,319,88,08,41,175,58*76
$GPGSV,2,2,06,19,81,151,66,19,45,210,66*71
$GPRMC,080232.291,V,3854.738,N,07702.468,W,83.8,1.81,190416,,E*4C
$GPGGA,080233.291,3854.738,N,07702.468,W,0,04,0.7,,M,,M,,*72
$GPGLL,3854.738,N,07702.468,W,080234.291,V*38
$GPVTG,1.81,T,,M,83.8,N,155.2,K*68
$GPRMC,080236.291,V,3854.737,N,07702.467,W,88.7,1.76,190416,,E*44
$GPGGA,080237.291,3854.737,N,07702.467,W,0,04,0.7,,M,,M,,*76
$GPGLL,3854.737,N,07702.467,W,080238.291,V*34
$GPVTG,1.76,T,,M,88.7,N,164.3,K*67
$GPRMC,080240.291,V,3854.735,N,07702.466,W,32.8,1.71,190416,,E*4F
$GPGGA,080241.291,3854.735,N,07702.466,W,0,04,0.7,,M,,M,,*74
$GPGLL,3854.735,N,07702.466,W,080242.291,V*3A
$GPVTG,1.71,T,,M,32.8,N,60.7,K*5F
$GPRMC,080244.291,V,3854.733,N,07702.466,W,75.6,2.01,190416,,E*44
$GPGGA,080245.291,3854.733,N,07702.466,W,0,04,0.7,,M,,M,,*76
$GPGLL,3854.733,N,07702.466,W,080246.291,V*38
$GPVTG,2.01,T,,M,75.6,N,140.0,K*62
$GPRMC,080248.291,V,3854.731,N,07702.466,W,85.6,1.96,190416,,E*48
$GPGGA,080249.291,3854.731,N,07702.466,W,0,04,0.7,,M,,M,,*78
$GPGLL,3854.731,N,07702.466,W,080250.291,V*3D
$GPVTG,1.96,T,,M,85.6,N,158.5,K*6C
$GPGSA,A,3,04,01,15,08,19,19,,,,,,,0.6,0.6,0.6*3D
$GPGSV,2,1,06,04,86,336,19,01,05,180,27,15,56,259,22,08,45,271,53*72
$GPGSV,2,2,06,19,13,265,46,19,42,172,38*77
$GPRMC,080255.291,V,3854.730,N,07702.466,W,76.1,1.92,190416,,E*4A
$GPGGA,080256.291,3854.730,N,07702.466,W,0,04,0.6,,M,,M,,*76
$GPGLL,3854.730,N,07702.466,W,080257.291,V*3B
$GPVTG,1.92,T,,M,76.1,N,140.9,K*66
$GPRMC,080259.291,V,3854.728,N,07702.466,W,85.8,1.97,190416,,E*4F
$GPGGA,080300.291,3854.728,N,07702.466,W,0,04,0.6,,M,,M,,*7D
$GPGLL,3854.728,N,07702.466,W,080301.291,V*30
$GPVTG,1.97,T,,M,85.8,N,158.8,K*6E
$GPGSA,A,3,04,01,15,08,19,19,,,,,,,0.8,0.0,0.5*36
$GPGSV,2,1,06,04,45,195,43,01,48,032,25,15,36,122,22,08,69,011,20*7D
$GPGSV,2,2,06,19,85,107,82,19,09,024,48*7D
$GPRMC,080306.291,V,3854.726,N,07702.466,W,35.0,1.89,190416,,E*46
$GPGGA,080307.291,3854.726,N,07702.466,W,0,04,0.0,,M,,M,,*72
$GPGLL,3854.726,N,07702.466,W,080308.291,V*37
$GPVTG,1.89,T,,M,35.0,N,64.9,K*5D
$GPRMC,080310.291,V,3854.724,N,07702.466,W,43.7,2.19,190416,,E*4F
$GPGGA,080311.291,3854.724,N,07702.466,W,0,04,0.0,,M,,M,,*77
$GPGLL,3854.724,N,07702.466,W,080312.291,V*3E
$GPVTG,2.19,T,,M,43.7,N,80.9,K*5B
$GPRMC,080314.291,V,3854.723,N,07702.466,W,76.5,2.08,190416,,E*48
$GPGGA,080315.291,3854.723,N,07702.466,W,0,04,0.0,,M,,M,,*74
$GPGLL,3854.723,N,07702.466,W,080316.291,V*3D
$GPVTG,2.08,T,,M,76.5,N,141.8,K*62
$GPGSA,A,2,04,01,15,08,19,19,,,,,,,0.1,0.8,0.6*35
$GPGSV,2,1,06,04,58,189,27,01,85,334,18,15,84,227,46,08,66,045,69*7A
$GPGSV,2,2,06,19,59,096,72,19,54,317,48*71
$GPRMC,080321.291,V,3854.721,N,07702.467,W,4.2,2.15,190416,,E*73
$GPGGA,080322.291,3854.721,N,07702.467,W,0,04,0.8,,M,,M,,*7B
$GPGLL,3854.721,N,07702.467,W,080323.291,V*38
$GPVTG,2.15,T,,M,4.2,N,7.8,K*5F
$GPRMC,080325.291,V,3854.719,N,07702.467,W,1.4,2.21,190416,,E*78
$GPGGA,080326.291,3854.719,N,07702.467,W,0,04,0.8,,M,,M,,*74
$GPGLL,3854.719,N,07702.467,W,080327.291,V*37
$GPVTG,2.21,T,,M,1.4,N,2.6,K*50
$GPRMC,080329.291,V,3854.717,N,07702.468,W,50.1,2.12,190416,,E*44
$GPGGA,080330.291,3854.717,N,07702.468,W,0,04,0.8,,M,,M,,*72
$GPGLL,3854.717,N,07702.468,W,080331.291,V*31
$GPVTG,2.12,T,,M,50.1,N,92.8,K*56
$GPRMC,080333.291,V,3854.716,N,07702.468,W,44.0,2.21,190416,,E*4A
$GPGGA,080334.291,3854.716,N,07702.468,W,0,04,0.8,,M,,M,,*77
$GPGLL,3854.716,N,07702.468,W,080335.291,V*34
$GPVTG,2.21,T,,M,44.0,N,81.5,K*5D
$GPRMC,080337.291,V,3854.714,N,07702.469,W,83.0,2.27,190416,,E*40
$GPGGA,080338.291,3854.714,N,07702.469,W,0,04,0.8,,M,,M,,*78
$GPGLL,3854.714,N,07702.469,W,080339.291,V*3B
$GPVTG,2.27,T,,M,83.0,N,153.6,K*6D
$GPRMC,080341.291,V,3854.712,N,07702.470,W,81.6,2.36,190416,,E*4B
$GPGGA,080342.291,3854.712,N,07702.470,W,0,04,0.8,,M,,M,,*7B
$GPGLL,3854.712,N,07702.470,W,080343.291,V*38
$GPVTG,2.36,T,,M,81.6,N,151.2,K*6F
$GPGSA,A,2,04,01,15,08,19,19,,,,,,,0.8,0.5,0.0*37
$GPGSV,2,1,06,04,36,215,53,01,60,202,22,15,38,058,22,08,67,127,89*74
$GPGSV,2,2,06,19,42,107,88,19,85,273,40*70
$GPRMC,080348.291,V,3854.711,N,07702.471,W,65.8,2.43,190416,,E*46
$GPGGA,080349.291,3854.711,N,07702.471,W,0,04,0.5,,M,,M,,*7F
$GPGLL,3854.711,N,07702.471,W,080350.291,V*38
$GPVTG,2.43,T,,M,65.8,N,121.9,K*65
$GPRMC,080352.291,V,3854.710,N,07702.472,W,15.4,2.36,190416,,E*46
$GPGGA,080353.291,3854.710,N,07702.472,W,0,04,0.5,,M,,M,,*76
$GPGLL,3854.710,N,07702.472,W,080354.291,V*3E
$GPVTG,2.36,T,,M,15.4,N,28.5,K*58
$GPRMC,080356.291,V,3854.708,N,07702.473,W,67.6,2.31,190416,,E*4A
$GPGGA,080357.291,3854.708,N,07702.473,W,0,04,0.5,,M,,M,,*7A
$GPGLL,3854.708,N,07702.473,W,080358.291,V*3A
$GPVTG,2.31,T,,M,67.6,N,125.1,K*60
$GPRMC,080400.291,V,3854.706,N,07702.474,W,81.7,2.23,190416,,E*4D
$GPGGA,080401.291,3854.706,N,07702.474,W,0,04,0.5,,M,,M,,*77
$GPGLL,3854.706,N,07702.474,W,080402.291,V*3B
$GPVTG,2.23,T,,M,81.7,N,151.3,K*6B
$GPRMC,080404.291,V,3854.705,N,07702.474,W,36.1,2.23,190416,,E*40
$GPGGA,080405.291,3854.705,N,07702.474,W,0,04,0.5,,M,,M,,*70
$GPGLL,3854.705,N,07702.474,W,080406.291,V*3C
$GPVTG,2.23,T,,M,36.1,N,66.9,K*5E
$GPRMC,080408.291,V,3854.703,N,07702.475,W,90.2,2.22,190416,,E*45
$GPGGA,080409.291,3854.703,N,07702.475,W,0,04,0.5,,M,,M,,*7B
$GPGLL,3854.703,N,07702.475,W,080410.291,V*3C
$GPVTG,2.22,T,,M,90.2,N,167.0,K*69
$GPRMC,080412.291,V,3854.701,N,07702.475,W,52.9,2.22,190416,,E*49
$GPGGA,080413.291,3854.701,N,07702.475,W,0,04,0.5,,M,,M,,*72
$GPGLL,3854.701,N,07702.475,W,080414.291,V*3A
$GPVTG,2.22,T,,M,52.9,N,98.0,K*5D
$GPRMC,080416.291,V,3854.700,N,07702.476,W,68.0,2.26,190416,,E*4B
$GPGGA,080417.291,3854.700,N,07702.476,W,0,04,0.5,,M,,M,,*74
$GPGLL,3854.700,N,07702.476,W,080418.291,V*34
$GPVTG,2.26,T,,M,68.0,N,125.9,K*67
$GPRMC,080420.291,V,3854.698,N,07702.477,W,41.5,2.35,190416,,E*43
$GPGGA,080421.291,3854.698,N,07702.477,W,0,04,0.5,,M,,M,,*70
$GPGLL,3854.698,N,07702.477,W,080422.291,V*3C
$GPVTG,2.35,T,,M,41.5,N,76.8,K*5D
$GPRMC,080424.291,V,3854.697,N,07702.478,W,29.3,2.43,190416,,E*4E
$GPGGA,080425.291,3854.697,N,07702.478,W,0,04,0.5,,M,,M,,*74
$GPGLL,3854.697,N,07702.478,W,080426.291,V*38
$GPVTG,2.43,T,,M,29.3,N,54.2,K*5E
$GPRMC,080428.291,V,3854.695,N,07702.480,W,80.0,2.49,190416,,E*4D
$GPGGA,080429.291,3854.695,N,07702.480,W,0,04,0.5,,M,,M,,*7D
$GPGLL,3854.695,N,07702.480,W,080430.291,V*3A
$GPVTG,2.49,T,,M,80.0,N,148.1,K*6B
$GPRMC,080432.291,V,3854.694,N,07702.481,W,63.4,2.41,190416,,E*47
$GPGGA,080433.291,3854.694,N,07702.481,W,0,04,0.5,,M,,M,,*76
$GPGLL,3854.694,N,07702.481,W,080434.291,V*3E
$GPVTG,2.41,T,,M,63.4,N,117.5,K*64
$GPRMC,080436.291,V,3854.693,N,07702.482,W,33.9,2.49,190416,,E*47
$GPGGA,080437.291,3854.693,N,07702.482,W,0,04,0.5,,M,,M,,*76
$GPGLL,3854.693,N,07702.482,W,080438.291,V*36
$GPVTG,2.49,T,,M,33.9,N,62.9,K*5B
$GPRMC,080440.291,V,3854.691,N,07702.483,W,12.9,2.42,190416,,E*4D
$GPGGA,080441.291,3854.691,N,07702.483,W,0,04,0.5,,M,,M,,*74
$GPGLL,3854.691,N,07702.483,W,080442.291,V*38
$GPVTG,2.42,T,,M,12.9,N,23.8,K*57
$GPRMC,080444.291,V,3854.690,N,07702.484,W,31.2,2.35,190416,,E*45
$GPGGA,080445.291,3854.690,N,07702.484,W,0,04,0.5,,M,,M,,*76
$GPGLL,3854.690,N,07702.484,W,080446.291,V*3A
$GPVTG,2.35,T,,M,31.2,N,57.9,K*5F
$GPRMC,080448.291,V,3854.688,N,07702.485,W,21.5,2.37,190416,,E*45
$GPGGA,080449.291,3854.688,N,07702.485,W,0,04,0.5,,M,,M,,*72
$GPGLL,3854.688,N,07702.485,W,080450.291,V*35
$GPVTG,2.37,T,,M,21.5,N,39.8,K*52
$GPRMC,080452.291,V,3854.687,N,07702.486,W,29.2,2.40,190416,,E*4D
$GPGGA,080453.291,3854.687,N,07702.486,W,0,04,0.5,,M,,M,,*75
$GPGLL,3854.687,N,07702.486,W,080454.291,V*3D
$GPVTG,2.40,T,,M,29.2,N,54.1,K*5F
$GPRMC,080456.291,V,3854.685,N,07702.487,W,46.2,2.34,190416,,E*40
$GPGGA,080457.291,3854.685,N,07702.487,W,0,04,0.5,,M,,M,,*72
$GPGLL,3854.685,N,07702.487,W,080458.291,V*32
$GPVTG,2.34,T,,M,46.2,N,85.6,K*5E
$GPGSA,A,3,04,01,15,08,19,19,,,,,,,0.9,0.8,0.1*3B
$GPGSV,2,1,06,04,50,034,59,01,69,064,50,15,15,328,34,08,48,334,16*76
$GPGSV,2,2,06,19,45,239,28,19,82,129,81*75
$GPRMC,080503.291,V,3854.683,N,07702.488,W,24.9,2.27,190416,,E*45
$GPGGA,080504.291,3854.683,N,07702.488,W,0,04,0.8,,M,,M,,*71
$GPGLL,3854.683,N,07702.488,W,080505.291,V*32
$GPVTG,2.27,T,,M,24.9,N,46.1,K*5B
$GPRMC,080507.291,V,3854.682,N,07702.488,W,23.0,2.16,190416,,E*4C
$GPGGA,080508.291,3854.682,N,07702.488,W,0,04,0.8,,M,,M,,*7C
$GPGLL,3854.682,N,07702.488,W,080509.291,V*3F
$GPVTG,2.16,T,,M,23.0,N,42.5,K*57
$GPRMC,080511.291,V,3854.680,N,07702.489,W,92.0,2.25,190416,,E*42
$GPGGA,080512.291,3854.680,N,07702.489,W,0,04,0.8,,M,,M,,*74
$GPGLL,3854.680,N,07702.489,W,080513.291,V*37
$GPVTG,2.25,T,,M,92.0,N,170.4,K*6C
$GPRMC,080515.291,V,3854.679,N,07702.490,W,60.1,2.56,190416,,E*40
$GPGGA,080516.291,3854.679,N,07702.490,W,0,04,0.8,,M,,M,,*7E
$GPGLL,3854.679,N,07702.490,W,080517.291,V*3D
$GPVTG,2.56,T,,M,60.1,N,111.3,K*64
$GPGSA,A,3,04,01,15,08,19,19,,,,,,,0.6,0.8,0.2*37
$GPGSV,2,1,06,04,52,312,19,01,12,077,60,15,32,028,71,08,49,055,54*7E
$GPGSV,2,2,06,19,08,025,30,19,44,152,28*7F
$GPRMC,080522.291,V,3854.678,N,07702.491,W,7.5,2.51,190416,,E*76
$GPGGA,080523.291,3854.678,N,07702.491,W,0,04,0.8,,M,,M,,*78
$GPGLL,3854.678,N,07702.491,W,080524.291,V*3D
$GPVTG,2.51,T,,M,7.5,N,13.9,K*6F
$GPRMC,080526.291,V,3854.676,N,07702.493,W,82.5,2.44,190416,,E*47
$GPGGA,080527.291,3854.676,N,07702.493,W,0,04,0.8,,M,,M,,*70
$GPGLL,3854.676,N,07702.493,W,080528.291,V*3D
$GPVTG,2.44,T,,M,82.5,N,152.7,K*6C
$GPRMC,080530.291,V,3854.675,N,07702.494,W,9.5,2.39,190416,,E*7D
$GPGGA,080531.291,3854.675,N,07702.494,W,0,04,0.8,,M,,M,,*73
$GPGLL,3854.675,N,07702.494,W,080532.291,V*32
$GPVTG,2.39,T,,M,9.5,N,17.6,K*64
$GPRMC,080534.291,V,3854.673,N,07702.495,W,83.9,2.35,190416,,E*4C
$GPGGA,080535.291,3854.673,N,07702.495,W,0,04,0.8,,M,,M,,*70
$GPGLL,3854.673,N,07702.495,W,080536.291,V*31
$GPVTG,2.35,T,,M,83.9,N,155.4,K*63
$GPRMC,080538.291,V,3854.672,N,07702.495,W,34.4,2.30,190416,,E*45
$GPGGA,080539.291,3854.672,N,07702.495,W,0,04,0.8,,M,,M,,*7D
$GPGLL,3854.672,N,07702.495,W,080540.291,V*31
$GPVTG,2.30,T,,M,34.4,N,63.8,K*5F
$GPRMC,080542.291,V,3854.670,N,07702.496,W,99.3,2.24,190416,,E*4C
$GPGGA,080543.291,3854.670,N,07702.496,W,0,04,0.8,,M,,M,,*71
$GPGLL,3854.670,N,07702.496,W,080544.291,V*34
$GPVTG,2.24,T,,M,99.3,N,184.0,K*6A
$GPRMC,080546.291,V,3854.668,N,07702.497,W,47.1,2.18,190416,,E*4E
$GPGGA,080547.291,3854.668,N,07702.497,W,0,04,0.8,,M,,M,,*7D
$GPGLL,3854.668,N,07702.497,W,080548.291,V*30
$GPVTG,2.18,T,,M,47.1,N,87.3,K*55
$GPRMC,080550.291,V,3854.667,N,07702.497,W,50.2,2.25,190416,,E*4D
$GPGGA,080551.291,3854.667,N,07702.497,W,0,04,0.8,,M,,M,,*75
$GPGLL,3854.667,N,07702.497,W,080552.291,V*34
$GPVTG,2.25,T,,M,50.2,N,93.0,K*58
$GPRMC,080554.291,V,3854.665,N,07702.498,W,88.3,2.36,190416,,E*42
$GPGGA,080555.291,3854.665,N,07702.498,W,0,04,0.8,,M,,M,,*7C
$GPGLL,3854.665,N,07702.498,W,080556.291,V*3D
$GPVTG,2.36,T,,M,88.3,N,163.5,K*65
$GPRMC,080558.291,V,3854.664,N,07702.499,W,25.0,2.32,190416,,E*4E
$GPGGA,080559.291,3854.664,N,07702.499,W,0,04,0.8,,M,,M,,*70
$GPGLL,3854.664,N,07702.499,W,080600.291,V*3D
$GPVTG,2.32,T,,M,25.0,N,46.2,K*54
$GPRMC,080602.291,V,3854.662,N,07702.500,W,96.3,2.43,190416,,E*48
$GPGGA,080603.291,3854.662,N,07702.500,W,0,04,0.8,,M,,M,,*7B
$GPGLL,3854.662,N,07702.500,W,080604.291,V*3E
$GPVTG,2.43,T,,M,96.3,N,178.3,K*64
$GPRMC,080606.291,V,3854.661,N,07702.501,W,1.7,2.40,190416,,E*77
$GPGGA,080607.291,3854.661,N,07702.501,W,0,04,0.8,,M,,M,,*7D
$GPGLL,3854.661,N,07702.501,W,080608.291,V*30
$GPVTG,2.40,T,,M,1.7,N,3.1,K*52
$GPRMC,080610.291,V,3854.659,N,07702.502,W,0.2,2.50,190416,,E*7D
$GPGGA,080611.291,3854.659,N,07702.502,W,0,04,0.8,,M,,M,,*72
$GPGLL,3854.659,N,07702.502,W,080612.291,V*33
$GPVTG,2.50,T,,M,0.2,N,0.4,K*51
$GPRMC,080614.291,V,3854.658,N,07702.504,W,80.9,2.58,190416,,E*45
$GPGGA,080615.291,3854.658,N,07702.504,W,0,04,0.8,,M,,M,,*71
$GPGLL,3854.658,N,07702.504,W,080616.291,V*30
$GPVTG,2.58,T,,M,80.9,N,149.9,K*6B
$GPRMC,080618.291,V,3854.657,N,07702.505,W,93.8,2.60,190416,,E*4F
$GPGGA,080619.291,3854.657,N,07702.505,W,0,04,0.8,,M,,M,,*73
$GPGLL,3854.657,N,07702.505,W,080620.291,V*3B
$GPVTG,2.60,T,,M,93.8,N,173.7,K*64
$GPRMC,080622.291,V,3854.656,N,07702.507,W,53.3,2.60,190416,,E*42
$GPGGA,080623.291,3854.656,N,07702.507,W,0,04,0.8,,M,,M,,*79
$GPGLL,3854.656,N,07702.507,W,080624.291,V*3C
$GPVTG,2.60,T,,M,53.3,N,98.6,K*56
$GPRMC,080626.291,V,3854.655,N,07702.508,W,18.4,2.57,190416,,E*46
$GPGGA,080627.291,3854.655,N,07702.508,W,0,04,0.8,,M,,M,,*71
$GPGLL,3854.655,N,07702.508,W,080628.291,V*3C
$GPVTG,2.57,T,,M,18.4,N,34.1,K*5B
$GPRMC,080630.291,V,3854.654,N,07702.509,W,78.4,2.48,190416,,E*49
$GPGGA,080631.291,3854.654,N,07702.509,W,0,04,0.8,,M,,M,,*76
$GPGLL,3854.654,N,07702.509,W,080632.291,V*37
$GPVTG,2.48,T,,M,78.4,N,145.2,K*67
$GPRMC,080634.291,V,3854.652,N,07702.511,W,3.4,2.49,190416,,E*7F
$GPGGA,080635.291,3854.652,N,07702.511,W,0,04,0.8,,M,,M,,*7D
$GPGLL,3854.652,N,07702.511,W,080636.291,V*3C
$GPVTG,2.49,T,,M,3.4,N,6.2,K*5C
$GPGSA,A,2,04,01,15,08,19,19,,,,,,,0.5,0.3,0.8*34
$GPGSV,2,1,06,04,10,067,73,01,48,135,72,15,41,353,22,08,23,172,46*78
$GPGSV,2,2,06,19,85,175,37,19,47,067,84*7B
$GPRMC,080641.291,V,3854.651,N,07702.512,W,32.4,2.41,190416,,E*47
$GPGGA,080642.291,3854.651,N,07702.512,W,0,04,0.3,,M,,M,,*76
$GPGLL,3854.651,N,07702.512,W,080643.291,V*3E
$GPVTG,2.41,T,,M,32.4,N,59.9,K*57
$GPRMC,080645.291,V,3854.650,N,07702.513,W,47.8,2.52,190416,,E*4F
$GPGGA,080646.291,3854.650,N,07702.513,W,0,04,0.3,,M,,M,,*72
$GPGLL,3854.650,N,07702.513,W,080647.291,V*3A
$GPVTG,2.52,T,,M,47.8,N,88.4,K*5A
$GPRMC,080649.291,V,3854.649,N,07702.515,W,62.0,2.61,190416,,E*42
$GPGGA,080650.291,3854.649,N,07702.515,W,0,04,0.3,,M,,M,,*7B
$GPGLL,3854.649,N,07702.515,W,080651.291,V*33
$GPVTG,2.61,T,,M,62.0,N,114.9,K*6C
$GPRMC,080653.291,V,3854.648,N,07702.516,W,73.8,2.72,190416,,E*41
$GPGGA,080654.291,3854.648,N,07702.516,W,0,04,0.3,,M,,M,,*7D
$GPGLL,3854.648,N,07702.516,W,080655.291,V*35
$GPVTG,2.72,T,,M,73.8,N,136.7,K*68
$GPRMC,080657.291,V,3854.647,N,07702.518,W,21.7,2.72,190416,,E*4C
$GPGGA,080658.291,3854.647,N,07702.518,W,0,04,0.3,,M,,M,,*70
$GPGLL,3854.647,N,07702.518,W,080659.291,V*38
$GPVTG,2.72,T,,M,21.7,N,40.3,K*54
$GPRMC,080701.291,V,3854.646,N,07702.519,W,13.0,2.61,190416,,E*4A
$GPGGA,080702.291,3854.646,N,07702.519,W,0,04,0.3,,M,,M,,*7E
$GPGLL,3854.646,N,07702.519,W,080703.291,V*36
$GPVTG,2.61,T,,M,13.0,N,24.1,K*50
$GPRMC,080705.291,V,3854.645,N,07702.521,W,90.6,2.66,190416,,E*4C
$GPGGA,080706.291,3854.645,N,07702.521,W,0,04,0.3,,M,,M,,*72
$GPGLL,3854.645,N,07702.521,W,080707.291,V*3A
$GPVTG,2.66,T,,M,90.6,N,167.8,K*65
$GPRMC,080709.291,V,3854.644,N,07702.522,W,33.4,2.64,190416,,E*4B
$GPGGA,080710.291,3854.644,N,07702.522,W,0,04,0.3,,M,,M,,*77
$GPGLL,3854.644,N,07702.522,W,080711.291,V*3F
$GPVTG,2.64,T,,M,33.4,N,61.8,K*5B
$GPRMC,080713.291,V,3854.643,N,07702.524,W,42.7,2.56,190416,,E*45
$GPGGA,080714.291,3854.643,N,07702.524,W,0,04,0.3,,M,,M,,*72
$GPGLL,3854.643,N,07702.524,W,080715.291,V*3A
$GPVTG,2.56,T,,M,42.7,N,79.1,K*5F
$GPRMC,080717.291,V,3854.642,N,07702.525,W,96.6,2.46,190416,,E*48
$GPGGA,080718.291,3854.642,N,07702.525,W,0,04,0.3,,M,,M,,*7E
$GPGLL,3854.642,N,07702.525,W,080719.291,V*36
$GPVTG,2.46,T,,M,96.6,N,178.9,K*6E
$GPRMC,080721.291,V,3854.641,N,07702.526,W,56.5,2.52,190416,,E*47
$GPGGA,080722.291,3854.641,N,07702.526,W,0,04,0.3,,M,,M,,*77
$GPGLL,3854.641,N,07702.526,W,080723.291,V*3F
$GPVTG,2.52,T,,M,56.5,N,104.6,K*60
$GPRMC,080725.291,V,3854.639,N,07702.527,W,18.4,2.43,190416,,E*46
$GPGGA,080726.291,3854.639,N,07702.527,W,0,04,0.3,,M,,M,,*7D
$GPGLL,3854.639,N,07702.527,W,080727.291,V*35
$GPVTG,2.43,T,,M,18.4,N,34.0,K*5F
$GPRMC,080729.291,V,3854.638,N,07702.529,W,48.1,2.44,190416,,E*42
$GPGGA,080730.291,3854.638,N,07702.529,W,0,04,0.3,,M,,M,,*75
$GPGLL,3854.638,N,07702.529,W,080731.291,V*3D
$GPVTG,2.44,T,,M,48.1,N,89.1,K*5F
$GPRMC,080733.291,V,3854.637,N,07702.530,W,10.0,2.55,190416,,E*42
$GPGGA,080734.291,3854.637,N,07702.530,W,0,04,0.3,,M,,M,,*76
$GPGLL,3854.637,N,07702.530,W,080735.291,V*3E
$GPVTG,2.55,T,,M,10.0,N,18.4,K*5E
$GPRMC,080737.291,V,3854.636,N,07702.531,W,6.8,2.62,190416,,E*7D
$GPGGA,080738.291,3854.636,N,07702.531,W,0,04,0.3,,M,,M,,*7A
$GPGLL,3854.636,N,07702.531,W,080739.291,V*32
$GPVTG,2.62,T,,M,6.8,N,12.7,K*6C
$GPRMC,080741.291,V,3854.634,N,07702.533,W,45.8,2.53,190416,,E*49
$GPGGA,080742.291,3854.634,N,07702.533,W,0,04,0.3,,M,,M,,*77
$GPGLL,3854.634,N,07702.533,W,080743.291,V*3F
$GPVTG,2.53,T,,M,45.8,N,84.9,K*58
$GPRMC,080745.291,V,3854.633,N,07702.534,W,98.5,2.57,190416,,E*44
$GPGGA,080746.291,3854.633,N,07702.534,W,0,04,0.3,,M,,M,,*73
$GPGLL,3854.633,N,07702.534,W,080747.291,V*3B
$GPVTG,2.57,T,,M,98.5,N,182.5,K*6A
$GPGSA,A,2,04,01,15,08,19,19,,,,,,,0.7,0.5,0.8*30
$GPGSV,2,1,06,04,66,325,62,01,20,307,37,15,60,298,28,08,14,002,19*77
$GPGSV,2,2,06,19,31,120,73,19,64,238,79*7F
$GPRMC,080752.291,V,3854.632,N,07702.536,W,12.8,2.67,190416,,E*4D
$GPGGA,080753.291,3854.632,N,07702.536,W,0,04,0.5,,M,,M,,*72
$GPGLL,3854.632,N,07702.536,W,080754.291,V*3A
$GPVTG,2.67,T,,M,12.8,N,23.8,K*51
$GPRMC,080756.291,V,3854.631,N,07702.537,W,74.4,2.69,190416,,E*49
$GPGGA,080757.291,3854.631,N,07702.537,W,0,04,0.5,,M,,M,,*74
$GPGLL,3854.631,N,07702.537,W,080758.291,V*34
$GPVTG,2.69,T,,M,74.4,N,137.9,K*66
$GPRMC,080800.291,V,3854.631,N,07702.539,W,20.0,2.76,190416,,E*40
$GPGGA,080801.291,3854.631,N,07702.539,W,0,04,0.5,,M,,M,,*76
$GPGLL,3854.631,N,07702.539,W,080802.291,V*3A
$GPVTG,2.76,T,,M,20.0,N,37.1,K*54
$GPRMC,080804.291,V,3854.630,N,07702.541,W,89.0,2.80,190416,,E*40
$GPGGA,080805.291,3854.630,N,07702.541,W,0,04,0.5,,M,,M,,*7C
$GPGLL,3854.630,N,07702.541,W,080806.291,V*30
$GPVTG,2.80,T,,M,89.0,N,164.9,K*61
$GPGSA,A,2,04,01,15,08,19,19,,,,,,,0.5,0.8,0.2*35
$GPGSV,2,1,06,04,31,285,85,01,08,295,79,15,70,080,76,08,08,183,60*77
$GPGSV,2,2,06,19,83,120,24,19,54,329,19*70
$GPRMC,080811.291,V,3854.629,N,07702.542,W,24.9,2.71,190416,,E*4F
$GPGGA,080812.291,3854.629,N,07702.542,W,0,04,0.8,,M,,M,,*7C
$GPGLL,3854.629,N,07702.542,W,080813.291,V*3F
$GPVTG,2.71,T,,M,24.9,N,46.2,K*5B
$GPRMC,080815.291,V,3854.629,N,07702.544,W,44.0,2.69,190416,,E*4B
$GPGGA,080816.291,3854.629,N,07702.544,W,0,04,0.8,,M,,M,,*7E
$GPGLL,3854.629,N,07702.544,W,080817.291,V*3D
$GPVTG,2.69,T,,M,44.0,N,81.5,K*51
$GPRMC,080819.291,V,3854.628,N,07702.546,W,83.6,2.72,190416,,E*43
$GPGGA,080820.291,3854.628,N,07702.546,W,0,04,0.8,,M,,M,,*78
$GPGLL,3854.628,N,07702.546,W,080821.291,V*3B
$GPVTG,2.72,T,,M,83.6,N,154.7,K*6D
$GPRMC,080823.291,V,3854.627,N,07702.547,W,80.2,2.81,190416,,E*4F
$GPGGA,080824.291,3854.627,N,07702.547,W,0,04,0.8,,M,,M,,*72
$GPGLL,3854.627,N,07702.547,W,080825.291,V*31
$GPVTG,2.81,T,,M,80.2,N,148.6,K*6A
$GPRMC,080827.291,V,3854.627,N,07702.549,W,62.5,2.72,190416,,E*42
$GPGGA,080828.291,3854.627,N,07702.549,W,0,04,0.8,,M,,M,,*70
$GPGLL,3854.627,N,07702.549,W,080829.291,V*33
$GPVTG,2.72,T,,M,62.5,N,115.8,K*6B
$GPRMC,080831.291,V,3854.626,N,07702.550,W,11.5,2.66,190416,,E*4D
$GPGGA,080832.291,3854.626,N,07702.550,W,0,04,0.8,,M,,M,,*72
$GPGLL,3854.626,N,07702.550,W,080833.291,V*31
$GPVTG,2.66,T,,M,11.5,N,21.4,K*50
$GPRMC,080835.291,V,3854.625,N,07702.552,W,79.0,2.70,190416,,E*44
$GPGGA,080836.291,3854.625,N,07702.552,W,0,04,0.8,,M,,M,,*77
$GPGLL,3854.625,N,07702.552,W,080837.291,V*34
$GPVTG,2.70,T,,M,79.0,N,146.4,K*6C
$GPRMC,080839.291,V,3854.624,N,07702.554,W,44.7,2.68,190416,,E*4F
$GPGGA,080840.291,3854.624,N,07702.554,W,0,04,0.8,,M,,M,,*71
$GPGLL,3854.624,N,07702.554,W,080841.291,V*32
$GPVTG,2.68,T,,M,44.7,N,82.8,K*59
$GPRMC,080843.291,V,3854.623,N,07702.555,W,23.7,2.59,190416,,E*47
$GPGGA,080844.291,3854.623,N,07702.555,W,0,04,0.8,,M,,M,,*73
$GPGLL,3854.623,N,07702.555,W,080845.291,V*30
$GPVTG,2.59,T,,M,23.7,N,43.9,K*56
$GPRMC,080847.291,V,3854.622,N,07702.556,W,9.9,2.52,190416,,E*7C
$GPGGA,080848.291,3854.622,N,07702.556,W,0,04,0.8,,M,,M,,*7D
$GPGLL,3854.622,N,07702.556,W,080849.291,V*3E
$GPVTG,2.52,T,,M,9.9,N,18.3,K*6F
$GPRMC,080851.291,V,3854.621,N,07702.558,W,47.1,2.58,190416,,E*4E
$GPGGA,080852.291,3854.621,N,07702.558,W,0,04,0.8,,M,,M,,*7B
$GPGLL,3854.621,N,07702.558,W,080853.291,V*38
$GPVTG,2.58,T,,M,47.1,N,87.3,K*51
$GPRMC,080855.291,V,3854.620,N,07702.559,W,83.7,2.68,190416,,E*47
$GPGGA,080856.291,3854.620,N,07702.559,W,0,04,0.8,,M,,M,,*7F
$GPGLL,3854.620,N,07702.559,W,080857.291,V*3C
$GPVTG,2.68,T,,M,83.7,N,155.0,K*61
$GPRMC,080859.291,V,3854.619,N,07702.561,W,90.1,2.60,190416,,E*46
$GPGGA,080900.291,3854.619,N,07702.561,W,0,04,0.8,,M,,M,,*7C
$GPGLL,3854.619,N,07702.561,W,080901.291,V*3F
$GPVTG,2.60,T,,M,90.1,N,166.8,K*65
$GPRMC,080903.291,V,3854.617,N,07702.562,W,16.0,2.56,190416,,E*4F
$GPGGA,080904.291,3854.617,N,07702.562,W,0,04,0.8,,M,,M,,*75
$GPGLL,3854.617,N,07702.562,W,080905.291,V*36
$GPVTG,2.56,T,,M,16.0,N,29.7,K*5A
$GPRMC,080907.291,V,3854.616,N,07702.564,W,25.3,2.57,190416,,E*4E
$GPGGA,080908.291,3854.616,N,07702.564,W,0,04,0.8,,M,,M,,*7E
$GPGLL,3854.616,N,07702.564,W,080909.291,V*3D
$GPVTG,2.57,T,,M,25.3,N,46.8,K*5E
$GPRMC,080911.291,V,3854.615,N,07702.565,W,12.5,2.60,190416,,E*4D
$GPGGA,080912.291,3854.615,N,07702.565,W,0,04,0.8,,M,,M,,*77
$GPGLL,3854.615,N,07702.565,W,080913.291,V*34
$GPVTG,2.60,T,,M,12.5,N,23.2,K*51
$GPRMC,080915.291,V,3854.614,N,07702.566,W,13.7,2.56,190416,,E*4D
$GPGGA,080916.291,3854.614,N,07702.566,W,0,04,0.8,,M,,M,,*71
$GPGLL,3854.614,N,07702.566,W,080917.291,V*32
$GPVTG,2.56,T,,M,13.7,N,25.3,K*50
$GPRMC,080919.291,V,3854.613,N,07702.568,W,11.9,2.50,190416,,E*42
$GPGGA,080920.291,3854.613,N,07702.568,W,0,04,0.8,,M,,M,,*7D
$GPGLL,3854.613,N,07702.568,W,080921.291,V*3E
$GPVTG,2.50,T,,M,11.9,N,22.1,K*5F
$GPRMC,080923.291,V,3854.611,N,07702.569,W,89.6,2.40,190416,,E*47
$GPGGA,080924.291,3854.611,N,07702.569,W,0,04,0.8,,M,,M,,*7A
$GPGLL,3854.611,N,07702.569,W,080925.291,V*39
$GPVTG,2.40,T,,M,89.6,N,165.9,K*6A
$GPRMC,080927.291,V,3854.610,N,07702.570,W,76.4,2.49,190416,,E*41
$GPGGA,080928.291,3854.610,N,07702.570,W,0,04,0.8,,M,,M,,*7F
$GPGLL,3854.610,N,07702.570,W,080929.291,V*3C
$GPVTG,2.49,T,,M,76.4,N,141.5,K*6B
$GPRMC,080931.291,V,3854.609,N,07702.571,W,20.7,2.52,190416,,E*45
$GPGGA,080932.291,3854.609,N,07702.571,W,0,04,0.8,,M,,M,,*7D
$GPGLL,3854.609,N,07702.571,W,080933.291,V*3E
$GPVTG,2.52,T,,M,20.7,N,38.4,K*5F
$GPRMC,080935.291,V,3854.608,N,07702.573,W,11.5,2.63,190416,,E*40
$GPGGA,080936.291,3854.608,N,07702.573,W,0,04,0.8,,M,,M,,*7A
$GPGLL,3854.608,N,07702.573,W,080937.291,V*39
$GPVTG,2.63,T,,M,11.5,N,21.2,K*53
$GPRMC,080939.291,V,3854.607,N,07702.574,W,67.7,2.62,190416,,E*46
$GPGGA,080940.291,3854.607,N,07702.574,W,0,04,0.8,,M,,M,,*73
$GPGLL,3854.607,N,07702.574,W,080941.291,V*30
$GPVTG,2.62,T,,M,67.7,N,125.3,K*65
$GPRMC,080943.291,V,3854.606,N,07702.576,W,40.6,2.59,190416,,E*44
$GPGGA,080944.291,3854.606,N,07702.576,W,0,04,0.8,,M,,M,,*74
$GPGLL,3854.606,N,07702.576,W,080945.291,V*37
$GPVTG,2.59,T,,M,40.6,N,75.2,K*5C
$GPRMC,080947.291,V,3854.605,N,07702.577,W,91.1,2.55,190416,,E*45
$GPGGA,080948.291,3854.605,N,07702.577,W,0,04,0.8,,M,,M,,*7A
$GPGLL,3854.605,N,07702.577,W,080949.291,V*39
$GPVTG,2.55,T,,M,91.1,N,168.6,K*62
$GPRMC,080951.291,V,3854.603,N,07702.577,W,20.5,2.13,190416,,E*48
$GPGGA,080952.291,3854.603,N,07702.577,W,0,04,0.8,,M,,M,,*77
$GPGLL,3854.603,N,07702.577,W,080953.291,V*34
$GPVTG,2.13,T,,M,20.5,N,38.0,K*5C
$GPRMC,080955.291,V,3854.601,N,07702.578,W,41.1,2.21,190416,,E*43
$GPGGA,080956.291,3854.601,N,07702.578,W,0,04,0.8,,M,,M,,*7E
$GPGLL,3854.601,N,07702.578,W,080957.291,V*3D
$GPVTG,2.21,T,,M,41.1,N,76.2,K*56
$GPRMC,080959.291,V,3854.599,N,07702.578,W,61.4,2.16,190416,,E*4E
$GPGGA,081000.291,3854.599,N,07702.578,W,0,04,0.8,,M,,M,,*77
$GPGLL,3854.599,N,07702.578,W,081001.291,V*34
$GPVTG,2.16,T,,M,61.4,N,113.8,K*6D
$GPRMC,081003.291,V,3854.598,N,07702.579,W,68.2,2.11,190416,,E*41
$GPGGA,081004.291,3854.598,N,07702.579,W,0,04,0.8,,M,,M,,*73
$GPGLL,3854.598,N,07702.579,W,081005.291,V*30
$GPVTG,2.11,T,,M,68.2,N,126.3,K*68
$GPRMC,081007.291,V,3854.596,N,07702.579,W,96.9,2.01,190416,,E*40
$GPGGA,081008.291,3854.596,N,07702.579,W,0,04,0.8,,M,,M,,*71
$GPGLL,3854.596,N,07702.579,W,081009.291,V*32
$GPVTG,2.01,T,,M,96.9,N,179.4,K*6E
$GPRMC,081011.291,V,3854.594,N,07702.579,W,1.4,2.02,190416,,E*75
$GPGGA,081012.291,3854.594,N,07702.579,W,0,04,0.8,,M,,M,,*78
$GPGLL,3854.594,N,07702.579,W,081013.291,V*3B
$GPVTG,2.02,T,,M,1.4,N,2.7,K*50
$GPRMC,081015.291,V,3854.592,N,07702.579,W,25.1,2.07,190416,,E*41
$GPGGA,081016.291,3854.592,N,07702.579,W,0,04,0.8,,M,,M,,*7A
$GPGLL,3854.592,N,07702.579,W,081017.291,V*39
$GPVTG,2.07,T,,M,25.1,N,46.4,K*55
$GPRMC,081019.291,V,3854.590,N,07702.579,W,91.9,2.07,190416,,E*48
$GPGGA,081020.291,3854.590,N,07702.579,W,0,04,0.8,,M,,M,,*7D
$GPGLL,3854.590,N,07702.579,W,081021.291,V*3E
$GPVTG,2.07,T,,M,91.9,N,170.1,K*63
$GPRMC,081023.291,V,3854.589,N,07702.580,W,70.1,2.17,190416,,E*49
$GPGGA,081024.291,3854.589,N,07702.580,W,0,04,0.8,,M,,M,,*77
$GPGLL,3854.589,N,07702.580,W,081025.291,V*34
$GPVTG,2.17,T,,M,70.1,N,129.8,K*60
$GPGSA,A,2,04,01,15,08,19,19,,,,,,,0.9,0.9,0.1*3B
$GPGSV,2,1,06,04,65,344,47,01,10,253,87,15,49,122,80,08,66,206,73*78
$GPGSV,2,2,06,19,15,180,73,19,82,069,86*7D
$GPRMC,081030.291,V,3854.587,N,07702.580,W,83.8,2.18,190416,,E*4F
$GPGGA,081031.291,3854.587,N,07702.580,W,0,04,0.9,,M,,M,,*7C
$GPGLL,3854.587,N,07702.580,W,081032.291,V*3C
$GPVTG,2.18,T,,M,83.8,N,155.1,K*68
$GPRMC,081034.291,V,3854.585,N,07702.581,W,36.8,2.17,190416,,E*49
$GPGGA,081035.291,3854.585,N,07702.581,W,0,04,0.9,,M,,M,,*7B
$GPGLL,3854.585,N,07702.581,W,081036.291,V*3B
$GPVTG,2.17,T,,M,36.8,N,68.2,K*55
$GPGSA,A,2,04,01,15,08,19,19,,,,,,,0.6,0.0,0.0*3C
$GPGSV,2,1,06,04,10,355,38,01,88,093,59,15,18,328,60,08,17,056,27*7C
$GPGSV,2,2,06,19,13,033,65,19,24,069,62*73
$GPRMC,081041.291,V,3854.583,N,07702.581,W,93.5,2.12,190416,,E*4A
$GPGGA,081042.291,3854.583,N,07702.581,W,0,04,0.0,,M,,M,,*74
$GPGLL,3854.583,N,07702.581,W,081043.291,V*3F
$GPVTG,2.12,T,,M,93.5,N,173.2,K*69
$GPRMC,081045.291,V,3854.582,N,07702.581,W,47.8,2.04,190416,,E*4C
$GPGGA,081046.291,3854.582,N,07702.581,W,0,04,0.0,,M,,M,,*71
$GPGLL,3854.582,N,07702.581,W,081047.291,V*3A
$GPVTG,2.04,T,,M,47.8,N,88.5,K*58
$GPGSA,A,2,04,01,15,08,19,19,,,,,,,0.5,0.3,0.5*39
$GPGSV,2,1,06,04,20,016,54,01,28,275,58,15,12,280,18,08,40,190,34*7D
$GPGSV,2,2,06,19,09,247,19,19,56,251,46*78
$GPRMC,081052.291,V,3854.580,N,07702.581,W,90.6,2.09,190416,,E*41
$GPGGA,081053.291,3854.580,N,07702.581,W,0,04,0.3,,M,,M,,*74
$GPGLL,3854.580,N,07702.581,W,081054.291,V*3A
$GPVTG,2.09,T,,M,90.6,N,167.8,K*6C
$GPRMC,081056.291,V,3854.578,N,07702.581,W,89.2,2.02,190416,,E*45
$GPGGA,081057.291,3854.578,N,07702.581,W,0,04,0.3,,M,,M,,*77
$GPGLL,3854.578,N,07702.581,W,081058.291,V*31
$GPVTG,2.02,T,,M,89.2,N,165.2,K*63
$GPRMC,081100.291,V,3854.576,N,07702.582,W,84.1,2.11,190416,,E*46
$GPGGA,081101.291,3854.576,N,07702.582,W,0,04,0.3,,M,,M,,*78
$GPGLL,3854.576,N,07702.582,W,081102.291,V*32
$GPVTG,2.11,T,,M,84.1,N,155.7,K*69
$GPRMC,081104.291,V,3854.575,N,07702.582,W,44.7,2.14,190416,,E*4E
$GPGGA,081105.291,3854.575,N,07702.582,W,0,04,0.3,,M,,M,,*7F
$GPGLL,3854.575,N,07702.582,W,081106.291,V*35
$GPVTG,2.14,T,,M,44.7,N,82.7,K*5D
$GPRMC,081108.291,V,3854.573,N,07702.582,W,47.9,2.08,190416,,E*44
$GPGGA,081109.291,3854.573,N,07702.582,W,0,04,0.3,,M,,M,,*75
$GPGLL,3854.573,N,07702.582,W,081110.291,V*34
$GPVTG,2.08,T,,M,47.9,N,88.6,K*56
$GPRMC,081112.291,V,3854.571,N,07702.581,W,24.0,1.65,190416,,E*4A
$GPGGA,081113.291,3854.571,N,07702.581,W,0,04,0.3,,M,,M,,*7F
$GPGLL,3854.571,N,07702.581,W,081114.291,V*31
$GPVTG,1.65,T,,M,24.0,N,44.4,K*50
$GPRMC,081116.291,V,3854.570,N,07702.581,W,36.4,1.72,190416,,E*4E
$GPGGA,081117.291,3854.570,N,07702.581,W,0,04,0.3,,M,,M,,*7A
$GPGLL,3854.570,N,07702.581,W,081118.291,V*3C
$GPVTG,1.72,T,,M,36.4,N,67.4,K*50
$GPRMC,081120.291,V,3854.568,N,07702.580,W,32.0,1.75,190416,,E*44
$GPGGA,081121.291,3854.568,N,07702.580,W,0,04,0.3,,M,,M,,*77
$GPGLL,3854.568,N,07702.580,W,081122.291,V*3D
$GPVTG,1.75,T,,M,32.0,N,59.3,K*5D
$GPRMC,081124.291,V,3854.566,N,07702.580,W,29.3,1.84,190416,,E*49
$GPGGA,081125.291,3854.566,N,07702.580,W,0,04,0.3,,M,,M,,*7D
$GPGLL,3854.566,N,07702.580,W,081126.291,V*37
$GPVTG,1.84,T,,M,29.3,N,54.2,K*56
$GPRMC,081128.291,V,3854.565,N,07702.579,W,51.7,1.73,190416,,E*43
$GPGGA,081129.291,3854.565,N,07702.579,W,0,04,0.3,,M,,M,,*74
$GPGLL,3854.565,N,07702.579,W,081130.291,V*35
$GPVTG,1.73,T,,M,51.7,N,95.7,K*5D
$GPRMC,081132.291,V,3854.563,N,07702.579,W,38.4,2.20,190416,,E*47
$GPGGA,081133.291,3854.563,N,07702.579,W,0,04,0.3,,M,,M,,*79
$GPGLL,3854.563,N,07702.579,W,081134.291,V*37
$GPVTG,2.20,T,,M,38.4,N,71.1,K*58
$GPRMC,081136.291,V,3854.561,N,07702.580,W,14.9,2.21,190416,,E*45
$GPGGA,081137.291,3854.561,N,07702.580,W,0,04,0.3,,M,,M,,*79
$GPGLL,3854.561,N,07702.580,W,081138.291,V*3F
$GPVTG,2.21,T,,M,14.9,N,27.6,K*5E
$GPGSA,A,3,04,01,15,08,19,19,,,,,,,0.2,0.5,0.2*3E
$GPGSV,2,1,06,04,36,023,24,01,54,357,58,15,46,066,56,08,05,038,73*71
$GPGSV,2,2,06,19,83,193,77,19,53,224,79*73
$GPRMC,081143.291,V,3854.560,N,07702.581,W,71.5,2.30,190416,,E*48
$GPGGA,081144.291,3854.560,N,07702.581,W,0,04,0.5,,M,,M,,*7B
$GPGLL,3854.560,N,07702.581,W,081145.291,V*35
$GPVTG,2.30,T,,M,71.5,N,132.4,K*66
$GPRMC,081147.291,V,3854.558,N,07702.582,W,12.8,2.34,190416,,E*48
$GPGGA,081148.291,3854.558,N,07702.582,W,0,04,0.5,,M,,M,,*7F
$GPGLL,3854.558,N,07702.582,W,081149.291,V*31
$GPVTG,2.34,T,,M,12.8,N,23.7,K*58
$GPRMC,081151.291,V,3854.557,N,07702.583,W,97.1,2.77,190416,,E*42
$GPGGA,081152.291,3854.557,N,07702.583,W,0,04,0.5,,M,,M,,*7A
$GPGLL,3854.557,N,07702.583,W,081153.291,V*34
$GPVTG,2.77,T,,M,97.1,N,179.9,K*6B
$GPRMC,081155.291,V,3854.557,N,07702.585,W,28.9,2.79,190416,,E*42
$GPGGA,081156.291,3854.557,N,07702.585,W,0,04,0.5,,M,,M,,*78
$GPGLL,3854.557,N,07702.585,W,081157.291,V*36
$GPVTG,2.79,T,,M,28.9,N,53.5,K*5C
$GPRMC,081159.291,V,3854.556,N,07702.587,W,98.9,2.76,190416,,E*49
$GPGGA,081200.291,3854.556,N,07702.587,W,0,04,0.5,,M,,M,,*7B
$GPGLL,3854.556,N,07702.587,W,081201.291,V*35
$GPVTG,2.76,T,,M,98.9,N,183.1,K*60
$GPRMC,081203.291,V,3854.555,N,07702.588,W,66.3,2.67,190416,,E*42
$GPGGA,081204.291,3854.555,N,07702.588,W,0,04,0.5,,M,,M,,*73
$GPGLL,3854.555,N,07702.588,W,081205.291,V*3D
$GPVTG,2.67,T,,M,66.3,N,122.8,K*69
$GPRMC,081207.291,V,3854.554,N,07702.590,W,38.7,2.73,190416,,E*44
$GPGGA,081208.291,3854.554,N,07702.590,W,0,04,0.5,,M,,M,,*77
$GPGLL,3854.554,N,07702.590,W,081209.291,V*39
$GPVTG,2.73,T,,M,38.7,N,71.7,K*5B
$GPRMC,081211.291,V,3854.554,N,07702.592,W,13.2,2.81,190416,,E*40
$GPGGA,081212.291,3854.554,N,07702.592,W,0,04,0.5,,M,,M,,*7E
$GPGLL,3854.554,N,07702.592,W,081213.291,V*30
$GPVTG,2.81,T,,M,13.2,N,24.4,K*59
$GPGSA,A,2,04,01,15,08,19,19,,,,,,,0.2,1.0,0.4*3D
$GPGSV,2,1,06,04,60,023,81,01,51,293,66,15,27,170,45,08,74,034,15*75
$GPGSV,2,2,06,19,63,011,74,19,29,353,37*73
$GPRMC,081218.291,V,3854.554,N,07702.593,W,91.2,2.88,190416,,E*4B
$GPGGA,081219.291,3854.554,N,07702.593,W,0,04,1.0,,M,,M,,*70
$GPGLL,3854.554,N,07702.593,W,081220.291,V*31
$GPVTG,2.88,T,,M,91.2,N,168.9,K*6E
$GPRMC,081222.291,V,3854.553,N,07702.595,W,61.0,2.83,190416,,E*45
$GPGGA,081223.291,3854.553,N,07702.595,W,0,04,1.0,,M,,M,,*78
$GPGLL,3854.553,N,07702.595,W,081224.291,V*34
$GPVTG,2.83,T,,M,61.0,N,113.1,K*6C
$GPRMC,081226.291,V,3854.553,N,07702.597,W,24.8,2.85,190416,,E*4C
$GPGGA,081227.291,3854.553,N,07702.597,W,0,04,1.0,,M,,M,,*7E
$GPGLL,3854.553,N,07702.597,W,081228.291,V*3A
$GPVTG,2.85,T,,M,24.8,N,46.0,K*53
$GPRMC,081230.291,V,3854.552,N,07702.599,W,25.2,2.87,190416,,E*4D
$GPGGA,081231.291,3854.552,N,07702.599,W,0,04,1.0,,M,,M,,*76
$GPGLL,3854.552,N,07702.599,W,081232.291,V*3E
$GPVTG,2.87,T,,M,25.2,N,46.6,K*5C
$GPRMC,081234.291,V,3854.552,N,07702.600,W,77.9,2.76,190416,,E*48
